[{"zip_code":"93049","street":"Weinweg 6","school_type_entity":"Abend-Realschule","school_type":"Abendrealschule","phone_number":"+49 941 4615354","old_slug":null,"official_id":"684","name":"Private Abendrealschule für Berufstätige der Gesellschaft f.Erwachsenenbildung e.V., Regensburg","lon":12.075821,"lat":49.024975,"homepage_url":null,"federal_state_code":"BY","fax_number":"+49 941 26628","email_address":null,"city":"Regensburg"},{"zip_code":"97276","street":"Zellerstr. 8","school_type_entity":"Abend-Gymnasium","school_type":"Abendgymnasium","phone_number":"+49 931 467900","old_slug":null,"official_id":"347","name":"Privates Abendgymnasium Würzburg Service Center","lon":9.86632,"lat":49.826466,"homepage_url":null,"federal_state_code":"BY","fax_number":"+49 931 4679020","email_address":null,"city":"Margetshöchheim"},{"zip_code":"97509","street":"Kloster St. Ludwig","school_type_entity":"Berufsschule","school_type":"Berufsschule zur sonderpädagogischen Förderung","phone_number":"+49 9385 860","old_slug":null,"official_id":"7277","name":"Von-Pelkhoven-Schule St.Ludwig, Berufsschule zur sonderpäd.Förd.m.Förderschwerp.soz.u.emot.Entwickl","lon":10.2015497,"lat":49.9249776,"homepage_url":null,"federal_state_code":"BY","fax_number":null,"email_address":null,"city":"Kolitzheim"},{"zip_code":"97828","street":"Friedenstraße 44","school_type_entity":"Berufsoberschule","school_type":"Berufsoberschule","phone_number":"+49 9391 2257","old_slug":null,"official_id":"831","name":"Staatliche Berufsoberschule Marktheidenfeld","lon":9.604493,"lat":49.849073,"homepage_url":null,"federal_state_code":"BY","fax_number":"+49 9391 917429","email_address":null,"city":"Marktheidenfeld"},{"zip_code":"97424","street":"Wirsingstr. 7","school_type_entity":"Ausländische Schule","school_type":"Ausländische Schule","phone_number":"+49 9721 804626","old_slug":null,"official_id":"1032","name":"Privates Lyzeum der Republik Griechenland in Schweinfurt","lon":10.208065,"lat":50.035559,"homepage_url":null,"federal_state_code":"BY","fax_number":null,"email_address":null,"city":"Schweinfurt"},{"zip_code":"82380","street":"Wörther-Kirch-Str. 10","school_type_entity":"Grund- und Teilhauptschule","school_type":"Grund- und Teilhauptschule","phone_number":"+49 8803 60603","old_slug":null,"official_id":"2269","name":"Private Montessori-Volksschule Peißenberg","lon":11.06462,"lat":47.7891,"homepage_url":null,"federal_state_code":"BY","fax_number":"+49 8803 4428","email_address":null,"city":"Peißenberg"},{"zip_code":"63743","street":"Bavariastr. 39","school_type_entity":"Grund- und Hauptschule","school_type":"Grund- und Hauptschule","phone_number":"+49 6021 970129","old_slug":null,"official_id":"7506","name":"Hefner-Alteneck-Volksschule Aschaffenburg","lon":9.152098,"lat":49.963309,"homepage_url":null,"federal_state_code":"BY","fax_number":"+49 6021 970086","email_address":null,"city":"Aschaffenburg"},{"zip_code":"63864","street":"Am Scharfen Eck 3","school_type_entity":"Grund- und Hauptschule","school_type":"Grund- und Hauptschule","phone_number":"+49 6021 410930","old_slug":"63864-vs-glattbach","official_id":"7599","name":"Volksschule Glattbach","lon":9.148472,"lat":50.006372,"homepage_url":"http://www.vsglattbach.de/","federal_state_code":"BY","fax_number":"+49 6021 410931","email_address":"sekretariat@vsglattbach.de","city":"Glattbach"},{"zip_code":"83101","street":"Untere Dorfstr. 14","school_type_entity":"Fachoberschule","school_type":"Fachoberschule","phone_number":null,"old_slug":null,"official_id":"933","name":"Montessori-Fachoberschule des Montessori-Schule Rosenheim-Rohrdorf Fördervereins e.V. in Rohrdorf","lon":12.168346,"lat":47.799421,"homepage_url":null,"federal_state_code":"BY","fax_number":null,"email_address":null,"city":"Rohrdorf"},{"zip_code":"80336","street":"Kaiser-Ludwig-Platz 3","school_type_entity":"Gymnasium","school_type":"Gymnasium","phone_number":"+49 89 5441270","old_slug":"80336-theresien-gymnasium-muenchen","official_id":"177","name":"Theresien-Gymnasium München","lon":11.556458,"lat":48.131906,"homepage_url":"http://www.thg.musin.de","federal_state_code":"BY","fax_number":"+49 89 54412717","email_address":null,"city":"München"},{"zip_code":"80638","street":"Sadelerstr. 10","school_type_entity":"Gymnasium","school_type":"Gymnasium","phone_number":"+49 89 159120","old_slug":"80638-nymphenburger-gymnasium-muenchen-des-schulvereins-ernst-adam-e-v","official_id":"208","name":"Nymphenburger Gymnasium München des Schulvereins Ernst Adam e.V.","lon":11.521164,"lat":48.165579,"homepage_url":"http://www.nymphenburger-schulen.de","federal_state_code":"BY","fax_number":"+49 89 15912130","email_address":null,"city":"München"},{"zip_code":"80803","street":"Karl-Theodor-Str. 9","school_type_entity":"Gymnasium","school_type":"Gymnasium","phone_number":"+49 89 3801680","old_slug":"80803-maximiliansgymnasium-muenchen","official_id":"176","name":"Maximiliansgymnasium München","lon":11.584957,"lat":48.165083,"homepage_url":"http://www.maxgym.musin.de","federal_state_code":"BY","fax_number":"+49 89 38016840","email_address":null,"city":"München"},{"zip_code":"81241","street":"Ebenböckstr. 1","school_type_entity":"Gymnasium","school_type":"Gymnasium","phone_number":"+49 89 8960180","old_slug":"81241-staedtisches-elsa-braendstroem-gymnasium-muenchen","official_id":"193","name":"Städtisches Elsa-Brändström-Gymnasium München","lon":11.464144,"lat":48.145543,"homepage_url":"http://www.elsa.musin.de","federal_state_code":"BY","fax_number":"+49 89 89601842","email_address":null,"city":"München"},{"zip_code":"81377","street":"Fürstenrieder Str. 159a","school_type_entity":"Gymnasium","school_type":"Gymnasium","phone_number":"+49 89 7145511","old_slug":"81377-ludwigsgymnasium-muenchen","official_id":"175","name":"Ludwigsgymnasium München","lon":11.504679,"lat":48.122118,"homepage_url":"http://www.ludwigsgymnasium-muenchen.de","federal_state_code":"BY","fax_number":"+49 89 7193472","email_address":null,"city":"München"},{"zip_code":"82049","street":"Hans-Keis-Straße 61","school_type_entity":"Gymnasium","school_type":"Gymnasium","phone_number":"+49 89 7497530","old_slug":null,"official_id":"261","name":"Gymnasium Pullach","lon":11.525465,"lat":48.066556,"homepage_url":null,"federal_state_code":"BY","fax_number":"+49 89 749753299","email_address":null,"city":"Pullach"},{"zip_code":"82319","street":"Rheinlandstraße 2","school_type_entity":"Gymnasium","school_type":"Gymnasium","phone_number":"+49 8151 91300","old_slug":null,"official_id":"295","name":"Gymnasium Starnberg","lon":11.34451,"lat":48.003305,"homepage_url":null,"federal_state_code":"BY","fax_number":"+49 8151 913090","email_address":null,"city":"Starnberg"},{"zip_code":"83022","street":"Königstr. 25","school_type_entity":"Gymnasium","school_type":"Gymnasium","phone_number":"+49 8031 361924","old_slug":"83022-finsterwalder-gymnasium","official_id":"274","name":"Finsterwalder-Gymnasium Rosenheim","lon":12.131213,"lat":47.852485,"homepage_url":"http://www.schulen.rosenheim.de/finsterwaldergym/","federal_state_code":"BY","fax_number":"+49 8031 362023","email_address":"fwg@rosenheim.de","city":"Rosenheim"},{"zip_code":"83301","street":"Adalbert-Stifter-Straße 36","school_type_entity":"Gymnasium","school_type":"Gymnasium","phone_number":"+49 8669 2405","old_slug":null,"official_id":"305","name":"Johannes-Heidenhain-Gymnasium Traunreut","lon":12.595913,"lat":47.95922,"homepage_url":null,"federal_state_code":"BY","fax_number":"+49 8669 5913","email_address":null,"city":"Traunreut"},{"zip_code":"83646","street":"Hindenburgstraße 26","school_type_entity":"Gymnasium","school_type":"Gymnasium","phone_number":"+49 8041 9740","old_slug":null,"official_id":"29","name":"Gabriel-von-Seidl-Gymnasium Bad Tölz","lon":11.564792,"lat":47.764188,"homepage_url":null,"federal_state_code":"BY","fax_number":"+49 8041 8853","email_address":null,"city":"Bad Tölz"},{"zip_code":"84034","street":"Bismarckplatz 14","school_type_entity":"Gymnasium","school_type":"Gymnasium","phone_number":"+49 871 821200","old_slug":"84034-wirtschaftsschule-seligenthal","official_id":"148","name":"Gymnasium der Schulstiftung Seligenthal Landshut","lon":12.148565,"lat":48.542448,"homepage_url":"http://www.wirtschaftsschule.seligenthal.de","federal_state_code":"BY","fax_number":"+49 871 821205","email_address":"wirtschaftsschule@seligenthal.de","city":"Landshut"},{"zip_code":"84489","street":"Kanzelmüllerstraße 90 1/2","school_type_entity":"Gymnasium","school_type":"Gymnasium","phone_number":"+49 8677 9743","old_slug":null,"official_id":"48","name":"Kurfürst-Maximilian-Gymnasium Burghausen","lon":12.834275,"lat":48.160566,"homepage_url":null,"federal_state_code":"BY","fax_number":"+49 8677 9743","email_address":null,"city":"Burghausen"},{"zip_code":"85049","street":"Kupferstr. 23","school_type_entity":"Gymnasium","school_type":"Gymnasium","phone_number":"+49 841 9387030","old_slug":null,"official_id":"126","name":"Gnadenthal-Gymnasium Ingolstadt der Diözese Eichstätt","lon":11.421299,"lat":48.765179,"homepage_url":null,"federal_state_code":"BY","fax_number":"+49 841 93870","email_address":null,"city":"Ingolstadt"},{"zip_code":"85354","street":"Vimystr. 14","school_type_entity":"Gymnasium","school_type":"Gymnasium","phone_number":"+49 8161 97100","old_slug":"85354-josef-hofmiller-gymnasium","official_id":"85","name":"Josef-Hofmiller-Gymnasium Freising","lon":11.742373,"lat":48.405582,"homepage_url":"http://www.johogym-freising.de","federal_state_code":"BY","fax_number":"+49 8161 971030","email_address":"joho@johogym-freising.de","city":"Freising"},{"zip_code":"85551","street":"Heimstettener Str. 3","school_type_entity":"Gymnasium","school_type":"Gymnasium","phone_number":"+49 89 90310","old_slug":null,"official_id":"971","name":"Gymnasium Kirchheim b.München","lon":11.75,"lat":48.18333,"homepage_url":null,"federal_state_code":"BY","fax_number":"+49 89 9037198","email_address":null,"city":"Kirchheim"},{"zip_code":"86152","street":"Gallusplatz 2","school_type_entity":"Gymnasium","school_type":"Gymnasium","phone_number":"+49 821 324","old_slug":"86152-gymnasium-bei-st-stephan","official_id":"18","name":"Gymnasium bei St.Stephan Augsburg","lon":10.899052,"lat":48.376407,"homepage_url":"http://www.st-stephan.de","federal_state_code":"BY","fax_number":"+49 821 32418505","email_address":"gymnasium@st-stephan.de","city":"Augsburg"},{"zip_code":"86381","street":"Jochnerstraße 30","school_type_entity":"Gymnasium","school_type":"Gymnasium","phone_number":"+49 8282 89610","old_slug":null,"official_id":"141","name":"Simpert-Kraemer-Gymnasium Krumbach","lon":10.355863,"lat":48.243718,"homepage_url":null,"federal_state_code":"BY","fax_number":"+49 8282 896130","email_address":null,"city":"Krumbach"},{"zip_code":"86899","street":"Lechstraße 6","school_type_entity":"Gymnasium","school_type":"Gymnasium","phone_number":"+49 8191 657108","old_slug":null,"official_id":"951","name":"Ignaz-Kögler-Gymnasium Landsberg am Lech","lon":10.873627,"lat":48.052197,"homepage_url":null,"federal_state_code":"BY","fax_number":"+49 8191 65710865","email_address":null,"city":"Landsberg"},{"zip_code":"87600","street":"Kemnater Straße 19","school_type_entity":"Gymnasium","school_type":"Gymnasium","phone_number":"+49 8341 2341","old_slug":null,"official_id":"130","name":"Marien-Gymnasium Kaufbeuren d. Schulwerks d. Diözese Augsburg","lon":10.611379,"lat":47.88172,"homepage_url":null,"federal_state_code":"BY","fax_number":"+49 8341 12341","email_address":null,"city":"Kaufbeuren"},{"zip_code":"87724","street":"Bergstraße 80","school_type_entity":"Gymnasium","school_type":"Gymnasium","phone_number":"+49 8332 922410","old_slug":null,"official_id":"249","name":"Rupert-Ness-Gymnasium Ottobeuren","lon":10.297161,"lat":47.94686,"homepage_url":null,"federal_state_code":"BY","fax_number":"+49 8332 922420","email_address":null,"city":"Ottobeuren"},{"zip_code":"89269","street":"Zum Sportplatz 17","school_type_entity":"Gymnasium","school_type":"Gymnasium","phone_number":"+49 7307 939600","old_slug":"89269-illertal-gymnasium","official_id":"395","name":"Illertal-Gymnasium Vöhringen","lon":10.053334,"lat":48.302183,"homepage_url":"http://www.igv.schule.neu-ulm.de","federal_state_code":"BY","fax_number":"+49 7307 939610","email_address":"post@mail.igv.schule.neu-ulm.de","city":"Vöhringen Illerzell"},{"zip_code":"90403","street":"Innerer Laufer Platz 11","school_type_entity":"Gymnasium","school_type":"Gymnasium","phone_number":"+49 911 227985","old_slug":"90403-willstaetter-gymnasium","official_id":"233","name":"Willstätter-Gymnasium Nürnberg","lon":11.083564,"lat":49.456341,"homepage_url":"http://www.willstaetter-gymnasium.de","federal_state_code":"BY","fax_number":"+49 911 2447454","email_address":"schulleitung@willstaetter-gymnasium.de","city":"Nürnberg"},{"zip_code":"90489","street":"Sulzbacher Str. 32","school_type_entity":"Gymnasium","school_type":"Gymnasium","phone_number":"+49 911 2315540","old_slug":"90489-melanchthon-gymnasium","official_id":"231","name":"Melanchthon-Gymnasium Nürnberg","lon":11.09402,"lat":49.457858,"homepage_url":"http://www.melanchthon-gymnasium.de","federal_state_code":"BY","fax_number":"+49 911 2315558","email_address":"melgym@t-online.de","city":"Nürnberg"},{"zip_code":"90579","street":"Sportplatzstraße 2","school_type_entity":"Gymnasium","school_type":"Gymnasium","phone_number":"+49 9101 90418","old_slug":null,"official_id":"966","name":"Wolfgang-Borchert-Gymnasium Langenzenn","lon":10.779986,"lat":49.491848,"homepage_url":null,"federal_state_code":"BY","fax_number":"+49 9101 90418","email_address":null,"city":"Langenzenn"},{"zip_code":"91126","street":"Bismarckstraße 6","school_type_entity":"Gymnasium","school_type":"Gymnasium","phone_number":"+49 9122 69050","old_slug":null,"official_id":"282","name":"Adam-Kraft-Gymnasium Schwabach","lon":11.019175,"lat":49.326282,"homepage_url":null,"federal_state_code":"BY","fax_number":"+49 9122 690555","email_address":null,"city":"Schwabach"},{"zip_code":"91413","street":"Comeniusstraße 4","school_type_entity":"Gymnasium","school_type":"Gymnasium","phone_number":"+49 9161 886911","old_slug":null,"official_id":"225","name":"Friedrich-Alexander-Gymnasium Neustadt a.d.Aisch","lon":10.612591,"lat":49.573258,"homepage_url":null,"federal_state_code":"BY","fax_number":"+49 9161 886955","email_address":null,"city":"Neustadt"},{"zip_code":"91781","street":"An der Hagenau 24","school_type_entity":"Gymnasium","school_type":"Gymnasium","phone_number":"+49 9141 86170","old_slug":null,"official_id":"324","name":"Werner-von-Siemens-Gymnasium Weißenburg","lon":10.976907,"lat":49.025355,"homepage_url":null,"federal_state_code":"BY","fax_number":"+49 9141 861726","email_address":null,"city":"Weißenburg"},{"zip_code":"92507","street":"Eichenweg 3","school_type_entity":"Gymnasium","school_type":"Gymnasium","phone_number":"+49 9433 20480","old_slug":"92507-johann-andreas-schmeller-gymnasium","official_id":"218","name":"Johann-Andreas-Schmeller-Gymnasium Nabburg","lon":12.174765,"lat":49.453164,"homepage_url":"http://www.jas-gymnasium.de/","federal_state_code":"BY","fax_number":"+49 9433 204810","email_address":"sekretariat@jas-gymnasium.lssad.de","city":"Nabburg"},{"zip_code":"93049","street":"Hans-Sachs-Str. 2","school_type_entity":"Gymnasium","school_type":"Gymnasium","phone_number":"+49 941 5074042","old_slug":"93049-albertus-magnus-gymnasium","official_id":"263","name":"Albertus-Magnus-Gymnasium Regensburg","lon":12.075053,"lat":49.023281,"homepage_url":"http://www.schulen.regensburg.de/amg","federal_state_code":"BY","fax_number":"+49 941 5074043","email_address":"org.webmaster@amg.schulen.regensburg.de","city":"Regensburg"},{"zip_code":"93413","street":"Pfarrer-Lukas-Straße 36","school_type_entity":"Gymnasium","school_type":"Gymnasium","phone_number":"+49 9971 858050","old_slug":null,"official_id":"52","name":"Robert-Schuman-Gymnasium Cham","lon":12.667662,"lat":49.225181,"homepage_url":null,"federal_state_code":"BY","fax_number":"+49 9971 8580511","email_address":null,"city":"Cham"},{"zip_code":"94227","street":"Dr.-Schott-Str. 54","school_type_entity":"Gymnasium","school_type":"Gymnasium","phone_number":"+49 9922 1340","old_slug":null,"official_id":"341","name":"Gymnasium Zwiesel","lon":13.227633,"lat":49.018642,"homepage_url":null,"federal_state_code":"BY","fax_number":"+49 9922 60641","email_address":null,"city":"Zwiesel"},{"zip_code":"94526","street":"Abteistraße 3","school_type_entity":"Gymnasium","school_type":"Gymnasium","phone_number":"+49 991 9108120","old_slug":null,"official_id":"166","name":"St.-Michaels-Gymnasium der Benediktiner Metten","lon":12.918098,"lat":48.855282,"homepage_url":null,"federal_state_code":"BY","fax_number":"+49 991 9108178","email_address":null,"city":"Metten"},{"zip_code":"95119","street":"Finkenweg 15","school_type_entity":"Gymnasium","school_type":"Gymnasium","phone_number":"+49 9282 96080","old_slug":null,"official_id":"219","name":"Gymnasium Naila","lon":11.701258,"lat":50.336106,"homepage_url":null,"federal_state_code":"BY","fax_number":"+49 9282 960819","email_address":null,"city":"Naila"},{"zip_code":"95448","street":"Königsallee 17","school_type_entity":"Gymnasium","school_type":"Gymnasium","phone_number":"+49 921 79991","old_slug":"95448-markgraefin-wilhelmine-gymnasium","official_id":"41","name":"Markgräfin-Wilhelmine-Gymnasium Bayreuth","lon":11.592256,"lat":49.940537,"homepage_url":"http://did.mat.uni-bayreuth.de/~mwg/","federal_state_code":"BY","fax_number":"+49 921 7999113","email_address":"mwg-bayreuth@t-online.de","city":"Bayreuth"},{"zip_code":"96050","street":"Kloster-Langheim-Str. 10","school_type_entity":"Gymnasium","school_type":"Gymnasium","phone_number":"+49 951 9146300","old_slug":null,"official_id":"36","name":"Städtisches Eichendorff-Gymnasium Bamberg","lon":10.910516,"lat":49.89844,"homepage_url":null,"federal_state_code":"BY","fax_number":"+49 951 9146320","email_address":null,"city":"Bamberg"},{"zip_code":"97070","street":"Rennweger Ring 12","school_type_entity":"Gymnasium","school_type":"Gymnasium","phone_number":"+49 931 32265","old_slug":null,"official_id":"332","name":"Riemenschneider-Gymnasium Würzburg","lon":9.942517,"lat":49.796955,"homepage_url":null,"federal_state_code":"BY","fax_number":"+49 931 32265","email_address":null,"city":"Würzburg"},{"zip_code":"97318","street":"Kanzler-Stürtzel-Straße 15","school_type_entity":"Gymnasium","school_type":"Gymnasium","phone_number":"+49 9321 13170","old_slug":"97318-armin-knab-gymnasium-kitzingen","official_id":"136","name":"Armin-Knab-Gymnasium Kitzingen","lon":10.159106,"lat":49.730651,"homepage_url":"http://www.armin-knab-gymnasium.de","federal_state_code":"BY","fax_number":"+49 9321 131733","email_address":"mail@armin-knab-gymnasium.de","city":"Kitzingen"},{"zip_code":"97616","street":"Franz-Marschall-Straße 7","school_type_entity":"Gymnasium","school_type":"Gymnasium","phone_number":"+49 9771 2214","old_slug":null,"official_id":"27","name":"Rhön-Gymnasium Bad Neustadt","lon":10.216863,"lat":50.325994,"homepage_url":null,"federal_state_code":"BY","fax_number":"+49 9771 7807","email_address":null,"city":"Bad Neustadt"},{"zip_code":"97828","street":"Oberländerstraße 29","school_type_entity":"Gymnasium","school_type":"Gymnasium","phone_number":"+49 9391 1800","old_slug":"97828-balthasar-neumann-gymnasium","official_id":"361","name":"Balthasar-Neumann-Gymnasium Marktheidenfeld","lon":9.610312,"lat":49.848587,"homepage_url":"http://www.bng-online.de/","federal_state_code":"BY","fax_number":"+49 9391 8737","email_address":"info@bng-online.de","city":"Marktheidenfeld"},{"zip_code":"84036","street":"Weinzierlstr. 38","school_type_entity":"Grundschule","school_type":"Grundschule","phone_number":"+49 871 9454173","old_slug":null,"official_id":"3500","name":"Volksschule Landshut-Berg","lon":12.158731,"lat":48.526549,"homepage_url":null,"federal_state_code":"BY","fax_number":"+49 871 9454174","email_address":null,"city":"Landshut"},{"zip_code":"84088","street":"Schulweg 2","school_type_entity":"Grundschule","school_type":"Grundschule","phone_number":"+49 8773 416","old_slug":null,"official_id":"3721","name":"Volksschule Neufahrn i.NB","lon":12.189865,"lat":48.736525,"homepage_url":null,"federal_state_code":"BY","fax_number":"+49 8773 910599","email_address":null,"city":"Neufahrn"},{"zip_code":"84137","street":"Kirchstraße 6","school_type_entity":"Grundschule","school_type":"Grundschule","phone_number":"+49 8741 6555","old_slug":"84137-grundschule-vilsbiburg","official_id":"3733","name":"Volksschule Vilsbiburg","lon":12.357598,"lat":48.451805,"homepage_url":"http://www.grundschule-vilsbiburg.de","federal_state_code":"BY","fax_number":"+49 8741 3201","email_address":"grundschule.vilsbiburg@t-online.de","city":"Vilsbiburg"},{"zip_code":"84169","street":"Schulstraße 4","school_type_entity":"Grundschule","school_type":"Grundschule","phone_number":"+49 8705 1404","old_slug":null,"official_id":"3698","name":"Volksschule Altfraunhofen","lon":12.170818,"lat":48.44859,"homepage_url":null,"federal_state_code":"BY","fax_number":"+49 8705 2158","email_address":null,"city":"Altfraunhofen"},{"zip_code":"84367","street":"Sonnleiten 27","school_type_entity":"Grundschule","school_type":"Grundschule","phone_number":"+49 8572 304","old_slug":null,"official_id":"3878","name":"Volksschule Reut","lon":12.93986,"lat":48.312219,"homepage_url":null,"federal_state_code":"BY","fax_number":"+49 8572 969895","email_address":null,"city":"Reut"},{"zip_code":"84384","street":"Kerneigenstraße 4","school_type_entity":"Grundschule","school_type":"Grundschule","phone_number":"+49 8574 919390","old_slug":null,"official_id":"3888","name":"Volksschule Wittibreut","lon":12.990572,"lat":48.329188,"homepage_url":null,"federal_state_code":"BY","fax_number":"+49 8574 9193912","email_address":null,"city":"Wittibreut"},{"zip_code":"84419","street":"Schulstraße 11","school_type_entity":"Grundschule","school_type":"Grundschule","phone_number":"+49 8082 354","old_slug":null,"official_id":"2718","name":"Volksschule Schwindegg","lon":12.254373,"lat":48.27074,"homepage_url":null,"federal_state_code":"BY","fax_number":"+49 8082 946142","email_address":null,"city":"Schwindegg"},{"zip_code":"84489","street":"Stadtplatz 36","school_type_entity":"Grundschule","school_type":"Grundschule","phone_number":"+49 8677 61340","old_slug":null,"official_id":"2328","name":"Hans-Stethaimer-Volksschule Burghausen","lon":12.832132,"lat":48.158125,"homepage_url":null,"federal_state_code":"BY","fax_number":"+49 8677 62740","email_address":null,"city":"Burghausen"},{"zip_code":"84533","street":"Hauptstraße 24","school_type_entity":"Grundschule","school_type":"Grundschule","phone_number":"+49 8678 353","old_slug":null,"official_id":"2338","name":"Volksschule Haiming","lon":12.884912,"lat":48.212167,"homepage_url":null,"federal_state_code":"BY","fax_number":"+49 8678 8099","email_address":null,"city":"Haiming"},{"zip_code":"84564","street":"Ziegelberg 4","school_type_entity":"Grundschule","school_type":"Grundschule","phone_number":"+49 8637 985055","old_slug":null,"official_id":"2712","name":"Volksschule Oberbergkirchen","lon":12.381335,"lat":48.306056,"homepage_url":null,"federal_state_code":"BY","fax_number":"+49 8637 985057","email_address":null,"city":"Oberbergkirchen"},{"zip_code":"85053","street":"Stollstr. 2","school_type_entity":"Grundschule","school_type":"Grundschule","phone_number":"+49 841 95180","old_slug":null,"official_id":"2108","name":"Volksschule Ingolstadt an der Stollstraße","lon":11.443941,"lat":48.754523,"homepage_url":null,"federal_state_code":"BY","fax_number":"+49 841 95180199","email_address":null,"city":"Ingolstadt"},{"zip_code":"85077","street":"Manchinger Str. 1","school_type_entity":"Grundschule","school_type":"Grundschule","phone_number":"+49 8459 330280","old_slug":null,"official_id":"2810","name":"Volksschule Oberstimm in Manching","lon":11.451441,"lat":48.710831,"homepage_url":null,"federal_state_code":"BY","fax_number":"+49 8459 330282","email_address":null,"city":"Manching Oberstimm"},{"zip_code":"85122","street":"Kirchweg 10","school_type_entity":"Grundschule","school_type":"Grundschule","phone_number":"+49 8458 8466","old_slug":null,"official_id":"2475","name":"Volksschule Böhmfeld-Hitzhofen","lon":11.320765,"lat":48.84787,"homepage_url":null,"federal_state_code":"BY","fax_number":"+49 8458 37030","email_address":null,"city":"Hitzhofen"},{"zip_code":"85221","street":"Eduard-Ziegler-Str. 1","school_type_entity":"Grundschule","school_type":"Grundschule","phone_number":"+49 8131 735981","old_slug":null,"official_id":"2424","name":"Volksschule Dachau an der Eduard-Ziegler-Straße","lon":11.438223,"lat":48.246561,"homepage_url":null,"federal_state_code":"BY","fax_number":"+49 8131 83578","email_address":null,"city":"Dachau"},{"zip_code":"85258","street":"Fränkinger Str. 9","school_type_entity":"Grundschule","school_type":"Grundschule","phone_number":"+49 8136 5986","old_slug":null,"official_id":"2443","name":"Volksschule Weichs","lon":11.411628,"lat":48.382304,"homepage_url":null,"federal_state_code":"BY","fax_number":"+49 8136 998231","email_address":null,"city":"Weichs"},{"zip_code":"85354","street":"Hohenbachernstr. 30","school_type_entity":"Grundschule","school_type":"Grundschule","phone_number":"+49 8161 13313","old_slug":null,"official_id":"2562","name":"Volksschule Vötting in Freising","lon":11.714246,"lat":48.39859,"homepage_url":null,"federal_state_code":"BY","fax_number":"+49 8161 50648","email_address":null,"city":"Freising Vötting"},{"zip_code":"85410","street":"Pfarrer-Weingand-Str. 5","school_type_entity":"Grundschule","school_type":"Grundschule","phone_number":"+49 8167 955833","old_slug":null,"official_id":"2565","name":"Marina-Thudichum-Volksschule Haag a.d. Amper","lon":11.831339,"lat":48.458555,"homepage_url":null,"federal_state_code":"BY","fax_number":"+49 8167 955835","email_address":null,"city":"Haag"},{"zip_code":"85435","street":"Lodererplatz 14","school_type_entity":"Grundschule","school_type":"Grundschule","phone_number":"+49 8122 10336","old_slug":null,"official_id":"2522","name":"Volksschule Erding am Lodererplatz","lon":11.911343,"lat":48.309051,"homepage_url":null,"federal_state_code":"BY","fax_number":"+49 8122 959272","email_address":null,"city":"Erding"},{"zip_code":"85551","street":"Gruber Straße 11","school_type_entity":"Grundschule","school_type":"Grundschule","phone_number":"+49 89 90468654","old_slug":null,"official_id":"2124","name":"Silva-Grundschule Heimstetten in Kirchheim","lon":11.76076,"lat":48.162806,"homepage_url":null,"federal_state_code":"BY","fax_number":"+49 89 90468655","email_address":null,"city":"Kirchheim"},{"zip_code":"85630","street":"Birkenstr. 6","school_type_entity":"Grundschule","school_type":"Grundschule","phone_number":"+49 89 4623810","old_slug":null,"official_id":"2737","name":"Volksschule Neukeferloh","lon":11.7586,"lat":48.094057,"homepage_url":null,"federal_state_code":"BY","fax_number":"+49 89 46238116","email_address":null,"city":"Grasbrunn Neukeferloh"},{"zip_code":"85665","street":"Glonner Str. 2","school_type_entity":"Grundschule","school_type":"Grundschule","phone_number":"+49 8091 3715","old_slug":null,"official_id":"2459","name":"Volksschule Moosach-Alxing","lon":11.874467,"lat":48.031893,"homepage_url":null,"federal_state_code":"BY","fax_number":"+49 8091 568365","email_address":null,"city":"Moosach"},{"zip_code":"85716","street":"Raiffeisenstr. 27","school_type_entity":"Grundschule","school_type":"Grundschule","phone_number":"+49 89 3103461","old_slug":null,"official_id":"2796","name":"Michael-Ende-Volksschule Unterschleißheim","lon":11.572609,"lat":48.272594,"homepage_url":null,"federal_state_code":"BY","fax_number":"+49 89 3101254","email_address":null,"city":"Unterschleißheim"},{"zip_code":"85777","street":"Schulstr. 1","school_type_entity":"Grundschule","school_type":"Grundschule","phone_number":"+49 8133 6359","old_slug":null,"official_id":"2556","name":"Volksschule Fahrenzhausen","lon":11.55768,"lat":48.351477,"homepage_url":null,"federal_state_code":"BY","fax_number":"+49 8133 908132","email_address":null,"city":"Fahrenzhausen"},{"zip_code":"86161","street":"Rote-Torwall-Str. 14","school_type_entity":"Grundschule","school_type":"Grundschule","phone_number":"+49 821 3249480","old_slug":"86161-grundschule-augsburg-vor-dem-roten-tor","official_id":"8521","name":"Volksschule Augsburg, Vor dem Roten Tor","lon":10.902754,"lat":48.35824,"homepage_url":"http://www.gsrotestor.de","federal_state_code":"BY","fax_number":"+49 821 3249478","email_address":"gs.rotestor@t-online.de","city":"Augsburg"},{"zip_code":"86179","street":"Georg-Käß-Platz 1","school_type_entity":"Grundschule","school_type":"Grundschule","phone_number":"+49 821 3247390","old_slug":"86179-eichendorff-volksschule","official_id":"8535","name":"Eichendorff-Volksschule Augsburg-Haunstetten","lon":10.910342,"lat":48.309117,"homepage_url":"http://www.eichendorffschule-augsburg.de","federal_state_code":"BY","fax_number":"+49 821 3247395","email_address":"info@eichendorffschule-augsburg.de","city":"Augsburg"},{"zip_code":"86343","street":"Mindelheimer Str. 26","school_type_entity":"Grundschule","school_type":"Grundschule","phone_number":"+49 8231 88614","old_slug":null,"official_id":"8677","name":"Volksschule Königsbrunn-West","lon":10.880966,"lat":48.277533,"homepage_url":null,"federal_state_code":"BY","fax_number":"+49 8231 88615","email_address":null,"city":"Königsbrunn"},{"zip_code":"86399","street":"Frieda-Forster-Straße 9 a","school_type_entity":"Grundschule","school_type":"Grundschule","phone_number":"+49 8234 959940","old_slug":null,"official_id":"8630","name":"Volksschule Straßberg","lon":10.785551,"lat":48.272566,"homepage_url":null,"federal_state_code":"BY","fax_number":"+49 8234 959946","email_address":null,"city":"Bobingen Straßberg"},{"zip_code":"86450","street":"Schulstraße 11","school_type_entity":"Grundschule","school_type":"Grundschule","phone_number":"+49 8295 1025","old_slug":null,"official_id":"8625","name":"Volksschule Altenmünster","lon":10.589258,"lat":48.468302,"homepage_url":null,"federal_state_code":"BY","fax_number":"+49 8295 2032","email_address":null,"city":"Altenmünster"},{"zip_code":"86494","street":"Schulstr. 7","school_type_entity":"Grundschule","school_type":"Grundschule","phone_number":"+49 8293 7835","old_slug":null,"official_id":"8633","name":"Volksschule Emersacker","lon":10.673747,"lat":48.486972,"homepage_url":null,"federal_state_code":"BY","fax_number":"+49 8293 7838","email_address":null,"city":"Emersacker"},{"zip_code":"86513","street":"Rudolf-Lang-Str. 1","school_type_entity":"Grundschule","school_type":"Grundschule","phone_number":"+49 8281 3666","old_slug":null,"official_id":"8703","name":"Volksschule Ursberg","lon":10.442302,"lat":48.266077,"homepage_url":null,"federal_state_code":"BY","fax_number":"+49 8281 2169","email_address":null,"city":"Ursberg"},{"zip_code":"86551","street":"Schulweg 9","school_type_entity":"Grundschule","school_type":"Grundschule","phone_number":"+49 8251 2654","old_slug":null,"official_id":"8602","name":"Volksschule Griesbeckerzell - Obergriesbach","lon":11.053196,"lat":48.441806,"homepage_url":null,"federal_state_code":"BY","fax_number":"+49 8251 52061","email_address":null,"city":"Aichach Griesbeckerzell"},{"zip_code":"86609","street":"Spindeltal 6","school_type_entity":"Grundschule","school_type":"Grundschule","phone_number":"+49 906 70643","old_slug":null,"official_id":"8898","name":"Mangold-Volksschule Donauwörth","lon":10.779498,"lat":48.720344,"homepage_url":null,"federal_state_code":"BY","fax_number":"+49 906 7064315","email_address":null,"city":"Donauwörth"},{"zip_code":"86695","street":"Schäfflerstraße 25","school_type_entity":"Grundschule","school_type":"Grundschule","phone_number":"+49 8273 2420221","old_slug":null,"official_id":"8660","name":"Volksschule Nordendorf","lon":10.832782,"lat":48.591236,"homepage_url":null,"federal_state_code":"BY","fax_number":"+49 8273 91552","email_address":null,"city":"Nordendorf"},{"zip_code":"86733","street":"Raiffeisenstraße 9","school_type_entity":"Grundschule","school_type":"Grundschule","phone_number":"+49 9085 308","old_slug":null,"official_id":"8892","name":"Johann-Wilhelm-Klein-Volksschule Alerheim","lon":10.616399,"lat":48.843351,"homepage_url":null,"federal_state_code":"BY","fax_number":"+49 9085 452","email_address":null,"city":"Alerheim"},{"zip_code":"86836","street":"Schulstraße 21","school_type_entity":"Grundschule","school_type":"Grundschule","phone_number":"+49 8232 2537","old_slug":null,"official_id":"8644","name":"Von-Imhof-Volksschule Klosterlechfeld","lon":10.8294,"lat":48.155519,"homepage_url":null,"federal_state_code":"BY","fax_number":"+49 8232 904918","email_address":null,"city":"Klosterlechfeld"},{"zip_code":"86899","street":"Schulstraße 6","school_type_entity":"Grundschule","school_type":"Grundschule","phone_number":"+49 8191 3847","old_slug":null,"official_id":"2649","name":"Volksschule Erpfting","lon":12.166192,"lat":51.514986,"homepage_url":null,"federal_state_code":"BY","fax_number":"+49 8191 50599","email_address":null,"city":"Landsberg Erpfting"},{"zip_code":"86956","street":"Fanschuhstraße 5","school_type_entity":"Grundschule","school_type":"Grundschule","phone_number":"+49 8861 4219","old_slug":null,"official_id":"2986","name":"Volksschule Schongau","lon":10.893649,"lat":47.809982,"homepage_url":null,"federal_state_code":"BY","fax_number":"+49 8861 200118","email_address":null,"city":"Schongau"},{"zip_code":"87435","street":"Haubenschloßplatz 1","school_type_entity":"Grundschule","school_type":"Grundschule","phone_number":"+49 831 540070","old_slug":null,"official_id":"8566","name":"Volksschule Kempten","lon":10.306734,"lat":47.71703,"homepage_url":null,"federal_state_code":"BY","fax_number":"+49 831 5400722","email_address":null,"city":"Kempten"},{"zip_code":"87452","street":"Pfarrwaldweg 3","school_type_entity":"Grundschule","school_type":"Grundschule","phone_number":"+49 8374 8481","old_slug":null,"official_id":"8939","name":"Volksschule Krugzell","lon":10.272026,"lat":47.794865,"homepage_url":null,"federal_state_code":"BY","fax_number":"+49 8374 93659","email_address":null,"city":"Altusried Krugzell"},{"zip_code":"87527","street":"Albert-Schweitzer-Straße 14","school_type_entity":"Grundschule","school_type":"Grundschule","phone_number":"+49 8321 669212","old_slug":"87527-grundschule-sonthofen-rieden","official_id":"8968","name":"Volksschule Sonthofen-Rieden","lon":10.26337,"lat":47.519369,"homepage_url":"http://www.gs-sonthofen-rieden.de/","federal_state_code":"BY","fax_number":"+49 8321 669216","email_address":"info@gs-sonthofen-rieden.de","city":"Sonthofen"},{"zip_code":"87616","street":"Schulstr. 19","school_type_entity":"Grundschule","school_type":"Grundschule","phone_number":"+49 8342 2214","old_slug":null,"official_id":"8833","name":"Volksschule Thalhofen a.d.Wertach","lon":10.594484,"lat":47.768249,"homepage_url":null,"federal_state_code":"BY","fax_number":"+49 8342 98698","email_address":null,"city":"Marktoberdorf Thalhofen a.d.Wertach"},{"zip_code":"87671","street":"Schulweg 4","school_type_entity":"Grundschule","school_type":"Grundschule","phone_number":"+49 8306 405","old_slug":null,"official_id":"8840","name":"Volksschule Ronsberg","lon":10.411234,"lat":47.898353,"homepage_url":null,"federal_state_code":"BY","fax_number":"+49 8306 975412","email_address":null,"city":"Ronsberg"},{"zip_code":"87719","street":"Schulstraße 4","school_type_entity":"Grundschule","school_type":"Grundschule","phone_number":"+49 8261 4109","old_slug":null,"official_id":"8876","name":"Volksschule Mindelheim","lon":10.492208,"lat":48.048469,"homepage_url":null,"federal_state_code":"BY","fax_number":"+49 8261 4147","email_address":null,"city":"Mindelheim"},{"zip_code":"87776","street":"Hauptstraße 41","school_type_entity":"Grundschule","school_type":"Grundschule","phone_number":"+49 8336 1237","old_slug":null,"official_id":"8881","name":"Volksschule Sontheim","lon":10.350447,"lat":48.009863,"homepage_url":null,"federal_state_code":"BY","fax_number":"+49 8336 9526","email_address":null,"city":"Sontheim"},{"zip_code":"88142","street":"Schulstraße 15","school_type_entity":"Grundschule","school_type":"Grundschule","phone_number":"+49 8382 887844","old_slug":null,"official_id":"8803","name":"Volksschule Wasserburg","lon":9.637127,"lat":47.567702,"homepage_url":null,"federal_state_code":"BY","fax_number":"+49 8382 887709","email_address":null,"city":"Wasserburg"},{"zip_code":"89231","street":"Martin-Luther-Str. 4","school_type_entity":"Grundschule","school_type":"Grundschule","phone_number":"+49 731 73913","old_slug":null,"official_id":"8756","name":"Volksschule Neu-Ulm-Offenhausen","lon":10.019217,"lat":48.400175,"homepage_url":null,"federal_state_code":"BY","fax_number":"+49 731 9723342","email_address":null,"city":"Neu-Ulm Offenhausen"},{"zip_code":"89250","street":"Pestalozzistr. 1","school_type_entity":"Grundschule","school_type":"Grundschule","phone_number":"+49 7307 22126","old_slug":null,"official_id":"8770","name":"Volksschule Wullenstetten","lon":10.070833,"lat":48.31975,"homepage_url":null,"federal_state_code":"BY","fax_number":"+49 7307 22152","email_address":null,"city":"Senden Wullenstetten"},{"zip_code":"89269","street":"Falkenstr. 23","school_type_entity":"Grundschule","school_type":"Grundschule","phone_number":"+49 7306 96130","old_slug":null,"official_id":"8779","name":"Volksschule Vöhringen-Nord","lon":10.075422,"lat":48.285083,"homepage_url":null,"federal_state_code":"BY","fax_number":"+49 7306 961321","email_address":null,"city":"Vöhringen"},{"zip_code":"89312","street":"Rebaystr. 13","school_type_entity":"Grundschule","school_type":"Grundschule","phone_number":"+49 8221 30546","old_slug":null,"official_id":"8736","name":"Volksschule Günzburg - Südost","lon":10.288207,"lat":48.446591,"homepage_url":null,"federal_state_code":"BY","fax_number":"+49 8221 5443","email_address":null,"city":"Günzburg"},{"zip_code":"89365","street":"Hühleweg 6","school_type_entity":"Grundschule","school_type":"Grundschule","phone_number":"+49 8222 7736","old_slug":null,"official_id":"8731","name":"Volksschule Röfingen","lon":10.44758,"lat":48.426955,"homepage_url":null,"federal_state_code":"BY","fax_number":"+49 8222 42083","email_address":null,"city":"Röfingen"},{"zip_code":"90409","street":"Neue Hegelstr. 17","school_type_entity":"Grundschule","school_type":"Grundschule","phone_number":"+49 911 356085","old_slug":null,"official_id":"6594","name":"Volksschule Nürnberg, Friedrich-Hegel-Schule","lon":11.088458,"lat":49.467589,"homepage_url":null,"federal_state_code":"BY","fax_number":"+49 911 9359033","email_address":null,"city":"Nürnberg"},{"zip_code":"90429","street":"Deutschherrnstr. 10","school_type_entity":"Grundschule","school_type":"Grundschule","phone_number":"+49 911 2708258","old_slug":null,"official_id":"6686","name":"Private Wilhelm-Löhe-Volksschule Nürnberg","lon":11.063579,"lat":49.455004,"homepage_url":null,"federal_state_code":"BY","fax_number":"+49 911 260070","email_address":null,"city":"Nürnberg"},{"zip_code":"90451","street":"Fürreuthweg 95","school_type_entity":"Grundschule","school_type":"Grundschule","phone_number":"+49 911 6493123","old_slug":null,"official_id":"6589","name":"Volksschule Nürnberg-Eibach","lon":11.040282,"lat":49.408902,"homepage_url":null,"federal_state_code":"BY","fax_number":"+49 911 6498878","email_address":null,"city":"Nürnberg"},{"zip_code":"90471","street":"Zugspitzstr. 123","school_type_entity":"Grundschule","school_type":"Grundschule","phone_number":"+49 911 811751","old_slug":null,"official_id":"6656","name":"Volksschule Nürnberg, Zugspitzstraße","lon":11.118075,"lat":49.408869,"homepage_url":null,"federal_state_code":"BY","fax_number":"+49 911 8129600","email_address":null,"city":"Nürnberg"},{"zip_code":"90489","street":"Bartholomäusstr. 16","school_type_entity":"Grundschule","school_type":"Grundschule","phone_number":"+49 911 536018","old_slug":null,"official_id":"6580","name":"Volksschule Nürnberg, Bartholomäusschule","lon":11.100396,"lat":49.455447,"homepage_url":null,"federal_state_code":"BY","fax_number":"+49 911 5882929","email_address":null,"city":"Nürnberg"},{"zip_code":"90530","street":"Am Zehnthof 8","school_type_entity":"Grundschule","school_type":"Grundschule","phone_number":"+49 9129 8753","old_slug":null,"official_id":"6933","name":"Volksschule Röthenbach b.St.Wolfgang","lon":11.168182,"lat":49.363783,"homepage_url":null,"federal_state_code":"BY","fax_number":"+49 9129 288530","email_address":null,"city":"Wendelstein Röthenbach b.St.Wolfgang"},{"zip_code":"90552","street":"Schulstr. 6","school_type_entity":"Grundschule","school_type":"Grundschule","phone_number":"+49 911 577620","old_slug":null,"official_id":"6860","name":"Volksschule Röthenbach a.d.Pegnitz am Forstersberg","lon":11.233958,"lat":49.48042,"homepage_url":null,"federal_state_code":"BY","fax_number":"+49 911 5755989","email_address":null,"city":"Röthenbach"},{"zip_code":"90584","street":"Schulstraße 2","school_type_entity":"Grundschule","school_type":"Grundschule","phone_number":"+49 9176 1610","old_slug":"90584-grundschule-allersberg","official_id":"6914","name":"Volksschule Allersberg Sybilla-Maurer-Grundschule","lon":11.231309,"lat":49.251954,"homepage_url":"http://www.grundschule-allersberg.de","federal_state_code":"BY","fax_number":"+49 9176 90225","email_address":"betz@grundschule-allersberg.de","city":"Allersberg"},{"zip_code":"90763","street":"Frauenstr. 15","school_type_entity":"Grundschule","school_type":"Grundschule","phone_number":"+49 911 97083811","old_slug":null,"official_id":"6545","name":"Volksschule Fürth, Frauenstraße","lon":10.996804,"lat":49.463475,"homepage_url":null,"federal_state_code":"BY","fax_number":"+49 911 97083828","email_address":null,"city":"Fürth"},{"zip_code":"90768","street":"Zedernstr. 2","school_type_entity":"Grundschule","school_type":"Grundschule","phone_number":"+49 911 761542","old_slug":null,"official_id":"6566","name":"Volksschule Fürth, Zedernstraße","lon":10.96401,"lat":49.52533,"homepage_url":null,"federal_state_code":"BY","fax_number":"+49 911 761542","email_address":null,"city":"Fürth"},{"zip_code":"91058","street":"Sandbergstr. 1 - 5","school_type_entity":"Grundschule","school_type":"Grundschule","phone_number":"+49 9131 934916","old_slug":null,"official_id":"6521","name":"Volksschule Erlangen-Bruck Max-und-Justine-Elsner-Schule","lon":10.987568,"lat":49.572658,"homepage_url":null,"federal_state_code":"BY","fax_number":"+49 9131 934991","email_address":null,"city":"Erlangen"},{"zip_code":"91083","street":"Bodenschatzstraße 9","school_type_entity":"Grundschule","school_type":"Grundschule","phone_number":"+49 9133 3241","old_slug":null,"official_id":"6772","name":"Volksschule Baiersdorf","lon":11.034559,"lat":49.662638,"homepage_url":null,"federal_state_code":"BY","fax_number":"+49 9133 603948","email_address":null,"city":"Baiersdorf"},{"zip_code":"91154","street":"Veit-Stoß-Str. 49","school_type_entity":"Grundschule","school_type":"Grundschule","phone_number":"+49 9171 975690","old_slug":null,"official_id":"6677","name":"Volksschule Roth - Nordring","lon":11.0846,"lat":49.257835,"homepage_url":null,"federal_state_code":"BY","fax_number":"+49 9171 898171","email_address":null,"city":"Roth"},{"zip_code":"91207","street":"Martin-Luther-Str. 2","school_type_entity":"Grundschule","school_type":"Grundschule","phone_number":"+49 9123 96948","old_slug":null,"official_id":"6847","name":"Bertlein-Volksschule II Lauf a.d.Pegnitz","lon":11.281213,"lat":49.502911,"homepage_url":null,"federal_state_code":"BY","fax_number":"+49 9123 83890","email_address":null,"city":"Lauf"},{"zip_code":"91245","street":"Schulstr. 21","school_type_entity":"Grundschule","school_type":"Grundschule","phone_number":"+49 9155 927710","old_slug":null,"official_id":"6867","name":"Volksschule Bühl","lon":9.910573,"lat":49.04366,"homepage_url":null,"federal_state_code":"BY","fax_number":"+49 9155 927711","email_address":null,"city":"Simmelsdorf Bühl"},{"zip_code":"91301","street":"Konradstraße 36","school_type_entity":"Grundschule","school_type":"Grundschule","phone_number":"+49 9191 14489","old_slug":null,"official_id":"5723","name":"Anna-Volksschule Forchheim","lon":11.071276,"lat":49.72495,"homepage_url":null,"federal_state_code":"BY","fax_number":"+49 9191 64241","email_address":null,"city":"Forchheim"},{"zip_code":"91353","street":"Wunderburg 4","school_type_entity":"Grundschule","school_type":"Grundschule","phone_number":"+49 9191 31628","old_slug":"91353-grundschule-hausen","official_id":"5729","name":"Volksschule Hausen","lon":11.034635,"lat":49.688707,"homepage_url":"http://www.schule-hausen.de","federal_state_code":"BY","fax_number":"+49 9191 33174","email_address":"grundschule@hausen.de","city":"Hausen"},{"zip_code":"91413","street":"Comeniusstr. 2","school_type_entity":"Grundschule","school_type":"Grundschule","phone_number":"+49 9161 874600","old_slug":"91413-comenius-grundschule","official_id":"6892","name":"Volksschule Neustadt a.d.Aisch  (Grundschule II)","lon":10.611524,"lat":49.574164,"homepage_url":"http://www.comenius-grundschule.de","federal_state_code":"BY","fax_number":"+49 9161 874601","email_address":"comenius-gs-nea@regio-nah.de","city":"Neustadt a.d.Aisch"},{"zip_code":"91522","street":"Fürstenstraße 2","school_type_entity":"Grundschule","school_type":"Grundschule","phone_number":"+49 981 84142","old_slug":null,"official_id":"6503","name":"Volksschule Ansbach-Hennenbach","lon":10.581527,"lat":49.31602,"homepage_url":null,"federal_state_code":"BY","fax_number":"+49 981 86896","email_address":null,"city":"Ansbach"},{"zip_code":"91550","street":"Alte Promenade 24 - 26","school_type_entity":"Grundschule","school_type":"Grundschule","phone_number":"+49 9851 554647","old_slug":null,"official_id":"6711","name":"Christoph-von-Schmid-Volksschule Dinkelsbühl","lon":10.318278,"lat":49.06513,"homepage_url":null,"federal_state_code":"BY","fax_number":"+49 9851 53787","email_address":null,"city":"Dinkelsbühl"},{"zip_code":"91607","street":"Bahnhofweg 5","school_type_entity":"Grundschule","school_type":"Grundschule","phone_number":"+49 9861 931057","old_slug":"91607-volksschule-gebsattel-insingen-neusitz","official_id":"6722","name":"Volksschule Gebsattel-Insingen-Neusitz","lon":10.199061,"lat":49.35337,"homepage_url":"http://www.grundschule-gebsattel.de/","federal_state_code":"BY","fax_number":"+49 9861 931017","email_address":"kmeth.grundschule-gebsattel@gmx.de","city":"Gebsattel"},{"zip_code":"91710","street":"Hindenburgplatz 2","school_type_entity":"Grundschule","school_type":"Grundschule","phone_number":"+49 9831 5006","old_slug":"91710-stephani-volksschule-gunzenhausen","official_id":"6961","name":"Stephani-Volksschule Gunzenhausen","lon":10.75921,"lat":49.117182,"homepage_url":"http://www.gunnet.de/stephani/stepindx.htm","federal_state_code":"BY","fax_number":"+49 9831 5006444","email_address":"verwaltung@stephani-hs.de","city":"Gunzenhausen"},{"zip_code":"91737","street":"Altstadt 5","school_type_entity":"Grundschule","school_type":"Grundschule","phone_number":"+49 9826 480","old_slug":null,"official_id":"6741","name":"Volksschule Ornbau","lon":10.655581,"lat":49.176158,"homepage_url":null,"federal_state_code":"BY","fax_number":"+49 9826 659940","email_address":null,"city":"Ornbau"},{"zip_code":"91785","street":"Ringstraße 45","school_type_entity":"Grundschule","school_type":"Grundschule","phone_number":"+49 9144 92703","old_slug":null,"official_id":"6973","name":"Volksschule Pleinfeld","lon":10.982001,"lat":49.105173,"homepage_url":null,"federal_state_code":"BY","fax_number":"+49 9144 9270380","email_address":null,"city":"Pleinfeld"},{"zip_code":"92237","street":"Konrad-Mayer-Straße 2","school_type_entity":"Grundschule","school_type":"Grundschule","phone_number":"+49 9661 4524","old_slug":null,"official_id":"4614","name":"Pestalozzi-Volksschule Sulzbach-Rosenberg an der Konrad-Mayer-Straße","lon":11.747226,"lat":49.500054,"homepage_url":null,"federal_state_code":"BY","fax_number":"+49 9661 53511","email_address":null,"city":"Sulzbach-Rosenberg"},{"zip_code":"92318","street":"Meisenweg 45","school_type_entity":"Grundschule","school_type":"Grundschule","phone_number":"+49 9181 9350","old_slug":null,"official_id":"4701","name":"Volksschule Neumarkt i.d.OPf. in der Hasenheide","lon":11.461831,"lat":49.25345,"homepage_url":null,"federal_state_code":"BY","fax_number":"+49 9181 2601008","email_address":null,"city":"Neumarkt"},{"zip_code":"92348","street":"Eschenbachstr. 1","school_type_entity":"Grundschule","school_type":"Grundschule","phone_number":"+49 9189 1284","old_slug":null,"official_id":"4719","name":"Chunradus-Grundschule Sindlbach","lon":11.457144,"lat":49.363678,"homepage_url":null,"federal_state_code":"BY","fax_number":"+49 9189 7290","email_address":null,"city":"Berg Sindlbach"},{"zip_code":"92421","street":"St.-Andreas-Straße 3","school_type_entity":"Grundschule","school_type":"Grundschule","phone_number":"+49 9431 2297","old_slug":null,"official_id":"4859","name":"Volksschule Schwandorf-Fronberg","lon":12.124459,"lat":49.34253,"homepage_url":null,"federal_state_code":"BY","fax_number":"+49 9431 43166","email_address":null,"city":"Schwandorf"},{"zip_code":"92555","street":"Hauptstraße 48","school_type_entity":"Grundschule","school_type":"Grundschule","phone_number":"+49 9655 8195","old_slug":null,"official_id":"4868","name":"Volksschule Trausnitz","lon":12.263936,"lat":49.524544,"homepage_url":null,"federal_state_code":"BY","fax_number":"+49 9655 8195","email_address":null,"city":"Trausnitz"},{"zip_code":"92660","street":"Bildstraße 5","school_type_entity":"Grundschule","school_type":"Grundschule","phone_number":"+49 9602 8438","old_slug":null,"official_id":"4744","name":"Volksschule Neustadt a.d.Waldnaab","lon":12.17318,"lat":49.726031,"homepage_url":null,"federal_state_code":"BY","fax_number":"+49 9602 918061","email_address":null,"city":"Neustadt"},{"zip_code":"92708","street":"Ossangerweg 29","school_type_entity":"Grundschule","school_type":"Grundschule","phone_number":"+49 9605 505","old_slug":null,"official_id":"4742","name":"Volksschule Mantel","lon":12.043628,"lat":49.656353,"homepage_url":null,"federal_state_code":"BY","fax_number":"+49 9605 1243","email_address":null,"city":"Mantel"},{"zip_code":"93051","street":"Klenzestr. 31","school_type_entity":"Grundschule","school_type":"Grundschule","phone_number":"+49 941 5073931","old_slug":null,"official_id":"4544","name":"Volksschule Regensburg-Königswiesen","lon":12.073271,"lat":49.004111,"homepage_url":null,"federal_state_code":"BY","fax_number":"+49 941 5073934","email_address":null,"city":"Regensburg"},{"zip_code":"93057","street":"Isarstr. 24","school_type_entity":"Grundschule","school_type":"Grundschule","phone_number":"+49 941 5072046","old_slug":null,"official_id":"4527","name":"Hans-Herrmann-Volksschule Regensburg","lon":12.118533,"lat":49.032606,"homepage_url":null,"federal_state_code":"BY","fax_number":"+49 941 5072049","email_address":null,"city":"Regensburg"},{"zip_code":"93095","street":"Gailsbacher Str. 1","school_type_entity":"Grundschule","school_type":"Grundschule","phone_number":"+49 9453 1706","old_slug":null,"official_id":"4786","name":"Volksschule Hagelstadt","lon":12.218535,"lat":48.895964,"homepage_url":null,"federal_state_code":"BY","fax_number":"+49 9453 999058","email_address":null,"city":"Hagelstadt"},{"zip_code":"93142","street":"Regensburger Str. 75","school_type_entity":"Grundschule","school_type":"Grundschule","phone_number":"+49 9471 60190","old_slug":null,"official_id":"4838","name":"Volksschule Maxhütte-Haidhof","lon":12.097003,"lat":49.193951,"homepage_url":null,"federal_state_code":"BY","fax_number":"+49 9471 6019112","email_address":null,"city":"Maxhütte-Haidhof"},{"zip_code":"93180","street":"Am Kirchberg 14","school_type_entity":"Grundschule","school_type":"Grundschule","phone_number":"+49 9498 902316","old_slug":null,"official_id":"4779","name":"Volksschule Deuerling","lon":11.906042,"lat":49.033872,"homepage_url":null,"federal_state_code":"BY","fax_number":"+49 9498 902318","email_address":null,"city":"Deuerling"},{"zip_code":"93326","street":"Schulstr. 9","school_type_entity":"Grundschule","school_type":"Grundschule","phone_number":"+49 9443 6297","old_slug":null,"official_id":"3674","name":"Volksschule Offenstetten","lon":11.90927,"lat":48.802437,"homepage_url":null,"federal_state_code":"BY","fax_number":"+49 9443 905288","email_address":null,"city":"Abensberg Offenstetten"},{"zip_code":"93351","street":"Hemauer Straße 7","school_type_entity":"Grundschule","school_type":"Grundschule","phone_number":"+49 9499 224","old_slug":null,"official_id":"3675","name":"Volksschule Painten","lon":11.810256,"lat":48.998699,"homepage_url":null,"federal_state_code":"BY","fax_number":"+49 9499 563","email_address":null,"city":"Painten"},{"zip_code":"93449","street":"Allee 8","school_type_entity":"Grundschule","school_type":"Grundschule","phone_number":"+49 9972 252","old_slug":"93449-grundschule-waldmuenchen","official_id":"4675","name":"Volksschule Waldmünchen","lon":12.706034,"lat":49.379772,"homepage_url":"http://www.grundschule-waldmuenchen.de","federal_state_code":"BY","fax_number":"+49 9972 903575","email_address":null,"city":"Waldmünchen"},{"zip_code":"93482","street":"Pitzlinger Str. 1","school_type_entity":"Grundschule","school_type":"Grundschule","phone_number":"+49 9971 9182","old_slug":null,"official_id":"4655","name":"Volksschule Pemfling","lon":12.609935,"lat":49.263966,"homepage_url":null,"federal_state_code":"BY","fax_number":"+49 9971 801755","email_address":null,"city":"Pemfling"},{"zip_code":"94036","street":"Bozener Str. 11","school_type_entity":"Grundschule","school_type":"Grundschule","phone_number":"+49 851 52180","old_slug":null,"official_id":"3527","name":"Volksschule Passau-Haidenhof","lon":13.42294,"lat":48.557876,"homepage_url":null,"federal_state_code":"BY","fax_number":"+49 851 52030","email_address":null,"city":"Passau"},{"zip_code":"94065","street":"Kirchberg 6","school_type_entity":"Grundschule","school_type":"Grundschule","phone_number":"+49 8581 620","old_slug":null,"official_id":"3631","name":"Volksschule Karlsbach","lon":13.5746164,"lat":48.7635411,"homepage_url":null,"federal_state_code":"BY","fax_number":"+49 8581 620","email_address":null,"city":"Waldkirchen Karlsbach"},{"zip_code":"94107","street":"Dorfstr. 30","school_type_entity":"Grundschule","school_type":"Grundschule","phone_number":"+49 8593 1237","old_slug":null,"official_id":"3799","name":"Volksschule Schaibing","lon":13.642404,"lat":48.600534,"homepage_url":null,"federal_state_code":"BY","fax_number":"+49 8593 6228","email_address":null,"city":"Untergriesbach Schaibing"},{"zip_code":"94145","street":"Schulstr. 23","school_type_entity":"Grundschule","school_type":"Grundschule","phone_number":"+49 8556 331","old_slug":null,"official_id":"3617","name":"Volksschule Bischofsreut-Haidmühle","lon":13.77719,"lat":48.827083,"homepage_url":null,"federal_state_code":"BY","fax_number":"+49 8556 972757","email_address":null,"city":"Haidmühle Bischofsreut"},{"zip_code":"94161","street":"Schulstr. 3","school_type_entity":"Grundschule","school_type":"Grundschule","phone_number":"+49 8509 448","old_slug":null,"official_id":"3783","name":"Volksschule Ruderting","lon":13.411858,"lat":48.65409,"homepage_url":null,"federal_state_code":"BY","fax_number":"+49 8509 7202","email_address":null,"city":"Ruderting"},{"zip_code":"94253","street":"Max-Peinkofer-Weg 3","school_type_entity":"Grundschule","school_type":"Grundschule","phone_number":"+49 9920 1202","old_slug":null,"official_id":"3817","name":"Volksschule Bischofsmais","lon":13.082437,"lat":48.919836,"homepage_url":null,"federal_state_code":"BY","fax_number":"+49 9920 902105","email_address":null,"city":"Bischofsmais"},{"zip_code":"94315","street":"Niederalteicher Str. 13","school_type_entity":"Grundschule","school_type":"Grundschule","phone_number":"+49 9421 63288","old_slug":null,"official_id":"3557","name":"Volksschule Straubing-Ittling","lon":12.633241,"lat":48.881493,"homepage_url":null,"federal_state_code":"BY","fax_number":"+49 9421 7899459","email_address":null,"city":"Straubing"},{"zip_code":"94362","street":"Hauptstr. 6","school_type_entity":"Grundschule","school_type":"Grundschule","phone_number":"+49 9961 6282","old_slug":null,"official_id":"3913","name":"Volksschule Neukirchen","lon":12.753721,"lat":48.975157,"homepage_url":null,"federal_state_code":"BY","fax_number":null,"email_address":null,"city":"Neukirchen"},{"zip_code":"94447","street":"Preysingstraße 21","school_type_entity":"Grundschule","school_type":"Grundschule","phone_number":"+49 9931 6748","old_slug":null,"official_id":"3601","name":"Volksschule Plattling","lon":12.865258,"lat":48.776974,"homepage_url":null,"federal_state_code":"BY","fax_number":"+49 9931 71526","email_address":null,"city":"Plattling"},{"zip_code":"94474","street":"Beutelsbacher Str. 12","school_type_entity":"Grundschule","school_type":"Grundschule","phone_number":"+49 8543 1445","old_slug":null,"official_id":"3802","name":"Volksschule Vilshofen-Aunkirchen","lon":13.130281,"lat":48.598306,"homepage_url":null,"federal_state_code":"BY","fax_number":"+49 8543 1445","email_address":null,"city":"Vilshofen Aunkirchen"},{"zip_code":"94505","street":"Kirchweg 17","school_type_entity":"Grundschule","school_type":"Grundschule","phone_number":"+49 9905 353","old_slug":null,"official_id":"3580","name":"Volksschule Bernried","lon":12.925432,"lat":48.892084,"homepage_url":null,"federal_state_code":"BY","fax_number":"+49 9905 8714","email_address":null,"city":"Bernried Edenstetten"},{"zip_code":"94542","street":"Schulstr. 7 - 9","school_type_entity":"Grundschule","school_type":"Grundschule","phone_number":"+49 8535 310","old_slug":null,"official_id":"3758","name":"Volksschule Haarbach","lon":13.149595,"lat":48.501406,"homepage_url":null,"federal_state_code":"BY","fax_number":"+49 8535 1385","email_address":null,"city":"Haarbach"},{"zip_code":"94554","street":"Kirchplatz 4","school_type_entity":"Grundschule","school_type":"Grundschule","phone_number":"+49 9938 221","old_slug":null,"official_id":"3590","name":"Volksschule Moos","lon":12.952018,"lat":48.745068,"homepage_url":null,"federal_state_code":"BY","fax_number":"+49 9938 8238","email_address":null,"city":"Moos"},{"zip_code":"95028","street":"Leimitzer Str. 56","school_type_entity":"Grundschule","school_type":"Grundschule","phone_number":"+49 9281 40036","old_slug":null,"official_id":"5573","name":"Christian-Wolfrum-Volksschule Hof","lon":11.929265,"lat":50.316493,"homepage_url":null,"federal_state_code":"BY","fax_number":"+49 9281 478636","email_address":null,"city":"Hof"},{"zip_code":"95111","street":"Wallstraße 13","school_type_entity":"Grundschule","school_type":"Grundschule","phone_number":"+49 9283 9778","old_slug":null,"official_id":"5767","name":"Pestalozzi-Volksschule Rehau II","lon":12.037739,"lat":50.249389,"homepage_url":null,"federal_state_code":"BY","fax_number":"+49 9283 899564","email_address":null,"city":"Rehau"},{"zip_code":"95179","street":"Am Mühlhügel 11","school_type_entity":"Grundschule","school_type":"Grundschule","phone_number":"+49 9288 1706","old_slug":null,"official_id":"5754","name":"Volksschule Geroldsgrün","lon":11.596778,"lat":50.340597,"homepage_url":null,"federal_state_code":"BY","fax_number":"+49 9288 1716","email_address":null,"city":"Geroldsgrün"},{"zip_code":"95213","street":"Beethovenstraße 10","school_type_entity":"Grundschule","school_type":"Grundschule","phone_number":"+49 9251 3341","old_slug":null,"official_id":"5759","name":"Kreuzberg-Volksschule Münchberg","lon":11.788106,"lat":50.187047,"homepage_url":null,"federal_state_code":"BY","fax_number":"+49 9251 3013","email_address":null,"city":"Münchberg"},{"zip_code":"95326","street":"Pestalozzistraße 29","school_type_entity":"Grundschule","school_type":"Grundschule","phone_number":"+49 9221 74382","old_slug":"95326-pestalozzischule","official_id":"5824","name":"Pestalozzi-Volksschule Kulmbach","lon":11.44716,"lat":50.103417,"homepage_url":"http://www.pvs-kulmbach.de","federal_state_code":"BY","fax_number":"+49 9221 607602","email_address":"pestalozzi-kulmbach@t-online.de","city":"Kulmbach"},{"zip_code":"95445","street":"Bodenseering 55","school_type_entity":"Grundschule","school_type":"Grundschule","phone_number":"+49 921 73580","old_slug":null,"official_id":"5538","name":"Volksschule Bayreuth-Meyernberg","lon":11.538484,"lat":49.938832,"homepage_url":null,"federal_state_code":"BY","fax_number":"+49 921 735815","email_address":null,"city":"Bayreuth"},{"zip_code":"95502","street":"Ringstraße 5","school_type_entity":"Grundschule","school_type":"Grundschule","phone_number":"+49 9227 5136","old_slug":null,"official_id":"5817","name":"Volksschule Himmelkron-Lanzendorf","lon":11.597806,"lat":50.065486,"homepage_url":null,"federal_state_code":"BY","fax_number":"+49 9227 973957","email_address":null,"city":"Himmelkron"},{"zip_code":"95666","street":"Kohllohstr. 8","school_type_entity":"Grundschule","school_type":"Grundschule","phone_number":"+49 9633 4580","old_slug":null,"official_id":"4892","name":"Theobald-Schrems-Volksschule Mitterteich","lon":12.244947,"lat":49.954439,"homepage_url":null,"federal_state_code":"BY","fax_number":"+49 9633 4680","email_address":null,"city":"Mitterteich"},{"zip_code":"95703","street":"Jahnstraße 1","school_type_entity":"Grundschule","school_type":"Grundschule","phone_number":"+49 9636 342","old_slug":null,"official_id":"4898","name":"Volksschule Plößberg","lon":12.309886,"lat":49.786186,"homepage_url":null,"federal_state_code":"BY","fax_number":"+49 9636 1624","email_address":null,"city":"Plößberg"},{"zip_code":"96052","street":"Memmelsdorfer Str. 7 a","school_type_entity":"Grundschule","school_type":"Grundschule","phone_number":"+49 951 9620600","old_slug":null,"official_id":"5508","name":"Luitpold-Volksschule Bamberg","lon":10.889313,"lat":49.902374,"homepage_url":null,"federal_state_code":"BY","fax_number":"+49 951 9620609","email_address":null,"city":"Bamberg"},{"zip_code":"96157","street":"Neudorfer Straße 8","school_type_entity":"Grundschule","school_type":"Grundschule","phone_number":"+49 9553 290","old_slug":null,"official_id":"5602","name":"Volksschule Ebrach","lon":10.498038,"lat":49.848887,"homepage_url":null,"federal_state_code":"BY","fax_number":"+49 9553 921003","email_address":null,"city":"Ebrach"},{"zip_code":"96215","street":"Marktplatz 24","school_type_entity":"Grundschule","school_type":"Grundschule","phone_number":"+49 9571 940475","old_slug":null,"official_id":"5855","name":"Volksschule Lichtenfels am Markt","lon":11.064955,"lat":50.146004,"homepage_url":null,"federal_state_code":"BY","fax_number":"+49 9571 940477","email_address":null,"city":"Lichtenfels"},{"zip_code":"96269","street":"Schulstr. 32","school_type_entity":"Grundschule","school_type":"Grundschule","phone_number":"+49 9565 1596","old_slug":null,"official_id":"5685","name":"Volksschule Großheirath","lon":10.945923,"lat":50.169852,"homepage_url":null,"federal_state_code":"BY","fax_number":"+49 9565 610847","email_address":null,"city":"Großheirath"},{"zip_code":"96346","street":"Schützenstr. 35 b","school_type_entity":"Grundschule","school_type":"Grundschule","phone_number":"+49 9262 341","old_slug":null,"official_id":"5806","name":"Volksschule Wallenfels","lon":11.465323,"lat":50.270829,"homepage_url":null,"federal_state_code":"BY","fax_number":"+49 9262 972238","email_address":null,"city":"Wallenfels"},{"zip_code":"96450","street":"Seidmannsdorfer Straße 72","school_type_entity":"Grundschule","school_type":"Grundschule","phone_number":"+49 9561 27920","old_slug":null,"official_id":"5558","name":"Pestalozzi-Volksschule Coburg","lon":10.976662,"lat":50.253062,"homepage_url":null,"federal_state_code":"BY","fax_number":"+49 9561 279227","email_address":null,"city":"Coburg"},{"zip_code":"97074","street":"Von-Luxburg-Str. 3","school_type_entity":"Grundschule","school_type":"Grundschule","phone_number":"+49 931 7953380","old_slug":null,"official_id":"7551","name":"Goethe/Kepler-Volksschule Würzburg","lon":9.952076,"lat":49.785848,"homepage_url":null,"federal_state_code":"BY","fax_number":"+49 931 7953384","email_address":null,"city":"Würzburg"},{"zip_code":"97209","street":"Günterslebener Str. 41","school_type_entity":"Grundschule","school_type":"Grundschule","phone_number":"+49 931 45232630","old_slug":null,"official_id":"7972","name":"Volksschule Veitshöchheim","lon":9.883075,"lat":49.831204,"homepage_url":null,"federal_state_code":"BY","fax_number":"+49 931 45232633","email_address":null,"city":"Veitshöchheim"},{"zip_code":"97246","street":"Schulring 11","school_type_entity":"Grundschule","school_type":"Grundschule","phone_number":"+49 9303 382","old_slug":null,"official_id":"7930","name":"Volksschule Eibelstadt","lon":10.002169,"lat":49.725636,"homepage_url":null,"federal_state_code":"BY","fax_number":"+49 9303 980675","email_address":null,"city":"Eibelstadt"},{"zip_code":"97288","street":"Reisgrube 17","school_type_entity":"Grundschule","school_type":"Grundschule","phone_number":"+49 9303 487","old_slug":null,"official_id":"7966","name":"Volksschule Theilheim","lon":10.025581,"lat":49.753633,"homepage_url":null,"federal_state_code":"BY","fax_number":null,"email_address":null,"city":"Theilheim"},{"zip_code":"97348","street":"Schulstr. 4","school_type_entity":"Grundschule","school_type":"Grundschule","phone_number":"+49 9326 8736","old_slug":null,"official_id":"7777","name":"Volksschule Hellmitzheimer Bucht Markt Einersheim","lon":10.288607,"lat":49.686429,"homepage_url":null,"federal_state_code":"BY","fax_number":"+49 9326 902257","email_address":null,"city":"Markt Einersheim"},{"zip_code":"97421","street":"Gunnar-Wester-Str. 9","school_type_entity":"Grundschule","school_type":"Grundschule","phone_number":"+49 9721 51942","old_slug":null,"official_id":"7529","name":"Friedrich-Rückert-Volksschule Schweinfurt","lon":10.228274,"lat":50.040522,"homepage_url":null,"federal_state_code":"BY","fax_number":"+49 9721 51940","email_address":null,"city":"Schweinfurt"},{"zip_code":"97440","street":"Schönbornstr. 40","school_type_entity":"Grundschule","school_type":"Grundschule","phone_number":"+49 9722 949040","old_slug":null,"official_id":"7917","name":"Balthasar-Neumann-Volksschule Werneck","lon":10.099658,"lat":49.985188,"homepage_url":null,"federal_state_code":"BY","fax_number":"+49 9722 9490416","email_address":null,"city":"Werneck"},{"zip_code":"97499","street":"Schulstr. 2","school_type_entity":"Grundschule","school_type":"Grundschule","phone_number":"+49 9528 950166","old_slug":null,"official_id":"7913","name":"Volksschule Am Zabelstein Donnersdorf","lon":10.411086,"lat":49.937338,"homepage_url":null,"federal_state_code":"BY","fax_number":"+49 9528 950175","email_address":null,"city":"Donnersdorf Traustadt"},{"zip_code":"97525","street":"Schulstraße 20","school_type_entity":"Grundschule","school_type":"Grundschule","phone_number":"+49 9723 912322","old_slug":null,"official_id":"7907","name":"Volksschule Schwebheim","lon":10.251425,"lat":49.998472,"homepage_url":null,"federal_state_code":"BY","fax_number":"+49 9723 912332","email_address":null,"city":"Schwebheim"},{"zip_code":"97618","street":"Schulstr. 20","school_type_entity":"Grundschule","school_type":"Grundschule","phone_number":"+49 9773 6260","old_slug":null,"official_id":"7720","name":"Volksschule Wollbach","lon":10.224927,"lat":50.362393,"homepage_url":null,"federal_state_code":"BY","fax_number":"+49 9773 6870","email_address":null,"city":"Wollbach"},{"zip_code":"97688","street":"Platz der Heimattreue 1","school_type_entity":"Grundschule","school_type":"Grundschule","phone_number":"+49 971 7854920","old_slug":null,"official_id":"7649","name":"Anton-Kliegl-Volksschule Bad Kissingen","lon":10.078061,"lat":50.204408,"homepage_url":null,"federal_state_code":"BY","fax_number":"+49 971 7854929","email_address":null,"city":"Bad Kissingen"},{"zip_code":"97724","street":"Jahnstraße 12","school_type_entity":"Grundschule","school_type":"Grundschule","phone_number":"+49 9733 9688","old_slug":null,"official_id":"7654","name":"Volksschule Burglauer","lon":10.180386,"lat":50.273109,"homepage_url":null,"federal_state_code":"BY","fax_number":"+49 9733 6539","email_address":null,"city":"Burglauer"},{"zip_code":"97762","street":"Friedrich-Müller-Straße 19","school_type_entity":"Grundschule","school_type":"Grundschule","phone_number":"+49 9732 4524","old_slug":null,"official_id":"7662","name":"Volksschule Hammelburg","lon":9.891936,"lat":50.112785,"homepage_url":null,"federal_state_code":"BY","fax_number":"+49 9732 4555","email_address":null,"city":"Hammelburg"},{"zip_code":"97816","street":"Kaplan-Höfling-Str. 16","school_type_entity":"Grundschule","school_type":"Grundschule","phone_number":"+49 9352 508884","old_slug":null,"official_id":"7853","name":"Volksschule Lohr a.Main","lon":9.57444,"lat":49.992976,"homepage_url":null,"federal_state_code":"BY","fax_number":"+49 9352 508886","email_address":null,"city":"Lohr"},{"zip_code":"97854","street":"Waldzeller Str. 11","school_type_entity":"Grundschule","school_type":"Grundschule","phone_number":"+49 9359 361","old_slug":null,"official_id":"7869","name":"Volksschule Steinfeld","lon":9.665699,"lat":49.952154,"homepage_url":null,"federal_state_code":"BY","fax_number":"+49 9359 90198","email_address":null,"city":"Steinfeld"},{"zip_code":"97904","street":"Schulstr. 4","school_type_entity":"Grundschule","school_type":"Grundschule","phone_number":"+49 9392 98996","old_slug":null,"official_id":"7798","name":"Volksschule Dorfprozelten/Stadtprozelten","lon":9.382922,"lat":49.775706,"homepage_url":null,"federal_state_code":"BY","fax_number":"+49 9392 98997","email_address":null,"city":"Dorfprozelten"},{"zip_code":"97903","street":"Jahnstraße 4","school_type_entity":"Grundschule","school_type":"Grundschule","phone_number":"+49 9376 484","old_slug":null,"official_id":"7797","name":"Volksschule Collenberg","lon":9.328832,"lat":49.77484,"homepage_url":null,"federal_state_code":"BY","fax_number":"+49 9376 9740059","email_address":null,"city":"Collenberg"},{"zip_code":"97859","street":"Schulstr. 12","school_type_entity":"Grundschule","school_type":"Grundschule","phone_number":"+49 6020 425","old_slug":null,"official_id":"7876","name":"Volksschule Wiesthal","lon":9.427439,"lat":50.029267,"homepage_url":null,"federal_state_code":"BY","fax_number":"+49 6020 2877","email_address":null,"city":"Wiesthal"},{"zip_code":"97857","street":"Schulstr. 8","school_type_entity":"Grundschule","school_type":"Grundschule","phone_number":"+49 9396 371","old_slug":null,"official_id":"7872","name":"Volksschule Urspringen","lon":9.672828,"lat":49.904139,"homepage_url":null,"federal_state_code":"BY","fax_number":"+49 9396 993865","email_address":null,"city":"Urspringen"},{"zip_code":"97855","street":"Spessartstr. 20","school_type_entity":"Grundschule","school_type":"Grundschule","phone_number":"+49 9395 484","old_slug":null,"official_id":"7852","name":"Volksschule Triefenstein","lon":9.593936,"lat":49.815681,"homepage_url":null,"federal_state_code":"BY","fax_number":"+49 9395 997870","email_address":null,"city":"Triefenstein Lengfurt"},{"zip_code":"97846","street":"Schulstraße 10","school_type_entity":"Grundschule","school_type":"Grundschule","phone_number":"+49 9355 1888","old_slug":null,"official_id":"7863","name":"Volksschule Partenstein","lon":9.521521,"lat":50.041916,"homepage_url":null,"federal_state_code":"BY","fax_number":"+49 9355 99967","email_address":null,"city":"Partenstein"},{"zip_code":"97842","street":"Schulstr. 8","school_type_entity":"Grundschule","school_type":"Grundschule","phone_number":"+49 9391 1752","old_slug":null,"official_id":"7845","name":"Volksschule Karbach","lon":9.639349,"lat":49.868656,"homepage_url":null,"federal_state_code":"BY","fax_number":"+49 9391 8916","email_address":null,"city":"Karbach"},{"zip_code":"97840","street":"Herrngasse 6","school_type_entity":"Grundschule","school_type":"Grundschule","phone_number":"+49 9391 3901","old_slug":null,"official_id":"7844","name":"Volksschule Hafenlohr","lon":9.601223,"lat":49.870419,"homepage_url":null,"federal_state_code":"BY","fax_number":"+49 9391 6156","email_address":null,"city":"Hafenlohr"},{"zip_code":"97837","street":"Schulstraße 7","school_type_entity":"Grundschule","school_type":"Grundschule","phone_number":"+49 9391 2261","old_slug":null,"official_id":"7836","name":"Volksschule Erlenbach b.Marktheidenfeld","lon":9.63102,"lat":49.819002,"homepage_url":null,"federal_state_code":"BY","fax_number":"+49 9391 919811","email_address":null,"city":"Erlenbach"},{"zip_code":"97828","street":"Ludwigstraße 29","school_type_entity":"Grundschule","school_type":"Grundschule","phone_number":"+49 9391 5864","old_slug":null,"official_id":"7860","name":"Friedrich-Fleischmann-Volksschule Marktheidenfeld","lon":9.611811,"lat":49.845282,"homepage_url":null,"federal_state_code":"BY","fax_number":"+49 9391 81708","email_address":null,"city":"Marktheidenfeld"},{"zip_code":"97816","street":"Bachstr. 32","school_type_entity":"Grundschule","school_type":"Grundschule","phone_number":"+49 9352 1354","old_slug":null,"official_id":"7859","name":"Volksschule Lohr a.Main-Wombach","lon":9.566268,"lat":49.975502,"homepage_url":null,"federal_state_code":"BY","fax_number":"+49 9352 807293","email_address":null,"city":"Lohr Wombach"},{"zip_code":"97816","street":"Zeiläckerweg 1","school_type_entity":"Grundschule","school_type":"Grundschule","phone_number":"+49 9352 2736","old_slug":null,"official_id":"7857","name":"Volksschule Lohr a.Main-Sackenbach","lon":9.5914739,"lat":50.004687,"homepage_url":null,"federal_state_code":"BY","fax_number":"+49 9352 807291","email_address":null,"city":"Lohr Sackenbach"},{"zip_code":"97816","street":"Ostlandstr. 19","school_type_entity":"Grundschule","school_type":"Grundschule","phone_number":"+49 9352 2872","old_slug":null,"official_id":"7855","name":"Volksschule Lohr a.Main-Sendelbach","lon":9.588984,"lat":49.99215,"homepage_url":null,"federal_state_code":"BY","fax_number":"+49 9352 807244","email_address":null,"city":"Lohr Sendelbach"},{"zip_code":"97799","street":"Raiffeisen Str. 36","school_type_entity":"Grundschule","school_type":"Grundschule","phone_number":"+49 9746 347","old_slug":null,"official_id":"7684","name":"Volksschule Zeitlofs","lon":9.666733,"lat":50.260065,"homepage_url":null,"federal_state_code":"BY","fax_number":"+49 9746 347","email_address":null,"city":"Zeitlofs"},{"zip_code":"97797","street":"Gerstenberg 8","school_type_entity":"Grundschule","school_type":"Grundschule","phone_number":"+49 9357 682","old_slug":null,"official_id":"7657","name":"Volksschule Wartmannsroth","lon":9.7635,"lat":50.15372,"homepage_url":null,"federal_state_code":"BY","fax_number":"+49 9357 992012","email_address":null,"city":"Wartmannsroth Dittlofsroda"},{"zip_code":"97794","street":"Lamperweg 3","school_type_entity":"Grundschule","school_type":"Grundschule","phone_number":"+49 9354 398","old_slug":null,"official_id":"7866","name":"Volksschule Rieneck","lon":9.644003,"lat":50.092927,"homepage_url":null,"federal_state_code":"BY","fax_number":"+49 9354 398","email_address":null,"city":"Rieneck"},{"zip_code":"97792","street":"Kirchstr. 11","school_type_entity":"Grundschule","school_type":"Grundschule","phone_number":"+49 9749 289","old_slug":null,"official_id":"7679","name":"Volksschule Riedenberg","lon":9.862587,"lat":50.320135,"homepage_url":null,"federal_state_code":"BY","fax_number":"+49 9749 289","email_address":null,"city":"Riedenberg"},{"zip_code":"97789","street":"Schulstr. 11","school_type_entity":"Grundschule","school_type":"Grundschule","phone_number":"+49 9741 3103","old_slug":null,"official_id":"7674","name":"Volksschule Oberleichtersbach","lon":9.805524,"lat":50.271552,"homepage_url":null,"federal_state_code":"BY","fax_number":"+49 9741 2637","email_address":null,"city":"Oberleichtersbach"},{"zip_code":"97786","street":"Am Kirchberg 10","school_type_entity":"Grundschule","school_type":"Grundschule","phone_number":"+49 9748 9281","old_slug":null,"official_id":"7669","name":"Volksschule Motten","lon":9.772406,"lat":50.396341,"homepage_url":null,"federal_state_code":"BY","fax_number":"+49 9748 9282","email_address":null,"city":"Motten Kothen"},{"zip_code":"97782","street":"Am Forsthaus 3","school_type_entity":"Grundschule","school_type":"Grundschule","phone_number":"+49 9357 992200","old_slug":null,"official_id":"7843","name":"Volksschule Gräfendorf","lon":9.744095,"lat":50.122939,"homepage_url":null,"federal_state_code":"BY","fax_number":"+49 9357 992201","email_address":null,"city":"Gräfendorf"},{"zip_code":"97780","street":"Hauptstr. 29 a","school_type_entity":"Grundschule","school_type":"Grundschule","phone_number":"+49 9358 262","old_slug":null,"official_id":"7842","name":"Volksschule Gössenheim","lon":9.780932,"lat":50.020283,"homepage_url":null,"federal_state_code":"BY","fax_number":"+49 9358 901077","email_address":null,"city":"Gössenheim"},{"zip_code":"97773","street":"Hauptstr. 1","school_type_entity":"Grundschule","school_type":"Grundschule","phone_number":"+49 9356 5362","old_slug":null,"official_id":"7834","name":"Volksschule Aura i.Sinngrund","lon":9.574477,"lat":50.175805,"homepage_url":null,"federal_state_code":"BY","fax_number":"+49 9356 933690","email_address":null,"city":"Aura"},{"zip_code":"97769","street":"Am Kleinen Steinbusch 8","school_type_entity":"Grundschule","school_type":"Grundschule","phone_number":"+49 9741 2197","old_slug":null,"official_id":"7648","name":"Volksschule Bad Brückenau","lon":9.787094,"lat":50.304322,"homepage_url":null,"federal_state_code":"BY","fax_number":"+49 9741 3729","email_address":null,"city":"Bad Brückenau"},{"zip_code":"97753","street":"Schloßgartenweg 3","school_type_entity":"Grundschule","school_type":"Grundschule","phone_number":"+49 9359 301","old_slug":null,"official_id":"7875","name":"Volksschule Karlstadt-Wiesenfeld/Karlburg","lon":9.6992896,"lat":49.970431,"homepage_url":null,"federal_state_code":"BY","fax_number":"+49 9359 909719","email_address":null,"city":"Karlstadt Wiesenfeld"},{"zip_code":"97753","street":"Ostlandstraße 25","school_type_entity":"Grundschule","school_type":"Grundschule","phone_number":"+49 9353 8191","old_slug":null,"official_id":"7847","name":"Volksschule Karlstadt","lon":9.776716,"lat":49.961219,"homepage_url":null,"federal_state_code":"BY","fax_number":"+49 9353 996938","email_address":null,"city":"Karlstadt"},{"zip_code":"97737","street":"Artfeldstr. 12","school_type_entity":"Grundschule","school_type":"Grundschule","phone_number":"+49 9351 8824","old_slug":null,"official_id":"7873","name":"Volksschule Gemünden a. Main-Wernfeld","lon":9.72725,"lat":50.024275,"homepage_url":null,"federal_state_code":"BY","fax_number":"+49 9351 8824","email_address":null,"city":"Gemünden Wernfeld"},{"zip_code":"97737","street":"Schulgasse 4","school_type_entity":"Grundschule","school_type":"Grundschule","phone_number":"+49 9351 3106","old_slug":null,"official_id":"7850","name":"Volksschule Gemünden-Langenprozelten","lon":9.654794,"lat":50.061588,"homepage_url":null,"federal_state_code":"BY","fax_number":"+49 9351 3106","email_address":null,"city":"Gemünden Langenprozelten"},{"zip_code":"97737","street":"Hofweg 4","school_type_entity":"Grundschule","school_type":"Grundschule","phone_number":"+49 9351 3535","old_slug":"97737-hauptschule-gemuenden","official_id":"7840","name":"Volksschule Gemünden a.Main","lon":9.70556,"lat":50.04972,"homepage_url":"http://www.hsgemuenden.de","federal_state_code":"BY","fax_number":"+49 9351 601649","email_address":"hs.gemuenden@t-online.de","city":"Gemünden"},{"zip_code":"97711","street":"Leiten 10","school_type_entity":"Grundschule","school_type":"Grundschule","phone_number":"+49 9724 1752","old_slug":null,"official_id":"7683","name":"Volksschule Thundorf i.UFr.","lon":10.325847,"lat":50.185658,"homepage_url":null,"federal_state_code":"BY","fax_number":"+49 9724 1753","email_address":null,"city":"Thundorf Rothhausen"},{"zip_code":"97711","street":"Wermerichshäuser Weg 14","school_type_entity":"Grundschule","school_type":"Grundschule","phone_number":"+49 9733 9401","old_slug":null,"official_id":"7667","name":"Volksschule Maßbach-Poppenlauer","lon":10.240107,"lat":50.21629,"homepage_url":null,"federal_state_code":"BY","fax_number":"+49 9733 4268","email_address":null,"city":"Maßbach Poppenlauer"},{"zip_code":"97705","street":"Steinbergstr. 44","school_type_entity":"Grundschule","school_type":"Grundschule","phone_number":"+49 9701 383","old_slug":null,"official_id":"7677","name":"Volksschule Burkardroth","lon":10.019102,"lat":50.302332,"homepage_url":null,"federal_state_code":"BY","fax_number":"+49 9701 8633","email_address":null,"city":"Burkardroth Premich"},{"zip_code":"97702","street":"Ringweg 31","school_type_entity":"Grundschule","school_type":"Grundschule","phone_number":"+49 9766 477","old_slug":null,"official_id":"7672","name":"Volksschule Münnerstadt-Großwenkheim","lon":10.328293,"lat":50.229025,"homepage_url":null,"federal_state_code":"BY","fax_number":"+49 9766 1653","email_address":null,"city":"Münnerstadt-Seubrigshausen Großwenkheim"},{"zip_code":"97702","street":"Schützenstraße 28","school_type_entity":"Grundschule","school_type":"Grundschule","phone_number":"+49 9733 810211","old_slug":null,"official_id":"7670","name":"Freiherr-von-Lutz-Volksschule Münnerstadt","lon":10.203538,"lat":50.246695,"homepage_url":null,"federal_state_code":"BY","fax_number":"+49 9733 810220","email_address":null,"city":"Münnerstadt"},{"zip_code":"97688","street":"Baptist-Hoffmann-Str. 14","school_type_entity":"Grundschule","school_type":"Grundschule","phone_number":"+49 971 5725","old_slug":null,"official_id":"7651","name":"Henneberg-Volksschule Bad Kissingen-Garitz","lon":10.057134,"lat":50.191626,"homepage_url":null,"federal_state_code":"BY","fax_number":"+49 971 60573","email_address":null,"city":"Bad Kissingen Garitz"},{"zip_code":"97657","street":"Kreuzbergstraße","school_type_entity":"Grundschule","school_type":"Grundschule","phone_number":"+49 9701 9210","old_slug":"97657-volksschule-sandberg","official_id":"7715","name":"Volksschule Sandberg","lon":10.007294,"lat":50.348105,"homepage_url":"http://www.volksschule-sandberg.de","federal_state_code":"BY","fax_number":"+49 9701 9212","email_address":"info@volksschule-sandberg.de","city":"Sandberg"},{"zip_code":"97656","street":"Neumühlenweg 2","school_type_entity":"Grundschule","school_type":"Grundschule","phone_number":"+49 9774 9233","old_slug":null,"official_id":"7709","name":"Valentin-Rathgeber-Volksschule Oberelsbach","lon":10.078357,"lat":50.424896,"homepage_url":null,"federal_state_code":"BY","fax_number":"+49 9774 9234","email_address":null,"city":"Oberelsbach Weisbach"},{"zip_code":"97654","street":"Schulstr. 8","school_type_entity":"Grundschule","school_type":"Grundschule","phone_number":"+49 9773 434","old_slug":null,"official_id":"7695","name":"Volksschule Besengau-Bastheim","lon":10.204833,"lat":50.398941,"homepage_url":null,"federal_state_code":"BY","fax_number":"+49 9773 1786","email_address":null,"city":"Bastheim"},{"zip_code":"97647","street":"Schulstr. 5","school_type_entity":"Grundschule","school_type":"Grundschule","phone_number":"+49 9779 330","old_slug":null,"official_id":"7708","name":"Volksschule Nordheim v.d.Rhön","lon":10.186167,"lat":50.479698,"homepage_url":null,"federal_state_code":"BY","fax_number":"+49 9779 1897","email_address":null,"city":"Nordheim"},{"zip_code":"97645","street":"Ritter-von-Halt-Str. 1","school_type_entity":"Grundschule","school_type":"Grundschule","phone_number":"+49 9777 9215","old_slug":null,"official_id":"7711","name":"Volksschule Ostheim v.d.Rhön","lon":10.232617,"lat":50.460738,"homepage_url":null,"federal_state_code":"BY","fax_number":"+49 9777 9216","email_address":null,"city":"Ostheim"},{"zip_code":"97640","street":"Gartenstr. 1","school_type_entity":"Grundschule","school_type":"Grundschule","phone_number":"+49 9773 1279","old_slug":null,"official_id":"7710","name":"Volksschule Oberstreu","lon":10.271878,"lat":50.391464,"homepage_url":null,"federal_state_code":"BY","fax_number":"+49 9773 5192","email_address":null,"city":"Oberstreu Mittelstreu"},{"zip_code":"97638","street":"Friedenstr. 22","school_type_entity":"Grundschule","school_type":"Grundschule","phone_number":"+49 9776 277","old_slug":null,"official_id":"7706","name":"Volksschule Mellrichstadt","lon":10.304687,"lat":50.428143,"homepage_url":null,"federal_state_code":"BY","fax_number":"+49 9776 7413","email_address":null,"city":"Mellrichstadt"},{"zip_code":"97633","street":"Schulstr. 2","school_type_entity":"Grundschule","school_type":"Grundschule","phone_number":"+49 9761 2502","old_slug":null,"official_id":"7764","name":"Volksschule Sulzfeld","lon":10.406558,"lat":50.263198,"homepage_url":null,"federal_state_code":"BY","fax_number":"+49 9761 397309","email_address":null,"city":"Sulzfeld"},{"zip_code":"97633","street":"Marktplatz 1","school_type_entity":"Grundschule","school_type":"Grundschule","phone_number":"+49 9762 6117","old_slug":null,"official_id":"7713","name":"Volksschule Saaletal in Saal a.d. Saale","lon":10.356063,"lat":50.31692,"homepage_url":null,"federal_state_code":"BY","fax_number":"+49 9762 6197","email_address":null,"city":"Saal"},{"zip_code":"97633","street":"Schulstr. 8","school_type_entity":"Grundschule","school_type":"Grundschule","phone_number":"+49 9761 2602","old_slug":null,"official_id":"7691","name":"Volksschule Milzgrund in Aubstadt","lon":10.434088,"lat":50.330437,"homepage_url":null,"federal_state_code":"BY","fax_number":"+49 9761 5585","email_address":null,"city":"Aubstadt"},{"zip_code":"97618","street":"Schulstr. 5","school_type_entity":"Grundschule","school_type":"Grundschule","phone_number":"+49 9773 6621","old_slug":null,"official_id":"7703","name":"Volksschule Hollstadt","lon":10.287175,"lat":50.354731,"homepage_url":null,"federal_state_code":"BY","fax_number":"+49 9773 763","email_address":null,"city":"Hollstadt"},{"zip_code":"97616","street":"Hirtshorn 2","school_type_entity":"Grundschule","school_type":"Grundschule","phone_number":"+49 9771 3567","old_slug":null,"official_id":"7714","name":"Karl-Straub-Volksschule Salz","lon":10.215672,"lat":50.306053,"homepage_url":null,"federal_state_code":"BY","fax_number":"+49 9771 994181","email_address":null,"city":"Salz"},{"zip_code":"97616","street":"Valentin-Rathgeber-Str. 1-3","school_type_entity":"Grundschule","school_type":"Grundschule","phone_number":"+49 9771 3263","old_slug":null,"official_id":"7697","name":"Volksschule Bad Neustadt a.d.Saale-Brendlorenzen","lon":10.211537,"lat":50.332689,"homepage_url":null,"federal_state_code":"BY","fax_number":"+49 9771 994139","email_address":null,"city":"Bad Neustadt Brendlorenzen"},{"zip_code":"97616","street":"Kirchstraße 16","school_type_entity":"Grundschule","school_type":"Grundschule","phone_number":"+49 9771 2374","old_slug":null,"official_id":"7694","name":"Volksschule Bad Neustadt a.d.Saale-Herschfeld","lon":8.149619,"lat":49.35225,"homepage_url":null,"federal_state_code":"BY","fax_number":"+49 9771 994119","email_address":null,"city":"Bad Neustadt Herschfeld"},{"zip_code":"97616","street":"Rhönblick 15","school_type_entity":"Grundschule","school_type":"Grundschule","phone_number":"+49 9771 2534","old_slug":null,"official_id":"7692","name":"Karl-Ludwig-von-Guttenberg-Volksschule Bad Neustadt a.d.Saale","lon":10.20509,"lat":50.323988,"homepage_url":null,"federal_state_code":"BY","fax_number":"+49 9771 994130","email_address":null,"city":"Bad Neustadt"},{"zip_code":"97535","street":"Friedhofstraße 14","school_type_entity":"Grundschule","school_type":"Grundschule","phone_number":"+49 9726 3869","old_slug":null,"official_id":"7926","name":"Volksschule Wasserlosen","lon":10.030112,"lat":50.096581,"homepage_url":null,"federal_state_code":"BY","fax_number":"+49 9726 8424","email_address":null,"city":"Wasserlosen"},{"zip_code":"97526","street":"Gartenstraße 2","school_type_entity":"Grundschule","school_type":"Grundschule","phone_number":"+49 9721 60150","old_slug":"97526-hauptschule-sennfeld","official_id":"7908","name":"Volksschule Sennfeld","lon":10.257101,"lat":50.039188,"homepage_url":"http://www.hauptschule-sennfeld.de/","federal_state_code":"BY","fax_number":"+49 9721 60150","email_address":"sekretariat@hauptschule-sennfeld.de","city":"Sennfeld"},{"zip_code":"97523","street":"Schulstr. 4 - 6","school_type_entity":"Grundschule","school_type":"Grundschule","phone_number":"+49 9384 253","old_slug":null,"official_id":"7905","name":"Volksschule Schwanfeld","lon":10.140499,"lat":49.919177,"homepage_url":null,"federal_state_code":"BY","fax_number":"+49 9384 8649","email_address":null,"city":"Schwanfeld"},{"zip_code":"97520","street":"Friedhofstr. 1","school_type_entity":"Grundschule","school_type":"Grundschule","phone_number":"+49 9723 1519","old_slug":null,"official_id":"7903","name":"Volksschule Röthlein","lon":10.216927,"lat":49.988526,"homepage_url":null,"federal_state_code":"BY","fax_number":"+49 9723 5966","email_address":null,"city":"Röthlein"},{"zip_code":"97514","street":"Am Sportzentrum 4","school_type_entity":"Grundschule","school_type":"Grundschule","phone_number":"+49 9522 328","old_slug":null,"official_id":"7750","name":"Volksschule Oberaurach","lon":10.660636,"lat":49.924194,"homepage_url":null,"federal_state_code":"BY","fax_number":"+49 9522 950837","email_address":null,"city":"Oberaurach Trossenfurt"},{"zip_code":"97509","street":"Schulweg 15","school_type_entity":"Grundschule","school_type":"Grundschule","phone_number":"+49 9382 8388","old_slug":"97509-grundschule-kolitzheim","official_id":"7915","name":"Volksschule Kolitzheim","lon":10.2692244,"lat":49.9067164,"homepage_url":"http://www.grundschule-kolitzheim.de","federal_state_code":"BY","fax_number":"+49 9382 3733","email_address":"verwaltung@grundschule-kolitzheim.de","city":"Kolitzheim Herlheim"},{"zip_code":"97508","street":"Kirchgasse 11","school_type_entity":"Grundschule","school_type":"Grundschule","phone_number":"+49 9729 7204","old_slug":"97508-grundschule-grettstadt","official_id":"7894","name":"Volksschule Grettstadt","lon":10.313298,"lat":49.985521,"homepage_url":"http://www.schule.grettstadt.de","federal_state_code":"BY","fax_number":"+49 9729 7297","email_address":"verwaltung@schule.grettstadt.de","city":"Grettstadt"},{"zip_code":"97506","street":"Hermasweg 1 b","school_type_entity":"Grundschule","school_type":"Grundschule","phone_number":"+49 9723 1422","old_slug":null,"official_id":"7893","name":"Theresia-Gerhardinger-Volksschule Grafenrheinfeld","lon":10.20193,"lat":50.005984,"homepage_url":null,"federal_state_code":"BY","fax_number":"+49 9723 5965","email_address":null,"city":"Grafenrheinfeld"},{"zip_code":"97502","street":"Schulstraße 1","school_type_entity":"Grundschule","school_type":"Grundschule","phone_number":"+49 9726 435","old_slug":null,"official_id":"7888","name":"Volksschule Euerbach","lon":10.135764,"lat":50.060571,"homepage_url":null,"federal_state_code":"BY","fax_number":"+49 9726 915544","email_address":null,"city":"Euerbach"},{"zip_code":"97500","street":"Georg-Schäfer-Str. 58","school_type_entity":"Grundschule","school_type":"Grundschule","phone_number":"+49 9522 70492","old_slug":null,"official_id":"7729","name":"Volksschule Ebelsbach","lon":10.683778,"lat":49.989156,"homepage_url":null,"federal_state_code":"BY","fax_number":"+49 9522 1228","email_address":null,"city":"Ebelsbach"},{"zip_code":"97496","street":"Fitzendorfer Str. 5","school_type_entity":"Grundschule","school_type":"Grundschule","phone_number":"+49 9534 272","old_slug":null,"official_id":"7728","name":"Volksschule Burgpreppach","lon":10.642398,"lat":50.13934,"homepage_url":null,"federal_state_code":"BY","fax_number":"+49 9534 213","email_address":null,"city":"Burgpreppach"},{"zip_code":"97493","street":"Schloßgasse 1","school_type_entity":"Grundschule","school_type":"Grundschule","phone_number":"+49 9721 90454","old_slug":null,"official_id":"7883","name":"Julius-Echter-Volksschule in Bergrheinfeld","lon":10.179353,"lat":50.005287,"homepage_url":null,"federal_state_code":"BY","fax_number":"+49 9721 97312","email_address":null,"city":"Bergrheinfeld"},{"zip_code":"97486","street":"Alleestr. 1 a","school_type_entity":"Grundschule","school_type":"Grundschule","phone_number":"+49 9525 8481","old_slug":null,"official_id":"7740","name":"Regiomontanus-Volksschule Königsberg i.Bay.","lon":10.566315,"lat":50.079894,"homepage_url":null,"federal_state_code":"BY","fax_number":"+49 9525 8358","email_address":null,"city":"Königsberg"},{"zip_code":"97483","street":"Oskar-Serrand-Straße 25","school_type_entity":"Grundschule","school_type":"Grundschule","phone_number":"+49 9522 950310","old_slug":null,"official_id":"7732","name":"Johann-Baptist-Graser-Volksschule Eltmann","lon":10.663156,"lat":49.969205,"homepage_url":null,"federal_state_code":"BY","fax_number":"+49 9522 950311","email_address":null,"city":"Eltmann"},{"zip_code":"97475","street":"Schulring 1","school_type_entity":"Grundschule","school_type":"Grundschule","phone_number":"+49 9524 94992","old_slug":"97475-hauptschule-zeil-sand","official_id":"7754","name":"Volksschule Zeil a.Main/Sand a.Main","lon":10.592933,"lat":50.011588,"homepage_url":"http://www.hszeil.de.vu","federal_state_code":"BY","fax_number":"+49 9524 94997","email_address":"hszeil@freenet.de","city":"Zeil"},{"zip_code":"97469","street":"Adam-Riese-Str. 12","school_type_entity":"Grundschule","school_type":"Grundschule","phone_number":"+49 9721 6752930","old_slug":null,"official_id":"7891","name":"Volksschule Gochsheim","lon":10.288006,"lat":50.023261,"homepage_url":null,"federal_state_code":"BY","fax_number":"+49 9721 6496210","email_address":null,"city":"Gochsheim"},{"zip_code":"97461","street":"Johannisstr. 32","school_type_entity":"Grundschule","school_type":"Grundschule","phone_number":"+49 9523 6038","old_slug":null,"official_id":"7735","name":"Volksschule Hofheim i.UFr.","lon":10.519914,"lat":50.141226,"homepage_url":null,"federal_state_code":"BY","fax_number":"+49 9523 6149","email_address":null,"city":"Hofheim"},{"zip_code":"97453","street":"Schulweg 7 - 13","school_type_entity":"Grundschule","school_type":"Grundschule","phone_number":"+49 9721 75172","old_slug":null,"official_id":"7904","name":"Volksschule Schonungen","lon":10.303087,"lat":50.052131,"homepage_url":null,"federal_state_code":"BY","fax_number":"+49 9721 75173","email_address":null,"city":"Schonungen"},{"zip_code":"97450","street":"Schulstr. 7","school_type_entity":"Grundschule","school_type":"Grundschule","phone_number":"+49 9728 241","old_slug":null,"official_id":"7868","name":"Volksschule Arnstein-Schwebenried","lon":11.457401,"lat":51.699099,"homepage_url":null,"federal_state_code":"BY","fax_number":"+49 9728 241","email_address":null,"city":"Arnstein Schwebenried"},{"zip_code":"97450","street":"Schwebenrieder Str. 10","school_type_entity":"Grundschule","school_type":"Grundschule","phone_number":"+49 9363 1789","old_slug":null,"official_id":"7832","name":"Volksschule Arnstein","lon":9.972826,"lat":49.980196,"homepage_url":null,"federal_state_code":"BY","fax_number":"+49 9363 99059","email_address":null,"city":"Arnstein"},{"zip_code":"97447","street":"Lülsfelder Weg 6","school_type_entity":"Grundschule","school_type":"Grundschule","phone_number":"+49 9382 310070","old_slug":"97447-volksschule-gerolzhofen-hauptschule-mit-m-zweig","official_id":"7890","name":"Volksschule Gerolzhofen","lon":10.349233,"lat":49.898196,"homepage_url":"http://www.hauptschule-gerolzhofen.de","federal_state_code":"BY","fax_number":"+49 9382 310071","email_address":"verwaltung@hauptschule-gerolzhofen.de","city":"Gerolzhofen"},{"zip_code":"97437","street":"Dürerweg 22","school_type_entity":"Grundschule","school_type":"Grundschule","phone_number":"+49 9521 944455","old_slug":null,"official_id":"7733","name":"Volksschule Haßfurt","lon":10.524605,"lat":50.035689,"homepage_url":null,"federal_state_code":"BY","fax_number":"+49 9521 944497","email_address":null,"city":"Haßfurt"},{"zip_code":"97424","street":"Kleinflürleinsweg 38","school_type_entity":"Grundschule","school_type":"Grundschule","phone_number":"+49 9721 51952","old_slug":null,"official_id":"7531","name":"Gartenstadt-Volksschule Schweinfurt","lon":10.216996,"lat":50.0593,"homepage_url":null,"federal_state_code":"BY","fax_number":"+49 9721 51950","email_address":null,"city":"Schweinfurt"},{"zip_code":"97424","street":"Fuchsgasse 1","school_type_entity":"Grundschule","school_type":"Grundschule","phone_number":"+49 9721 7968552","old_slug":null,"official_id":"7528","name":"Dr.-Pfeiffer-Volksschule Schweinfurt","lon":10.205257,"lat":50.027817,"homepage_url":null,"federal_state_code":"BY","fax_number":"+49 9721 7968553","email_address":null,"city":"Schweinfurt"},{"zip_code":"97424","street":"Albert-Schweitzer-Str. 3","school_type_entity":"Grundschule","school_type":"Grundschule","phone_number":"+49 9721 51949","old_slug":"97424-albert-schweitzer-schule","official_id":"7523","name":"Albert-Schweitzer-Volksschule Schweinfurt","lon":10.201932,"lat":50.039521,"homepage_url":"http://www.ass-sw.net","federal_state_code":"BY","fax_number":"+49 9721 51947","email_address":"albert.schweitzer.schule@web.de","city":"Schweinfurt"},{"zip_code":"97422","street":"Deutschhöfer Str. 22","school_type_entity":"Grundschule","school_type":"Grundschule","phone_number":"+49 9721 51882","old_slug":null,"official_id":"7535","name":"Schiller-Volksschule Schweinfurt","lon":10.231648,"lat":50.053331,"homepage_url":null,"federal_state_code":"BY","fax_number":"+49 9721 51879","email_address":null,"city":"Schweinfurt"},{"zip_code":"97422","street":"Kerschensteinerstr. 2","school_type_entity":"Grundschule","school_type":"Grundschule","phone_number":"+49 9721 51962","old_slug":null,"official_id":"7533","name":"Kerschensteiner-Volksschule Schweinfurt","lon":10.244145,"lat":50.059935,"homepage_url":null,"federal_state_code":"BY","fax_number":"+49 9721 51960","email_address":null,"city":"Schweinfurt"},{"zip_code":"97421","street":"Gorch-Fock-Str. 1 a","school_type_entity":"Grundschule","school_type":"Grundschule","phone_number":"+49 9721 85000","old_slug":null,"official_id":"7668","name":"Priv. Montessori-Volksschule","lon":10.219176,"lat":50.052245,"homepage_url":null,"federal_state_code":"BY","fax_number":"+49 9721 84073","email_address":null,"city":"Schweinfurt"},{"zip_code":"97421","street":"Körnerstr. 1","school_type_entity":"Grundschule","school_type":"Grundschule","phone_number":"+49 9721 51368","old_slug":null,"official_id":"7532","name":"Körner-Volksschule Schweinfurt","lon":10.220793,"lat":50.046907,"homepage_url":null,"federal_state_code":"BY","fax_number":"+49 9721 51368","email_address":null,"city":"Schweinfurt"},{"zip_code":"97421","street":"Friedhofstr. 35","school_type_entity":"Grundschule","school_type":"Grundschule","phone_number":"+49 9721 51973","old_slug":null,"official_id":"7526","name":"Auen-Volksschule Schweinfurt","lon":10.223852,"lat":50.050699,"homepage_url":null,"federal_state_code":"BY","fax_number":"+49 9721 51970","email_address":null,"city":"Schweinfurt"},{"zip_code":"97359","street":"Schulstr. 2","school_type_entity":"Grundschule","school_type":"Grundschule","phone_number":"+49 9324 762","old_slug":null,"official_id":"7780","name":"Volksschule Schwarzacher Becken Schwarzach a.Main","lon":8.995912,"lat":49.381659,"homepage_url":null,"federal_state_code":"BY","fax_number":"+49 9324 3518","email_address":null,"city":"Schwarzach Münsterschwarzach"},