[{"zip_code":"53474","street":"St. Piusstr. 23","school_type_entity":"Förderschule","school_type":"Förderschule","phone_number":"+49 2641 34778","old_slug":"53474-don-bosco-schule-bad-neuenahr-ahrw-schule-mit-den-foerderschwerpunkten-lernen-und-sprache","official_id":"31327","name":"Don-Bosco-Schule","lon":7.117009,"lat":50.542244,"homepage_url":"http://donbosco-aw.de","federal_state_code":"RP","fax_number":"+49 2641 359492","email_address":"don-bosco-schule-aw@gmx.de","city":"Bad Neuenahr-Ahrweiler Stadt"},{"zip_code":"53474","street":"St. Pius-Str. 25","school_type_entity":"Förderschule","school_type":"Förderschule","phone_number":"+49 2641 36611","old_slug":"53474-levana-schule-fsp-ganzheitl-entwicklung-foerderschule","official_id":"31687","name":"Levana-Schule","lon":7.117605,"lat":50.542287,"homepage_url":"http://www.levana-aw.de","federal_state_code":"RP","fax_number":"+49 2641 900899","email_address":"rektor@levana-aw.de","city":"Bad Neuenahr-Ahrweiler Stadt"},{"zip_code":"56659","street":"Burgweg 6","school_type_entity":"Förderschule","school_type":"Förderschule","phone_number":"+49 2636 929590","old_slug":"56659-burgweg-schule-fsp-lernen-foerderschule","official_id":"30622","name":"Burgweg-Schule","lon":7.273487,"lat":50.456382,"homepage_url":"http://www.burgweg-schule.de","federal_state_code":"RP","fax_number":"+49 2636 929592","email_address":"post@burgweg-schule.de","city":"Burgbrohl"},{"zip_code":"53489","street":"Beethovenstr. 3","school_type_entity":"Förderschule","school_type":"Förderschule","phone_number":"+49 2642 9790","old_slug":"53489-janusz-korczak-schule-fsp-lernen-foerderschule","official_id":"30605","name":"Janusz-Korczak-Schule","lon":7.254255,"lat":50.54674,"homepage_url":"http://jks-sinzig.de","federal_state_code":"RP","fax_number":"+49 2642 9790","email_address":"info@jks-sinzig.de","city":"Sinzig"},{"zip_code":"57584","street":"Maximilian-Kolbe-Str. 1","school_type_entity":"Förderschule","school_type":"Förderschule","phone_number":"+49 2741 22391","old_slug":"57584-maximilian-kolbe-schule-fsp-lernen-foerderschule","official_id":"31344","name":"Maximilian-Kolbe-Schule","lon":7.84653,"lat":50.786605,"homepage_url":"http://maxkolbeschule-scheuerfeld.de","federal_state_code":"RP","fax_number":"+49 2741 971892","email_address":"max.kolbe@rz-online.de","city":"Scheuerfeld"},{"zip_code":"57537","street":"Holschbacher Str. 87","school_type_entity":"Förderschule","school_type":"Förderschule","phone_number":"+49 2742 3642","old_slug":"57537-foerderschule-am-alserberg-mit-den-foerderschwerpunkten-ganzheitliche-und-motorische-entwicklung-wissen","official_id":"31224","name":"Förderschule am Alserberg","lon":7.720588,"lat":50.788676,"homepage_url":"http://www.sfgwissen.de","federal_state_code":"RP","fax_number":"+49 2742 ","email_address":"schulleitung@sfgwissen.de","city":"Wissen"},{"zip_code":"57537","street":"Böhmer-Str. 14","school_type_entity":"Förderschule","school_type":"Förderschule","phone_number":"+49 2742 910703","old_slug":"57537-wilhelm-busch-schule-fsp-lernen-foerderschule","official_id":"31357","name":"Wilhelm-Busch-Schule","lon":7.734543,"lat":50.778096,"homepage_url":null,"federal_state_code":"RP","fax_number":"+49 2742 910704","email_address":"wbschule@web.de","city":"Wissen"},{"zip_code":"55232","street":"Kirchenplatz 6a","school_type_entity":"Förderschule","school_type":"Förderschule","phone_number":"+49 6731 990950","old_slug":"55232-loewenschule-foerderschule","official_id":"31270","name":"Löwenschule Alzey","lon":8.113122,"lat":49.743913,"homepage_url":"http://www.loewenschule-alzey.de","federal_state_code":"RP","fax_number":"+49 6731 ","email_address":"info@loewenschule-alzey.de","city":"Alzey"},{"zip_code":"55232","street":"Dr.-Georg-Durst-Str. 30","school_type_entity":"Förderschule","school_type":"Förderschule","phone_number":"+49 6731 7168","old_slug":"55232-volkerschule-fsp-lernen-foerderschule","official_id":"31447","name":"Volkerschule","lon":8.120824,"lat":49.740377,"homepage_url":"http://www.volkerschule.de","federal_state_code":"RP","fax_number":"+49 6731 943341","email_address":"info@volkerschule.de","city":"Alzey"},{"zip_code":"67574","street":"Heinrich-Heine-Str. 13","school_type_entity":"Förderschule","school_type":"Förderschule","phone_number":"+49 6242 7997","old_slug":"67574-wonnegauschule-fsp-lernen-foerderschule","official_id":"31673","name":"Wonnegauschule","lon":8.321824,"lat":49.700112,"homepage_url":"http://www.wonnegauschule.de","federal_state_code":"RP","fax_number":"+49 6242 990910","email_address":"info@wonnegauschule.,de","city":"Osthofen"},{"zip_code":"67317","street":"Schloßmühle","school_type_entity":"Förderschule","school_type":"Förderschule","phone_number":"+49 6356 963670","old_slug":"67317-heimschule-st-rafael-fsp-sozial-emotionale-entwicklung-foerderschule","official_id":"30289","name":"Heimschule St. Rafael","lon":8.084908,"lat":49.511269,"homepage_url":"http://jugendhilfe-st-rafael.de","federal_state_code":"RP","fax_number":"+49 6356 963625","email_address":"schule.st.rafael@gmx.de","city":"Altleiningen"},{"zip_code":"67098","street":"Sägmühle 4","school_type_entity":"Förderschule","school_type":"Förderschule","phone_number":"+49 6322 938290","old_slug":"67098-siegmund-craemer-schule-fsp-ganzheitl-entwicklung-foerderschule","official_id":"30335","name":"Siegmund-Crämer-Schule","lon":8.178914,"lat":49.468377,"homepage_url":null,"federal_state_code":"RP","fax_number":"+49 6322 938292","email_address":"siegmundcraemerschule@t-online.de","city":"Bad Dürkheim"},{"zip_code":"67098","street":"Friedelsheimerstr. 18","school_type_entity":"Förderschule","school_type":"Förderschule","phone_number":"+49 6322 947272","old_slug":"67098-limburgschule-fsp-lernen-foerderschule","official_id":"31014","name":"Limburgschule","lon":8.175489,"lat":49.456025,"homepage_url":"http://www.limburgschule.de","federal_state_code":"RP","fax_number":"+49 6322 947299","email_address":"limburgschule@t-online.de","city":"Bad Dürkheim"},{"zip_code":"67269","street":"Westring 62","school_type_entity":"Förderschule","school_type":"Förderschule","phone_number":"+49 6359 2777","old_slug":"67269-hans-zulliger-schule-fsp-ganzheitl-entwicklung-foerderschule","official_id":"30515","name":"Hans-Zulliger-Schule","lon":8.158989,"lat":49.566171,"homepage_url":null,"federal_state_code":"RP","fax_number":"+49 6359 92217","email_address":"hanszulliger-schule-v@t-online.de","city":"Grünstadt"},{"zip_code":"67269","street":"Jahnstr. 2","school_type_entity":"Förderschule","school_type":"Förderschule","phone_number":"+49 6359 96840","old_slug":"67269-kaethe-kollwitz-schule-fsp-lernen-foerderschule","official_id":"31464","name":"Käthe-Kollwitz-Schule","lon":8.163568,"lat":49.572089,"homepage_url":"http://kks-gruenstadt.de","federal_state_code":"RP","fax_number":"+49 6359 968415","email_address":"k-kollwitz-schule@gmx.de","city":"Grünstadt"},{"zip_code":"67454","street":"Meckenheimer Str. 10","school_type_entity":"Förderschule","school_type":"Förderschule","phone_number":"+49 6324 2121","old_slug":"67454-gottlieb-wenz-schule-fsp-lernen-foerderschule","official_id":"31027","name":"Gottlieb-Wenz-Schule","lon":8.253695,"lat":49.37298,"homepage_url":"http://www.gottlieb-wenz-schule.de","federal_state_code":"RP","fax_number":"+49 6324 82336","email_address":"gottliebwenzschule@t-online.de","city":"Haßloch"},{"zip_code":"55543","street":"Waldemarstr. 26","school_type_entity":"Förderschule","school_type":"Förderschule","phone_number":"+49 671 6053352","old_slug":"55543-bethesda-schule-kreuznacher-diakon-fsp-motorische-entwicklung-foerderschule","official_id":"30109","name":"Bethesda Schule","lon":7.866296,"lat":49.836574,"homepage_url":null,"federal_state_code":"RP","fax_number":"+49 671 6053552","email_address":"bes@kreuznacherdiakonie.de","city":"Bad Kreuznach"},{"zip_code":"55545","street":"Ellerbachstr. 17","school_type_entity":"Förderschule","school_type":"Förderschule","phone_number":"+49 671 2984450","old_slug":"55545-schule-am-ellerbach-fsp-lernen-foerderschule","official_id":"30649","name":"Schule am Ellerbach","lon":7.842974,"lat":49.846238,"homepage_url":"http://www.ellerbachschule.de","federal_state_code":"RP","fax_number":"+49 671 29844528","email_address":"ellerbachschule@t-online.de","city":"Bad Kreuznach"},{"zip_code":"55545","street":"Ellerbachstr.","school_type_entity":"Förderschule","school_type":"Förderschule","phone_number":"+49 671 32211","old_slug":"55545-don-bosco-schule-fsp-ganzheitl-entwicklung-foerderschule","official_id":"31690","name":"Don-Bosco-Schule","lon":7.844548,"lat":49.8467122,"homepage_url":"http://www.don-bosco-schule.de","federal_state_code":"RP","fax_number":"+49 671 4832266","email_address":"sfgbadkreuznach@googlemail.com","city":"Bad Kreuznach"},{"zip_code":"55606","street":"Berliner Platz 1","school_type_entity":"Förderschule","school_type":"Förderschule","phone_number":"+49 6752 2046","old_slug":"55606-wilhelm-droescher-schule-fsp-lernen-foerderschule","official_id":"30652","name":"Wilhelm-Dröscher-Schule","lon":7.476871,"lat":49.784875,"homepage_url":null,"federal_state_code":"RP","fax_number":"+49 6752 963228","email_address":"info@wds-kirn.de","city":"Kirn"},{"zip_code":"55590","street":"Talweg 16","school_type_entity":"Förderschule","school_type":"Förderschule","phone_number":"+49 6753 10298","old_slug":"55590-bodelschwingh-schule-kreuzn-diakon-fspe-ganzheitl-und-motorische-entwicklung-foerderschule","official_id":"30082","name":"Bodelschwingh Schule","lon":7.665068,"lat":49.697204,"homepage_url":"http://www.kreuznacherdiakonie.de/bodels","federal_state_code":"RP","fax_number":"+49 6753 10299","email_address":"bos-meisenheim@kreuznacherdiakonie.de","city":"Meisenheim"},{"zip_code":"55596","street":"Schulstr. 2","school_type_entity":"Förderschule","school_type":"Förderschule","phone_number":"+49 6758 1345","old_slug":"55596-burgschule-fsp-lernen-foerderschule","official_id":"30665","name":"Burgschule","lon":7.719029,"lat":49.815093,"homepage_url":"http://burgschule.info","federal_state_code":"RP","fax_number":"+49 6758 804350","email_address":"burgschule.s@web.de","city":"Schloßböckelheim"},{"zip_code":"54470","street":"In der Bornwiese","school_type_entity":"Förderschule","school_type":"Förderschule","phone_number":"+49 6531 3939","old_slug":"54470-burg-landshut-schule-sfl-foerderschule","official_id":"30889","name":"Burg-Landshut-Schule","lon":7.06944,"lat":49.91611,"homepage_url":"http://www.burg-landshut-schule.de","federal_state_code":"RP","fax_number":"+49 6531 94720","email_address":"schulleitung@bls-bks.de","city":"Bernkastel-Kues"},{"zip_code":"54470","street":"Am Rosenberg 32","school_type_entity":"Förderschule","school_type":"Förderschule","phone_number":"+49 6531 9719210","old_slug":"54470-rosenberg-schule-sfg-foerderschule","official_id":"31627","name":"Rosenberg-Schule","lon":7.05819,"lat":49.919732,"homepage_url":"http://www.Rosenberg-Schule.de","federal_state_code":"RP","fax_number":"+49 6531 9719219","email_address":"info@rosenberg-schule.de","city":"Bernkastel-Kues"},{"zip_code":"56841","street":"Maiweg 140","school_type_entity":"Förderschule","school_type":"Förderschule","phone_number":"+49 6541 816730","old_slug":"56841-martin-luther-king-schule-sfe-foerderschule","official_id":"31210","name":"Martin-Luther-King-Schule","lon":7.101418,"lat":49.971313,"homepage_url":null,"federal_state_code":"RP","fax_number":"+49 6541 816731","email_address":"info@e-schule-mlk.de","city":"Traben-Trarbach"},{"zip_code":"54516","street":"Franziskusstr.","school_type_entity":"Förderschule","school_type":"Förderschule","phone_number":"+49 6571 695302","old_slug":"54516-maria-gruenewald-schule-sfg-m-foerderschule","official_id":"30305","name":"Maria-Grünewald-Schule","lon":6.88972,"lat":49.98694,"homepage_url":null,"federal_state_code":"RP","fax_number":"+49 6571 695300","email_address":"foerderschule.maria-gruenewald@srcab.de","city":"Wittlich"},{"zip_code":"54516","street":"Petrusstr. 28","school_type_entity":"Förderschule","school_type":"Förderschule","phone_number":"+49 6571 91570","old_slug":"54516-liesertal-schule-sfl-s-foerderschule","official_id":"30893","name":"Liesertal-Schule","lon":6.932112,"lat":49.975154,"homepage_url":null,"federal_state_code":"RP","fax_number":"+49 6571 915720","email_address":"verwaltung@liesertal-schule.de","city":"Wittlich"},{"zip_code":"55765","street":"Brechkaul","school_type_entity":"Förderschule","school_type":"Förderschule","phone_number":"+49 6782 2188","old_slug":null,"official_id":"30683","name":"Förderschule","lon":7.173579,"lat":49.646273,"homepage_url":null,"federal_state_code":"RP","fax_number":"+49 6782 988221","email_address":null,"city":"Birkenfeld"},{"zip_code":"55743","street":"Auf Weißborr 15","school_type_entity":"Förderschule","school_type":"Förderschule","phone_number":"+49 6781 27842","old_slug":"55743-peter-caesar-schule-sfg-m-foerderschule","official_id":"30395","name":"Peter-Caesar-Schule","lon":7.320909,"lat":49.720512,"homepage_url":"http://www.Peter-Caesar-Schule.de","federal_state_code":"RP","fax_number":"+49 6781 450362","email_address":"peter_caesar_schule@hotmail.com","city":"Idar-Oberstein"},{"zip_code":"55743","street":"Auf der Bein 7","school_type_entity":"Förderschule","school_type":"Förderschule","phone_number":"+49 6784 8915","old_slug":null,"official_id":"31360","name":"Förderschule","lon":7.389442,"lat":49.718755,"homepage_url":null,"federal_state_code":"RP","fax_number":"+49 6784 981289","email_address":null,"city":"Idar-Oberstein"},{"zip_code":"55743","street":"Auf der Bein 7","school_type_entity":"Förderschule","school_type":"Förderschule","phone_number":"+49 6784 2372","old_slug":null,"official_id":"31870","name":"Förderschule","lon":7.389442,"lat":49.718755,"homepage_url":null,"federal_state_code":"RP","fax_number":"+49 6784 981289","email_address":null,"city":"Idar-Oberstein"},{"zip_code":"56812","street":"Hauptstr.","school_type_entity":"Förderschule","school_type":"Förderschule","phone_number":"+49 2671 987110","old_slug":"56812-astrid-lindgren-schule-sfg-m-foerderschule","official_id":"30382","name":"Astrid-Lindgren-Schule","lon":7.1225976,"lat":50.1307399,"homepage_url":"http://www.als-dohr.de","federal_state_code":"RP","fax_number":"+49 2671 987150","email_address":"info@als-dohr.de","city":"Dohr"},{"zip_code":"56761","street":"St. Martin-Str. 33","school_type_entity":"Förderschule","school_type":"Förderschule","phone_number":"+49 2653 598190","old_slug":"56761-st-martin-heimschule-fspe-ganzheitl-und-motorische-entwicklung-foerderschule","official_id":"31704","name":"St. Martin-Heimschule","lon":7.153014,"lat":50.265403,"homepage_url":"http://www.foerderschule.stmartin-dku.de","federal_state_code":"RP","fax_number":"+49 2653 598281","email_address":"foerderschule@stmartin-dku.de","city":"Düngenheim"},{"zip_code":"56759","street":"Im Haag","school_type_entity":"Förderschule","school_type":"Förderschule","phone_number":"+49 2653 6631","old_slug":"56759-pommerbachschule-sfl-foerderschule","official_id":"30709","name":"Pommerbachschule","lon":7.1398609,"lat":50.2328441,"homepage_url":"http://www.pommerbachschule.de","federal_state_code":"RP","fax_number":"+49 2653 7682","email_address":"buero@pommerbachschule.de","city":"Kaisersesch"},{"zip_code":"67292","street":"Dannenfelser Str. 29","school_type_entity":"Förderschule","school_type":"Förderschule","phone_number":"+49 6352 1262","old_slug":"67292-mathilde-hitzfeld-schule-fsp-lernen-u-sprache-foerderschule","official_id":"31030","name":"Mathilde-Hitzfeld-Schule","lon":8.011729,"lat":49.65991,"homepage_url":"http://www.mathilde-hitzfeld-schule.de","federal_state_code":"RP","fax_number":"+49 6352 740235","email_address":"mhs-kibo@t-online.de","city":"Kirchheimbolanden"},{"zip_code":"67292","street":"Schillerhain","school_type_entity":"Förderschule","school_type":"Förderschule","phone_number":"+49 6352 408112","old_slug":"67292-herman-nohl-schule-fsp-sozial-emotionale-entwicklung-foerderschule","official_id":"31747","name":"Herman-Nohl-Schule","lon":8.004284,"lat":49.661027,"homepage_url":null,"federal_state_code":"RP","fax_number":"+49 6352 408114","email_address":"herman-nohl-schule@evh-pfalz.de","city":"Kirchheimbolanden"},{"zip_code":"67806","street":"Mühlackerweg 25a","school_type_entity":"Förderschule","school_type":"Förderschule","phone_number":"+49 6361 5562","old_slug":"67806-schule-am-donnersberg-foerderschule","official_id":"31057","name":"Förderschule","lon":7.822076,"lat":49.624818,"homepage_url":"http://schuleamdonnersberg.de","federal_state_code":"RP","fax_number":"+49 6361 994870","email_address":"schuleamdonnersberg@web.de","city":"Rockenhausen"},{"zip_code":"54634","street":"Kölner Str. 14","school_type_entity":"Förderschule","school_type":"Förderschule","phone_number":"+49 6561 96140","old_slug":"54634-st-martin-schule-sfg-foerderschule","official_id":"30469","name":"St. Martin-Schule","lon":6.525014,"lat":49.978015,"homepage_url":"http://www.martin-schule.de","federal_state_code":"RP","fax_number":"+49 6561 961420","email_address":"info@martin-schule.de","city":"Bitburg"},{"zip_code":"54634","street":"Nansenstr. 25","school_type_entity":"Förderschule","school_type":"Förderschule","phone_number":"+49 6561 94478","old_slug":"54634-maximin-schule-sfl-foerderschule","official_id":"31390","name":"Maximin-Schule","lon":6.539476,"lat":49.976171,"homepage_url":"http://www.maximin-schule.de","federal_state_code":"RP","fax_number":"+49 6561 94478","email_address":"schule@maximin-schule.de","city":"Bitburg"},{"zip_code":"54595","street":"Kolpingstr. 30","school_type_entity":"Förderschule","school_type":"Förderschule","phone_number":"+49 6551 9516","old_slug":"54595-astrid-lindgren-schule-sfl-g-s-foerderschule","official_id":"31927","name":"Astrid-Lindgren-Schule","lon":6.412804,"lat":50.20517,"homepage_url":"http://www.astrid-lindgren-schule-pruem.de","federal_state_code":"RP","fax_number":"+49 6551 9516","email_address":"info@astrid-lindgren-schule-pruem.de","city":"Prüm"},{"zip_code":"67227","street":"Holzhofstr. 21","school_type_entity":"Förderschule","school_type":"Förderschule","phone_number":"+49 6233 49090","old_slug":null,"official_id":"30019","name":"Augustin-Violet-Schule","lon":8.35673,"lat":49.53156,"homepage_url":null,"federal_state_code":"RP","fax_number":"+49 6233 4909200","email_address":null,"city":"Frankenthal (Pfalz)"},{"zip_code":"67227","street":"Wormser Str. 59","school_type_entity":"Förderschule","school_type":"Förderschule","phone_number":"+49 6233 220439","old_slug":"67227-albert-schweitzer-schule-fsp-lernen-foerderschule","official_id":"30948","name":"Albert-Schweitzer-Schule","lon":8.353486,"lat":49.540529,"homepage_url":null,"federal_state_code":"RP","fax_number":"+49 6233 220443","email_address":"albertschweitzersfl@web.de","city":"Frankenthal (Pfalz)"},{"zip_code":"67227","street":"Neumayerring 1","school_type_entity":"Förderschule","school_type":"Förderschule","phone_number":"+49 6233 298484","old_slug":"67227-tom-mutters-schule-fsp-ganzheitl-entwicklung-foerderschule","official_id":"31644","name":"Tom-Mutters-Schule","lon":8.353693,"lat":49.531416,"homepage_url":null,"federal_state_code":"RP","fax_number":"+49 6233 298485","email_address":"tommuttersschuleft@web.de","city":"Frankenthal (Pfalz)"},{"zip_code":"67227","street":"Neumayerring 7","school_type_entity":"Förderschule","school_type":"Förderschule","phone_number":"+49 6233 21070","old_slug":"67227-neumayer-schule-fsp-sprache-foerderschule","official_id":"31810","name":"Neumayer-Schule","lon":8.352058,"lat":49.531935,"homepage_url":"http://neumayerschule.de","federal_state_code":"RP","fax_number":"+49 6233 239206","email_address":"verwaltung@neumayerschule.de","city":"Frankenthal (Pfalz)"},{"zip_code":"76726","street":"Am Römerweg 2a","school_type_entity":"Förderschule","school_type":"Förderschule","phone_number":"+49 7274 3095","old_slug":"76726-nardini-schule-fsp-lernen-foerderschule","official_id":"31943","name":"Nardini-/Bienwald Schule","lon":8.36667,"lat":49.21667,"homepage_url":"http://www.nardinischule.de","federal_state_code":"RP","fax_number":"+49 7274 3096","email_address":"nardinischule.germersheim@t-online.de","city":"Germersheim"},{"zip_code":"76761","street":"Schulstr. 16","school_type_entity":"Förderschule","school_type":"Förderschule","phone_number":"+49 7272 6413","old_slug":"76761-schule-mit-dem-fsp-sprache-foerderschule","official_id":"31600","name":"Förderschule","lon":8.287198,"lat":49.148742,"homepage_url":"http://www.sfs-ruelzheim.de","federal_state_code":"RP","fax_number":"+49 7272 919050","email_address":"info@sfs-ruelzheim.de","city":"Rülzheim"},{"zip_code":"67657","street":"Velmannstr. 13","school_type_entity":"Förderschule","school_type":"Förderschule","phone_number":"+49 631 3402552","old_slug":"67657-schule-am-beilstein-fspe-ganzheitl-entwicklung-und-sprache-foerderschule","official_id":"30485","name":"Schule am Beilstein","lon":7.814437,"lat":49.438329,"homepage_url":null,"federal_state_code":"RP","fax_number":"+49 631 3402553","email_address":"schuleambeilstein@kaiserslautern.de","city":"Kaiserslautern"},{"zip_code":"67663","street":"Erfurter Str. 68 - 70","school_type_entity":"Förderschule","school_type":"Förderschule","phone_number":"+49 631 3505823","old_slug":"67663-fritz-walter-schule-fsp-lernen-foerderschule","official_id":"31417","name":"Fritz-Walter-Schule","lon":7.728154,"lat":49.430368,"homepage_url":null,"federal_state_code":"RP","fax_number":"+49 631 3505824","email_address":"fritz-walter-schule@live.de","city":"Kaiserslautern"},{"zip_code":"67677","street":"Neukircher Str. 4","school_type_entity":"Förderschule","school_type":"Förderschule","phone_number":"+49 6303 983443","old_slug":"67677-hans-zulliger-schule-fsp-lernen-foerderschule","official_id":"31480","name":"Hans-Zulliger-Schule","lon":7.894983,"lat":49.488065,"homepage_url":null,"federal_state_code":"RP","fax_number":"+49 6303 983445","email_address":"hzs-enkenbach@t-online.de","city":"Enkenbach-Alsenborn"},{"zip_code":"66849","street":"Am Rothenborn","school_type_entity":"Förderschule","school_type":"Förderschule","phone_number":"+49 6371 934263","old_slug":"66849-schule-mit-dem-fsp-motorische-entwicklung-foerderschule","official_id":"30575","name":"Förderschule","lon":7.58046,"lat":49.41476,"homepage_url":"http://www.reha-westpfalz.de/rw/397.html","federal_state_code":"RP","fax_number":"+49 6371 934280","email_address":"schule@reha-westpfalz.de","city":"Landstuhl Sickingenstadt"},{"zip_code":"66849","street":"Neugasse 2","school_type_entity":"Förderschule","school_type":"Förderschule","phone_number":"+49 6371 618160","old_slug":"66849-jakob-weber-schule-fsp-lernen-foerderschule","official_id":"31087","name":"Jakob-Weber-Schule","lon":7.58046,"lat":49.41476,"homepage_url":null,"federal_state_code":"RP","fax_number":"+49 6371 6181613","email_address":"jakob-weber-schule@web.de","city":"Landstuhl Sickingenstadt"},{"zip_code":"56077","street":"Lehrhohl 44","school_type_entity":"Förderschule","school_type":"Förderschule","phone_number":"+49 261 79851","old_slug":"56077-schule-am-bienhorntal-schule-mit-dem-foerderschwerpunkt-ganzheitliche-entwicklung","official_id":"30409","name":"Schule am Bienhorntal","lon":7.615849,"lat":50.346214,"homepage_url":null,"federal_state_code":"RP","fax_number":"+49 261 79858","email_address":"schule-am-bienhorntal@t-online.de","city":"Koblenz"},{"zip_code":"56070","street":"Brenderweg 23","school_type_entity":"Förderschule","school_type":"Förderschule","phone_number":"+49 261 ","old_slug":"56070-hans-zulliger-schule-fsp-lernen-foerderschule","official_id":"30593","name":"Hans-Zulliger-Schule","lon":7.597288,"lat":50.367531,"homepage_url":null,"federal_state_code":"RP","fax_number":"+49 261 ","email_address":"hans-zulliger-schule@web.de","city":"Koblenz"},{"zip_code":"56068","street":"Kastorpfaffenstr. 9-11","school_type_entity":"Förderschule","school_type":"Förderschule","phone_number":"+49 261 34160","old_slug":"56068-diesterweg-schule-sfl-und-sfe-foerderschule","official_id":"31300","name":"Diesterweg-Schule","lon":7.602032,"lat":50.360512,"homepage_url":"http://www.diesterweg-schule.de","federal_state_code":"RP","fax_number":"+49 261 91469055","email_address":"diesterweg-schule@gmx.de","city":"Koblenz"},{"zip_code":"66869","street":"Hollerstr. 4","school_type_entity":"Förderschule","school_type":"Förderschule","phone_number":"+49 6381 42864200","old_slug":"66869-jakob-muth-schule-sfg-foerderschule","official_id":"30532","name":"Jakob-Muth-Schule","lon":7.412117,"lat":49.536838,"homepage_url":"http://www.jakobmuthschule.de","federal_state_code":"RP","fax_number":"+49 6381 42864222","email_address":"buerojms@web.de","city":"Kusel"},{"zip_code":"66869","street":"Hollerstr. 2","school_type_entity":"Förderschule","school_type":"Förderschule","phone_number":"+49 6381 42864","old_slug":"66869-jakob-muth-schule-sfl-s-foerderschule","official_id":"31090","name":"Jakob-Muth-Schule","lon":7.411297,"lat":49.536583,"homepage_url":null,"federal_state_code":"RP","fax_number":"+49 6381 42864","email_address":"sekretariat@jakob-muth-schule.de","city":"Kusel"},{"zip_code":"67742","street":"Schulstr. 14","school_type_entity":"Förderschule","school_type":"Förderschule","phone_number":"+49 6382 993689","old_slug":"67742-janusz-korczak-schule-sfl-foerderschule","official_id":"31720","name":"Janusz-Korczak-Schule","lon":7.593628,"lat":49.651706,"homepage_url":"http://www.korczak-Schule-Lauterecken.de","federal_state_code":"RP","fax_number":"+49 6382 993723","email_address":"korczak-schule-lauterecken@t-online.de","city":"Lauterecken"},{"zip_code":"76829","street":"Queichheimer Hauptstr. 231","school_type_entity":"Förderschule","school_type":"Förderschule","phone_number":"+49 6341 9841300","old_slug":"76829-jakob-reeb-schule-fsp-sozial-emotionale-entwicklung-foerderschule","official_id":"30095","name":"Jakob-Reeb-Schule","lon":8.154251,"lat":49.197092,"homepage_url":"http://www.jugendwerk-landau.de","federal_state_code":"RP","fax_number":"+49 6341 9844303","email_address":"sonja.schneider@jugendwerk-st-josef.de","city":"Landau in der Pfalz"},{"zip_code":"76829","street":"Queichheimer Hauptstr. 235","school_type_entity":"Förderschule","school_type":"Förderschule","phone_number":"+49 6341 599441","old_slug":"76829-caritas-foerderzentrum-st-laurentius-und-paulus-schule-mit-dem-foerderschwerpunkt-motorische-entwicklung","official_id":"30562","name":"St. Paulusstift","lon":8.155826,"lat":49.19694,"homepage_url":"http://förderschule-landau.de","federal_state_code":"RP","fax_number":"+49 6341 599463","email_address":"stephanie.daut@caritas-speyer.de","city":"Landau in der Pfalz"},{"zip_code":"76829","street":"Nordring 4","school_type_entity":"Förderschule","school_type":"Förderschule","phone_number":"+49 6341 83102","old_slug":"76829-nordringschule-fsp-lernen-foerderschule","official_id":"30953","name":"Nordringschule","lon":8.109119,"lat":49.200655,"homepage_url":null,"federal_state_code":"RP","fax_number":"+49 6341 898005","email_address":"nordringschule-landau@web.de","city":"Landau in der Pfalz"},{"zip_code":"76829","street":"Münchener Str. 11","school_type_entity":"Förderschule","school_type":"Förderschule","phone_number":"+49 6341 50324","old_slug":"76829-paul-moor-schule-fsp-ganzheitl-entwicklung-foerderschule","official_id":"31807","name":"Paul-Moor-Schule","lon":8.142138,"lat":49.204963,"homepage_url":"http://www.paulmoor-schule.de","federal_state_code":"RP","fax_number":"+49 6341 5","email_address":"sekretariat@paulmoor-schule.de","city":"Landau in der Pfalz"},{"zip_code":"67071","street":"Rheinhorststr. 34/36","school_type_entity":"Förderschule","school_type":"Förderschule","phone_number":"+49 621 504401210","old_slug":"67071-georgens-schule-fsp-ganzheitl-entwicklung-foerderschule","official_id":"30052","name":"Georgens-Schule","lon":8.37157,"lat":49.503295,"homepage_url":"http://www.georgens-schule.de","federal_state_code":"RP","fax_number":"+49 621 504401298","email_address":"schulleitung@georgens-schule.de","city":"Ludwigshafen am Rhein"},{"zip_code":"67065","street":"Rheingönheimer Str. 103","school_type_entity":"Förderschule","school_type":"Förderschule","phone_number":"+49 621 504423920","old_slug":"67065-schillerschule-fsp-lernen-foerderschule","official_id":"31540","name":"Schillerschule","lon":8.427233,"lat":49.459235,"homepage_url":"http://www.schillerschule.com/","federal_state_code":"RP","fax_number":"+49 621 504423997","email_address":"soschl-schiller-lumu@t-online.de","city":"Ludwigshafen am Rhein"},{"zip_code":"67071","street":"Schnabelbrunnengasse 41","school_type_entity":"Förderschule","school_type":"Förderschule","phone_number":"+49 621 504401710","old_slug":"67071-schloss-schule-oggersheim-fsp-lernen-foerderschule","official_id":"31554","name":"Schloss-Schule","lon":8.378555,"lat":49.492878,"homepage_url":null,"federal_state_code":"RP","fax_number":"+49 621 504401798","email_address":"info@sfl-schloss-lu.de","city":"Ludwigshafen am Rhein"},{"zip_code":"67059","street":"Krummlachstr. 10","school_type_entity":"Förderschule","school_type":"Förderschule","phone_number":"+49 621 504420720","old_slug":"67059-schule-an-der-blies-fsp-lernen-foerderschule","official_id":"31583","name":"Schule an der Blies","lon":8.419006,"lat":49.47506,"homepage_url":null,"federal_state_code":"RP","fax_number":"+49 621 504420797","email_address":"sfl@bliesschulen.de","city":"Ludwigshafen am Rhein"},{"zip_code":"67071","street":"Karl-Lochner-Str. 8","school_type_entity":"Förderschule","school_type":"Förderschule","phone_number":"+49 621 67005171","old_slug":"67071-mosaikschule-schule-mit-dem-foerderschwerpunkt-motorische-entwicklung-foerderschule","official_id":"31793","name":"Förderschule","lon":8.362874,"lat":49.485476,"homepage_url":null,"federal_state_code":"RP","fax_number":"+49 621 67005170","email_address":"info@mosaikschule-lu.de","city":"Ludwigshafen am Rhein"},{"zip_code":"55122","street":"An der Bruchspitze 50","school_type_entity":"Förderschule","school_type":"Förderschule","phone_number":"+49 6131 324732","old_slug":"55122-peter-jordan-schule-fsp-ganzheitl-entwicklung-foerderschule","official_id":"30245","name":"Peter-Jordan-Schule","lon":8.232295,"lat":50.005734,"homepage_url":"http://peter-jordan-schule-mainz.de","federal_state_code":"RP","fax_number":"+49 6131 324734","email_address":"schule.peter-jordan@stadt.mainz.de","city":"Mainz"},{"zip_code":"55129","street":"Generaloberst-Beck-Str. 1","school_type_entity":"Förderschule","school_type":"Förderschule","phone_number":"+49 6131 53966","old_slug":"55129-windmuehlenschule-fsp-lernen-foerderschule","official_id":"30979","name":"Windmühlenschule","lon":8.264675,"lat":49.976554,"homepage_url":null,"federal_state_code":"RP","fax_number":"+49 6131 53966","email_address":"malte.daum@stadt.mainz.de","city":"Mainz"},{"zip_code":"55122","street":"John F. Kennedy-Str. 5-7","school_type_entity":"Förderschule","school_type":"Förderschule","phone_number":"+49 6131 324726","old_slug":"55122-astrid-lindgren-schule-fsp-sprache-foerderschule","official_id":"31717","name":"Astrid-Lindgren-Schule","lon":8.24831,"lat":50.001667,"homepage_url":"http://www.astrid-lindgren-schule-mainz.de","federal_state_code":"RP","fax_number":"+49 6131 324728","email_address":" schule.astrid-lindgren@stadt.mainz.de","city":"Mainz"},{"zip_code":"55411","street":"Burgstr. 17","school_type_entity":"Förderschule","school_type":"Förderschule","phone_number":"+49 6721 408780","old_slug":"55411-rhein-nahe-schule-fsp-lernen-foerderschule","official_id":"31134","name":"Rhein-Nahe-Schule","lon":7.908751,"lat":49.951847,"homepage_url":"http://www.rhein-nahe-schule.de","federal_state_code":"RP","fax_number":"+49 6721 4087831","email_address":"info@rhein-nahe-schule.de","city":"Bingen am Rhein"},{"zip_code":"55218","street":"Talstr. 153","school_type_entity":"Förderschule","school_type":"Förderschule","phone_number":"+49 6132 4354710","old_slug":"55218-albert-schweitzer-schule-fsp-lernen-foerderschule","official_id":"31147","name":"Albert-Schweitzer-Schule","lon":8.023674,"lat":49.986862,"homepage_url":"http://www.assingelheim.de","federal_state_code":"RP","fax_number":"+49 6132 4354711","email_address":"ass.ingelheim@t-online.de","city":"Ingelheim am Rhein"},{"zip_code":"55268","street":"Oppenheimer Str. 69","school_type_entity":"Förderschule","school_type":"Förderschule","phone_number":"+49 6136 2395","old_slug":"55268-selztalschule-fsp-lernen-foerderschule","official_id":"31150","name":"Selztalschule","lon":8.201051,"lat":49.901972,"homepage_url":"http://selztalschule.de","federal_state_code":"RP","fax_number":"+49 6136 924365","email_address":"info@selztalschule-no.de","city":"Nieder-Olm"},{"zip_code":"55268","street":"Maria-Montessori-Str. 2","school_type_entity":"Förderschule","school_type":"Förderschule","phone_number":"+49 6136 75890","old_slug":"55268-schule-mit-dem-fsp-motorische-entwicklung-foerderschule","official_id":"31314","name":"Förderschule","lon":8.194667,"lat":49.902521,"homepage_url":null,"federal_state_code":"RP","fax_number":"+49 6136 758920","email_address":"info@sfm-nieder-olm.de","city":"Nieder-Olm"},{"zip_code":"55276","street":"Am Stadtbad 24","school_type_entity":"Förderschule","school_type":"Förderschule","phone_number":"+49 6133 92430","old_slug":"55276-landskronschule-fsp-lernen-foerderschule","official_id":"31164","name":"Landskronschule","lon":8.366808,"lat":49.851577,"homepage_url":"http://www.Landskronschule.de","federal_state_code":"RP","fax_number":"+49 6133 924320","email_address":"landskronschule@web.de","city":"Oppenheim"},{"zip_code":"55576","street":"Stettiner Str. 3","school_type_entity":"Förderschule","school_type":"Förderschule","phone_number":"+49 6701 200750","old_slug":"55576-elisabethen-schule-fsp-ganzheitl-entwicklung-foerderschule","official_id":"30559","name":"Elisabethen-Schule","lon":7.99531,"lat":49.861384,"homepage_url":"http://www.elisabethenschulesprendlingen.de/","federal_state_code":"RP","fax_number":"+49 6701 2007520","email_address":"kontakt@elisabethenschulesprendlingen.com","city":"Sprendlingen"},{"zip_code":"56626","street":"Taubentränke","school_type_entity":"Förderschule","school_type":"Förderschule","phone_number":"+49 2632 987470","old_slug":"56626-elisabethschule-fsp-lernen-foerderschule","official_id":"30725","name":"Elisabethschule","lon":7.409582,"lat":50.426439,"homepage_url":"http://www.esa.my-myk.de","federal_state_code":"RP","fax_number":"+49 2632 987470","email_address":"elisabeth-sfl-1@gmx.de","city":"Andernach"},{"zip_code":"56170","street":"Engerser Str. 33","school_type_entity":"Förderschule","school_type":"Förderschule","phone_number":"+49 2622 904980","old_slug":"56170-theodor-heuss-schule-fsp-lernen-foerderschule","official_id":"30768","name":"Theodor-Heuss-Schule","lon":7.57002,"lat":50.421,"homepage_url":null,"federal_state_code":"RP","fax_number":"+49 2622 904989","email_address":"theodor-heuss-schule.bendorf@rz-online.de","city":"Bendorf"},{"zip_code":"56220","street":"Ochtendunger Str. 26","school_type_entity":"Förderschule","school_type":"Förderschule","phone_number":"+49 2637 940234","old_slug":"56220-anne-frank-schule-fsp-lernen-foerderschule","official_id":"30773","name":"Anne-Frank-Schule","lon":7.456647,"lat":50.390677,"homepage_url":null,"federal_state_code":"RP","fax_number":"+49 2637 940236","email_address":"info@afs-kettig.de","city":"Kettig"},{"zip_code":"56727","street":"Genovevastr. 48","school_type_entity":"Förderschule","school_type":"Förderschule","phone_number":"+49 2651 900513","old_slug":null,"official_id":"30439","name":"Genoveva-Schule","lon":7.221681,"lat":50.323826,"homepage_url":null,"federal_state_code":"RP","fax_number":"+49 2651 900514","email_address":null,"city":"Mayen"},{"zip_code":"56727","street":"St.-Veit-Str. 3","school_type_entity":"Förderschule","school_type":"Förderschule","phone_number":"+49 2651 900516","old_slug":"56727-elisabeth-schule-fsp-lernen-foerderschule","official_id":"30742","name":"Elisabeth-Schule","lon":7.225417,"lat":50.327426,"homepage_url":null,"federal_state_code":"RP","fax_number":"+49 2651 900517","email_address":"elisabeth-schule.mayen@t-online.de","city":"Mayen"},{"zip_code":"56727","street":"Polcher Str.","school_type_entity":"Förderschule","school_type":"Förderschule","phone_number":"+49 2651 8008","old_slug":"56727-schule-im-bernardshof-fsp-sozial-emotionale-entwicklung-foerderschule","official_id":"31900","name":"Schule im Bernardshof","lon":7.231088,"lat":50.320725,"homepage_url":null,"federal_state_code":"RP","fax_number":"+49 2651 8008","email_address":"schule@jhz-bernardshof.de","city":"Mayen"},{"zip_code":"56332","street":"Markstr. 62","school_type_entity":"Förderschule","school_type":"Förderschule","phone_number":"+49 2607 69176","old_slug":"56332-herz-jesu-haus-kuehr-fspe-ganzheitl-und-motorische-entwicklung-foerderschule","official_id":"30322","name":"Herz-Jesu-Haus Kühr","lon":7.458622,"lat":50.285528,"homepage_url":null,"federal_state_code":"RP","fax_number":"+49 2607 69200","email_address":"schule@herz-jesu-haus.de","city":"Niederfell"},{"zip_code":"56751","street":"Ackerstr. 2-4","school_type_entity":"Förderschule","school_type":"Förderschule","phone_number":"+49 2654 8817750","old_slug":"56751-stephanus-schule-fsp-lernen-foerderschule","official_id":"30755","name":"Stephanus-Schule","lon":7.306471,"lat":50.302977,"homepage_url":"http://www.stephanus-schule-polch.de/","federal_state_code":"RP","fax_number":"+49 2654 88177520","email_address":"stephanus-schule@t-online.de","city":"Polch"},{"zip_code":"67433","street":"Wiesenstr. 17","school_type_entity":"Förderschule","school_type":"Förderschule","phone_number":"+49 6321 921841","old_slug":"67433-schubert-schule-fsp-lernen-foerderschule","official_id":"30983","name":"Schubert-Schule","lon":8.15,"lat":49.35,"homepage_url":"http://www.schubert-schule-nw.de","federal_state_code":"RP","fax_number":"+49 6321 921842","email_address":"schubert-schule@gmx.de","city":"Neustadt an der Weinstraße"},{"zip_code":"53567","street":"Laurentiusstraße 1","school_type_entity":"Förderschule","school_type":"Förderschule","phone_number":"+49 2683 940500","old_slug":"53567-albert-schweitzer-schule-fsp-lernen-foerderschule","official_id":"30786","name":"Albert-Schweitzer-Schule","lon":7.422558,"lat":50.666736,"homepage_url":"http://www.albert-schweitzer-schule-asbach.de","federal_state_code":"RP","fax_number":"+49 2683 94050","email_address":"ass-asbach@gmx.de","city":"Asbach"},{"zip_code":"56567","street":"Feldkircher Str. 100","school_type_entity":"Förderschule","school_type":"Förderschule","phone_number":"+49 2631 970","old_slug":null,"official_id":"30185","name":"Landesschule für Blinde","lon":7.434007,"lat":50.454266,"homepage_url":null,"federal_state_code":"RP","fax_number":"+49 2631 970180","email_address":null,"city":"Neuwied"},{"zip_code":"56564","street":"Elisabethstr. 48","school_type_entity":"Förderschule","school_type":"Förderschule","phone_number":"+49 2631 3426","old_slug":null,"official_id":"30199","name":"Landesschule für Gehörlose","lon":7.471375,"lat":50.423841,"homepage_url":null,"federal_state_code":"RP","fax_number":"+49 2631 3426","email_address":null,"city":"Neuwied"},{"zip_code":"56566","street":"Heimstr. 42","school_type_entity":"Förderschule","school_type":"Förderschule","phone_number":"+49 2631 40130","old_slug":"56566-paul-schneider-schule-fsp-sozial-emotionale-entwicklung-foerderschule","official_id":"30229","name":"Paul-Schneider-Schule","lon":7.50538,"lat":50.473274,"homepage_url":"http://www.paul-schneider-schule.net","federal_state_code":"RP","fax_number":"40137","email_address":"sekretariat@paulschneiderschule.de","city":"Neuwied"},{"zip_code":"56566","street":"Neuwieder Str. 21b","school_type_entity":"Förderschule","school_type":"Förderschule","phone_number":"+49 2622 705","old_slug":"56566-christiane-herzog-schule-fsp-motorische-entwicklung-foerderschule","official_id":"30379","name":"Christiane-Herzog-Schule","lon":7.539907,"lat":50.424821,"homepage_url":null,"federal_state_code":"RP","fax_number":"+49 2622 705125","email_address":"christiane-herzog-schule@heinrich-haus.de","city":"Neuwied"},{"zip_code":"56566","street":"Orffstr. 37","school_type_entity":"Förderschule","school_type":"Förderschule","phone_number":"+49 2622 3244","old_slug":"56566-carl-orff-schule-fsp-ganzheitl-entwicklung-foerderschule","official_id":"30442","name":"Carl-Orff-Schule","lon":7.542933,"lat":50.430407,"homepage_url":"http://www.carl-orff-schule-neuwied.de","federal_state_code":"RP","fax_number":"+49 2622 3055","email_address":"info@carl-orff-schule-neuwied.de","city":"Neuwied"},{"zip_code":"56564","street":"Beverwijker Ring 5","school_type_entity":"Förderschule","school_type":"Förderschule","phone_number":"+49 2631 96600","old_slug":"56564-kinzing-schule-fsp-lernen-foerderschule","official_id":"30802","name":"Kinzing-Schule","lon":7.474941,"lat":50.448257,"homepage_url":null,"federal_state_code":"RP","fax_number":"+49 2631 54766","email_address":"kinzing_schule@gmx.de","city":"Neuwied"},{"zip_code":"56567","street":"Schillerstr. 43","school_type_entity":"Förderschule","school_type":"Förderschule","phone_number":"+49 2631 975700","old_slug":"56567-brueder-grimm-schule-fsp-sprache-foerderschule","official_id":"31194","name":"Brüder-Grimm-Schule","lon":7.423946,"lat":50.447853,"homepage_url":"http://bgs-neuwied.de","federal_state_code":"RP","fax_number":"+49 2631 9757020","email_address":"brueder-grimm-neuwied@t-online.de","city":"Neuwied"},{"zip_code":"56316","street":"Schulstr. 2","school_type_entity":"Förderschule","school_type":"Förderschule","phone_number":"+49 2684 950600","old_slug":"56316-gustav-w-heinemann-schule-fsp-lernen-u-ganzheitliche-entwicklung","official_id":"30815","name":"Gustav-W.-Heinemann-Schule","lon":7.586127,"lat":50.562626,"homepage_url":null,"federal_state_code":"RP","fax_number":"+49 2684 9506016","email_address":"sfl.raubach@web.de","city":"Raubach"},{"zip_code":"56598","street":"Arienhellerstr. 43","school_type_entity":"Förderschule","school_type":"Förderschule","phone_number":"+49 2635 911030","old_slug":"56598-maximilian-kolbe-schule-fsp-lernen-foerderschule","official_id":"30799","name":"Maximilian-Kolbe-Schule","lon":7.327579,"lat":50.503991,"homepage_url":"http://www.maximilian-kolbe-schule.org","federal_state_code":"RP","fax_number":"+49 2635 911037","email_address":"info@maximilian-kolbe-schule.org","city":"Rheinbrohl"},{"zip_code":"66953","street":"Heinrich-Kimmle-Weg 4","school_type_entity":"Förderschule","school_type":"Förderschule","phone_number":"+49 6331 64605","old_slug":"66953-pirminiusschule-fsp-ganzheitl-entwicklung-foerderschule","official_id":"30498","name":"Pirminiusschule","lon":7.609359,"lat":49.210007,"homepage_url":"http://www.heinrichkimmlestiftung.de","federal_state_code":"RP","fax_number":"+49 6331 228688","email_address":"pirminiusschule@hk-stiftung.de","city":"Pirmasens"},{"zip_code":"66955","street":"Winzler Str. 36/40","school_type_entity":"Förderschule","school_type":"Förderschule","phone_number":"+49 6331 24050","old_slug":"66955-matzenbergschule-fsp-lernen-und-sprache-foerderschule","official_id":"31420","name":"Matzenbergschule","lon":7.602323,"lat":49.196239,"homepage_url":null,"federal_state_code":"RP","fax_number":"+49 6331 240520","email_address":"foerderschule.matzenberg@stadt-pirmasens.de","city":"Pirmasens"},{"zip_code":"56154","street":"Buchenauerstr.","school_type_entity":"Förderschule","school_type":"Förderschule","phone_number":"+49 6742 801590","old_slug":"56154-helene-pages-schule-fsp-lernen-foerderschule","official_id":"31374","name":"Helene-Pagés-Schule","lon":7.6086435,"lat":50.2131863,"homepage_url":null,"federal_state_code":"RP","fax_number":"+49 6742 8015923","email_address":"hps-boppard@web.de","city":"Boppard"},{"zip_code":"56288","street":"Theodor-Heuss-Str. 8","school_type_entity":"Förderschule","school_type":"Förderschule","phone_number":"+49 6762 8551","old_slug":"56288-theodor-heuss-schule-fspe-ganzheitl-und-motorische-entwicklung-foerderschule","official_id":"30455","name":"Theodor-Heuss-Schule","lon":7.450621,"lat":50.069919,"homepage_url":"http://www.ths-kastellaun.de","federal_state_code":"RP","fax_number":"+49 6762 ","email_address":"ths-kastellaun@t-online.de","city":"Kastellaun"},{"zip_code":"55469","street":"Herzog-Reichard-Str. 9","school_type_entity":"Förderschule","school_type":"Förderschule","phone_number":"+49 6761 91618","old_slug":"55469-hunsrueckschule-fspe-lernen-und-sozial-emotionale-entwicklung-foerderschule","official_id":"30845","name":"Hunsrückschule","lon":7.516244,"lat":49.983383,"homepage_url":null,"federal_state_code":"RP","fax_number":"+49 6761 91618","email_address":"hunsrueckschule@gmx.de","city":"Simmern/ Hunsrück"},{"zip_code":"56112","street":"Gymnasialstr. 8","school_type_entity":"Förderschule","school_type":"Förderschule","phone_number":"+49 2621 92170","old_slug":"56112-freiherr-vom-stein-schule-fsp-lernen-foerderschule","official_id":"30858","name":"Freiherr-vom-Stein-Schule","lon":7.606974,"lat":50.303047,"homepage_url":"http://www.freiherr-vom-stein-schule-lahnstein.de","federal_state_code":"RP","fax_number":"+49 2621 921720","email_address":"fsplernen@hotmail.com","city":"Lahnstein"},{"zip_code":"56355","street":"Schulstr. 18","school_type_entity":"Förderschule","school_type":"Förderschule","phone_number":"+49 6772 1707","old_slug":"56355-taunusschule-fsp-lernen-foerderschule","official_id":"30863","name":"Taunusschule","lon":7.859453,"lat":50.197028,"homepage_url":"http://www.taunus-schule.de","federal_state_code":"RP","fax_number":"+49 6772 953415","email_address":"verwaltung@taunus-schule.de","city":"Nastätten"},{"zip_code":"56379","street":"Erich Kästner-Str. 5","school_type_entity":"Förderschule","school_type":"Förderschule","phone_number":"+49 2604 9437","old_slug":"56379-erich-kaestner-schule-singhofen-sfg-und-sfm-g-foerderschule","official_id":"31780","name":"Erich Kästner-Schule","lon":7.832303,"lat":50.276558,"homepage_url":"http://www.eks-singhofen.de","federal_state_code":"RP","fax_number":"+49 2604 943715","email_address":"kaestner-schule@eks-singhofen.de","city":"Singhofen"},{"zip_code":"56379","street":"Erich-Kästner-Str. 7","school_type_entity":"Förderschule","school_type":"Förderschule","phone_number":"+49 2604 9437","old_slug":"56379-oranienschule-fsp-sprache-foerderschule","official_id":"31853","name":"Oranienschule","lon":7.832289,"lat":50.276528,"homepage_url":"http://www.sfs-rlp.de","federal_state_code":"RP","fax_number":"+49 2604 9437","email_address":"oranienschule@sfs-rlp.de","city":"Singhofen"},{"zip_code":"67105","street":"Jägerstr. 18","school_type_entity":"Förderschule","school_type":"Förderschule","phone_number":"+49 6235 49049","old_slug":"67105-salierschule-fsp-lernen-foerderschule","official_id":"31120","name":"Salierschule","lon":8.377859,"lat":49.377737,"homepage_url":null,"federal_state_code":"RP","fax_number":"+49 6235 490484","email_address":"sekretariat.salier@gmx.de","city":"Schifferstadt"},{"zip_code":"67346","street":"Kardinal-Wendel-Str. 9","school_type_entity":"Förderschule","school_type":"Förderschule","phone_number":"+49 6232 539985","old_slug":"67346-johann-heinrich-pestalozzi-schule-fsp-ganzheitl-entwicklung-foerderschule","official_id":"30049","name":"Johann-Heinrich-Pestalozzi","lon":8.434642,"lat":49.30472,"homepage_url":null,"federal_state_code":"RP","fax_number":"+49 6232 539986","email_address":"pestalozzi.speyer@gmx.de.de","city":"Speyer"},{"zip_code":"67346","street":"Im Erlich 67 A","school_type_entity":"Förderschule","school_type":"Förderschule","phone_number":"+49 6232 635372","old_slug":"67346-schule-im-erlich-fsp-lernen-foerderschule","official_id":"30996","name":"Schule im Erlich","lon":8.412989,"lat":49.328988,"homepage_url":"http://www.schuleimerlich.de","federal_state_code":"RP","fax_number":"+49 6232 635374","email_address":"schuleimerlich@googlemail.com","city":"Speyer"},{"zip_code":"76855","street":"Herrenteich 2","school_type_entity":"Förderschule","school_type":"Förderschule","phone_number":"+49 6346 965120","old_slug":"76855-staufer-schulzentrum-fsp-lernen-foerderschule","official_id":"31117","name":"Staufer-Schulzentrum","lon":7.97475,"lat":49.203706,"homepage_url":"http://staufer-schulzentrum.de","federal_state_code":"RP","fax_number":"+49 6346 965118","email_address":"foerderschule.annweiler@gmx.de","city":"Annweiler am Trifels"},{"zip_code":"76887","street":"Zeppelinstr. 55","school_type_entity":"Förderschule","school_type":"Förderschule","phone_number":"+49 6343 8176","old_slug":"76887-altenbergschule-fsp-lernen-foerderschule","official_id":"31510","name":"Altenbergschule","lon":7.996343,"lat":49.104007,"homepage_url":"http://www.altenbergschule.de","federal_state_code":"RP","fax_number":"+49 6343 938520","email_address":"info@altenbergschule.de","city":"Bad Bergzabern"},{"zip_code":"76863","street":"Bussereaustr. 21","school_type_entity":"Förderschule","school_type":"Förderschule","phone_number":"+49 7276 970140","old_slug":"76863-st-laurentius-schule-fsp-ganzheitl-entwicklung-foerderschule","official_id":"30065","name":"St. Laurentius-Schule","lon":8.21855,"lat":49.149928,"homepage_url":"http://www.st-laurentius-herxheim.de","federal_state_code":"RP","fax_number":"+49 7276 970103","email_address":"http://st.laurentius-schule@caritas-speyer.de","city":"Herxheim bei Landau/ Pfalz"},{"zip_code":"54292","street":"Schöndorfer Str. 2","school_type_entity":"Förderschule","school_type":"Förderschule","phone_number":"+49 651 28421","old_slug":"54292-privatschule-st-josef-sfl-foerderschule","official_id":"30139","name":"Privatschule St. Josef","lon":6.650991,"lat":49.761081,"homepage_url":"http://www.sankt-josef-trier.de","federal_state_code":"RP","fax_number":"+49 651 140451","email_address":"foerderschule@sankt-josef-trier.de","city":"Trier"},{"zip_code":"54296","street":"Am Trimmelter Hof 201","school_type_entity":"Förderschule","school_type":"Förderschule","phone_number":"+49 651 910350","old_slug":"54296-wilhelm-hubert-cueppers-schule-landesschule-fuer-gehoerlose-und-schwerhoerige-foerderschule","official_id":"30202","name":"Wilhelm-Hubert-Cüppers-Schule","lon":6.691777,"lat":49.739139,"homepage_url":"http://www.whc-schule-trier.de","federal_state_code":"RP","fax_number":"+49 651 9103534","email_address":"whc@whc-schule-trier.de","city":"Trier"},{"zip_code":"54292","street":"Engelstr. 20","school_type_entity":"Förderschule","school_type":"Förderschule","phone_number":"+49 651 28011","old_slug":"54292-porta-nigra-schule-sfg-foerderschule","official_id":"31630","name":"Porta-Nigra-Schule","lon":6.644439,"lat":49.761593,"homepage_url":null,"federal_state_code":"RP","fax_number":"+49 651 26392","email_address":"porta-nigra-schule@lebenshilfe-trier.de","city":"Trier"},{"zip_code":"54295","street":"Trevererstr. 42","school_type_entity":"Förderschule","school_type":"Förderschule","phone_number":"+49 651 32850","old_slug":"54295-treverer-schule-sfm-foerderschule","official_id":"31777","name":"Treverer-Schule","lon":6.647032,"lat":49.733734,"homepage_url":"http://www.treverer-schule.de","federal_state_code":"RP","fax_number":"+49 651 9930490","email_address":"buero@treverer-schule.de","city":"Trier"},{"zip_code":"54294","street":"Medardstr. 2","school_type_entity":"Förderschule","school_type":"Förderschule","phone_number":"+49 651 993796810","old_slug":"54294-medard-schule-trier-schule-mit-den-foerderschwerpunkten-lernen-und-sprache","official_id":"31930","name":"Medard-Schule Trier","lon":6.629798,"lat":49.738158,"homepage_url":"http://www.medardschule.de","federal_state_code":"RP","fax_number":"+49 651 993796820","email_address":"sekretariat@medardschule.de","city":"Trier"},{"zip_code":"54421","street":"Schulstr. 1","school_type_entity":"Förderschule","school_type":"Förderschule","phone_number":"+49 6503 7606","old_slug":"54421-st-martinus-schule-sfl-s-foerderschule","official_id":"30922","name":"St. Martinus-Schule","lon":6.873642,"lat":49.677578,"homepage_url":"http://www.st-martinus-schule.de","federal_state_code":"RP","fax_number":"+49 6503 994493","email_address":"martinus.schule@t-online.de","city":"Reinsfeld"},{"zip_code":"54338","street":"Bernhard-Becker-Str. 6","school_type_entity":"Förderschule","school_type":"Förderschule","phone_number":"+49 6502 930920","old_slug":"54338-levana-schule-sfg-foerderschule","official_id":"30472","name":"Levana-Schule","lon":6.747899,"lat":49.819777,"homepage_url":"http://levana-schule-schweich.de","federal_state_code":"RP","fax_number":"+49 6502 995","email_address":"sfg-levana@gmx.de","city":"Schweich"},{"zip_code":"54338","street":"Isseler Str. 37","school_type_entity":"Förderschule","school_type":"Förderschule","phone_number":"+49 6502 910950","old_slug":"54338-meulenwald-schule-sfl-s-foerderschule","official_id":"30876","name":"Meulenwald-Schule","lon":6.749759,"lat":49.822362,"homepage_url":"http://www.meulenwald-schule.de","federal_state_code":"RP","fax_number":"+49 6502 9109522","email_address":"info@meulenwald-schule.de","city":"Schweich"},{"zip_code":"54298","street":"Puricellistr. 1","school_type_entity":"Förderschule","school_type":"Förderschule","phone_number":"+49 6506 899116","old_slug":"54298-valdocco-schule-sfe-foerderschule","official_id":"31914","name":"Valdocco-Schule","lon":6.545013,"lat":49.857259,"homepage_url":"http://www.helenenberg.de","federal_state_code":"RP","fax_number":"+49 6506 899109","email_address":"jakobs@helenenberg.de","city":"Welschbillig"},{"zip_code":"54459","street":"Rosenbergerstr. 130 a","school_type_entity":"Förderschule","school_type":"Förderschule","phone_number":"+49 6501 16432","old_slug":"54459-don-bosco-schule-sfl-s-foerderschule","official_id":"31404","name":"Don Bosco-Schule","lon":6.59,"lat":49.65889,"homepage_url":"http://www.dobowi.de","federal_state_code":"RP","fax_number":"+49 6501 601761","email_address":"dobowi@gmx.de","city":"Wiltingen"},{"zip_code":"54550","street":"Schulstr. 5","school_type_entity":"Förderschule","school_type":"Förderschule","phone_number":"+49 6592 980113","old_slug":"54550-st-laurentius-schule-foez-foerderschule","official_id":"30905","name":"St. Laurentius-Schule","lon":6.825404,"lat":50.194323,"homepage_url":"http://www.foerderzentrum-daun.de","federal_state_code":"RP","fax_number":"+49 6592 985393","email_address":"info@foerderzentrum-daun.de","city":"Daun"},{"zip_code":"54568","street":"Waldstr. 17","school_type_entity":"Förderschule","school_type":"Förderschule","phone_number":"+49 6591 4177","old_slug":"54568-hubertus-rader-foerderzentrum-foez-foerderschule","official_id":"31897","name":"Hubertus-Rader-Förderzentrum","lon":6.661972,"lat":50.217001,"homepage_url":"http://www.hrf-gerolstein.de","federal_state_code":"RP","fax_number":"+49 6591 985187","email_address":"mail@hrf-gerolstein.de","city":"Gerolstein"},{"zip_code":"56470","street":"Erlenweg 4a","school_type_entity":"Förderschule","school_type":"Förderschule","phone_number":"+49 2661 91080","old_slug":"56470-michael-ende-schule-fsp-lernen-foerderschule","official_id":"30829","name":"Michael-Ende-Schule","lon":7.956172,"lat":50.658405,"homepage_url":"http://mesbm.de","federal_state_code":"RP","fax_number":"+49 2661 910890","email_address":"michael-ende-schule.bad-mbg@t-online.de","city":"Bad Marienberg (Westerwald)"},{"zip_code":"57627","street":"Leipziger Str. 10","school_type_entity":"Förderschule","school_type":"Förderschule","phone_number":"+49 2662 7771","old_slug":"57627-burggarten-schule-hachenburg-sfl-e-foerderschule","official_id":"30832","name":"Burggarten-Schule","lon":7.828757,"lat":50.661182,"homepage_url":null,"federal_state_code":"RP","fax_number":"+49 2662 939373","email_address":"burggartenschule@t-online.de","city":"Hachenburg"},{"zip_code":"57627","street":"Lohmühle 2a","school_type_entity":"Förderschule","school_type":"Förderschule","phone_number":"+49 2662 939457","old_slug":"57627-schule-am-rothenberg-sfs-foerderschule","official_id":"31867","name":"Schule am Rothenberg","lon":7.82148,"lat":50.656883,"homepage_url":"http://www.schule-am-rothenberg.de","federal_state_code":"RP","fax_number":"+49 2662 942231","email_address":"sfspr@t-online.de","city":"Hachenburg"},{"zip_code":"56462","street":"Zehntgrafstr. 14","school_type_entity":"Förderschule","school_type":"Förderschule","phone_number":"+49 2661 98830","old_slug":"56462-wilhelm-albrecht-schule-hoehn-sfg-und-sfm-g-foerderschule-in-freier-traegerschaft","official_id":"31837","name":"Wilhelm-Albrecht-Schule Höhn","lon":7.983244,"lat":50.615691,"homepage_url":"http://www.waschule.de","federal_state_code":"RP","fax_number":"+49 2661 988340","email_address":"waschule@heinrich-haus.de","city":"Höhn"},{"zip_code":"56203","street":"Rathausstr. 131","school_type_entity":"Förderschule","school_type":"Förderschule","phone_number":"+49 2624 95440","old_slug":"56203-schiller-schule-fsp-lernen-foerderschule","official_id":"30155","name":"Schiller-Schule","lon":7.657555,"lat":50.438212,"homepage_url":"http://www.schiller-schule-hg.de","federal_state_code":"RP","fax_number":"+49 2624 954420","email_address":"verwaltung@schiller-schule-hg.de","city":"Höhr-Grenzhausen"},{"zip_code":"56427","street":"Schillerstr. 22","school_type_entity":"Förderschule","school_type":"Förderschule","phone_number":"+49 2623 5524","old_slug":"56427-berggarten-schule-fsp-lernen-foerderschule","official_id":"31824","name":"Berggarten-Schule","lon":7.787579,"lat":50.486709,"homepage_url":null,"federal_state_code":"RP","fax_number":"+49 2623 970213","email_address":"berggartenschule@t-online.de","city":"Siershahn"},{"zip_code":"56457","street":"Königsberger Str.","school_type_entity":"Förderschule","school_type":"Förderschule","phone_number":"+49 2663 94350","old_slug":"56457-friedrich-schweitzer-schule-fsp-lernen-foerderschule","official_id":"30172","name":"Friedrich-Schweitzer-Schule","lon":7.9761022,"lat":50.559894,"homepage_url":null,"federal_state_code":"RP","fax_number":"+49 2663 943511","email_address":"f-schweitzer-schule@t-online.de","city":"Westerburg"},{"zip_code":"56422","street":"Theodor-Heuss-Ring","school_type_entity":"Förderschule","school_type":"Förderschule","phone_number":"+49 2602 6340","old_slug":"56422-katharina-kasper-schule-sfg-m-g-in-privater-traegerschaft-foerderschule","official_id":"30142","name":"Katharina-Kasper-Schule","lon":7.80385,"lat":50.470995,"homepage_url":"http://www.katharina-kasper-schule.de","federal_state_code":"RP","fax_number":"+49 2602 81420","email_address":"info@kkswirges.de","city":"Wirges"},{"zip_code":"67547","street":"Elisabeth-Groß-Platz 1","school_type_entity":"Förderschule","school_type":"Förderschule","phone_number":"+49 6241 88329","old_slug":"67547-geschwister-scholl-schule-foerderzentrum-foerderschule","official_id":"31001","name":"Geschwister-Scholl-Schule","lon":8.353683,"lat":49.611697,"homepage_url":"http://förderzentrum-worms.de","federal_state_code":"RP","fax_number":"+49 6241 411932","email_address":"foerderzentrum.worms@freenet.de","city":"Worms"},{"zip_code":"66482","street":"Schulacker 12","school_type_entity":"Förderschule","school_type":"Förderschule","phone_number":"+49 6332 8707","old_slug":"66482-mauritius-schule-fspe-ganzheitl-und-motorische-entwicklung-foerderschule","official_id":"30352","name":"Mauritius-Schule","lon":7.320326,"lat":49.237057,"homepage_url":"http://www.mauritiusschule-zw.de","federal_state_code":"RP","fax_number":"+49 6332 8707","email_address":"kweber@mauritiusschule-zw.de","city":"Zweibrücken"},{"zip_code":"66482","street":"Canadastr. 25","school_type_entity":"Förderschule","school_type":"Förderschule","phone_number":"+49 6332 970100","old_slug":"66482-canadaschule-fsp-lernen-und-sprache-foerderschule","official_id":"31434","name":"Canadaschule","lon":7.384098,"lat":49.246999,"homepage_url":null,"federal_state_code":"RP","fax_number":"+49 6332 9701011","email_address":"canadaschule@schule-zw.de","city":"Zweibrücken"},{"zip_code":"67227","street":"Julius-Bettinger-Str. 1","school_type_entity":"Waldorfschule","school_type":"Freie Waldorfschule","phone_number":"+49 6233 47047","old_slug":"67227-freie-waldorfschule-frankenthal-pfalz","official_id":"79048","name":"Freie Waldorfschule","lon":8.353261,"lat":49.521899,"homepage_url":null,"federal_state_code":"RP","fax_number":"+49 6233 40133","email_address":"fws.ft@t-online.de","city":"Frankenthal (Pfalz)"},{"zip_code":"67697","street":"Schulstr. 4","school_type_entity":"Waldorfschule","school_type":"Freie Waldorfschule","phone_number":"+49 6301 793350","old_slug":"67697-freie-waldorfschule-westpfalz-otterberg-pfalz","official_id":"79064","name":"Freie Waldorfschule","lon":7.761547,"lat":49.500916,"homepage_url":"http://www.fws-otterberg.de","federal_state_code":"RP","fax_number":"+49 6301 793340","email_address":"info@fws-otterberg.de","city":"Otterberg"},{"zip_code":"55126","street":"Merkurweg 2","school_type_entity":"Waldorfschule","school_type":"Freie Waldorfschule","phone_number":"+49 6131 472077","old_slug":"55126-freie-waldorfschule-mainz-finthen","official_id":"79005","name":"Freie Waldorfschule Finthen","lon":8.175143,"lat":49.994573,"homepage_url":null,"federal_state_code":"RP","fax_number":"+49 6131 474335","email_address":"fws.mainz@web.de","city":"Mainz"},{"zip_code":"67433","street":"Konrad-Adenauer-Straße 14 - 16","school_type_entity":"Waldorfschule","school_type":"Freie Waldorfschule","phone_number":"+49 6321 5790409","old_slug":"67433-freie-goetheschule-waldorfschule-neustadt","official_id":"79081","name":"Freie Goetheschule","lon":8.142379,"lat":49.353406,"homepage_url":"http://www.freie-goetheschule.de/","federal_state_code":"RP","fax_number":"+49 6321 5790410","email_address":"info@freie-goetheschule.de","city":"Neustadt an der Weinstraße"},{"zip_code":"56567","street":"Augustenthaler Str. 25","school_type_entity":"Waldorfschule","school_type":"Freie Waldorfschule","phone_number":"+49 2631 96420","old_slug":"56567-freie-waldorfschule-neuwied-staatlich-genehmigte-ersatzschule-rudolf-steiner-schule-mittelrhein","official_id":"79021","name":"Rudolf-Steiner-Schule Mittel-","lon":7.467718,"lat":50.466404,"homepage_url":"http://www.waldorfschule-neuwied.de","federal_state_code":"RP","fax_number":"+49 2631 964211","email_address":"waldorfschule-neuwied@onlinehome.de","city":"Neuwied"},{"zip_code":"56288","street":"An der Molkerei 15","school_type_entity":"Waldorfschule","school_type":"Freie Waldorfschule","phone_number":"+49 6762 963851","old_slug":"56288-freie-waldorfschule-hunsrueck-mosel","official_id":"79078","name":"Freie Waldorfschule Kastellaun","lon":7.449955,"lat":50.06583,"homepage_url":"http://www.fws-kastellaun.de/","federal_state_code":"RP","fax_number":"+49 6762 963849","email_address":"sekretariat@fws-kastellaun.de","city":"Kastellaun"},{"zip_code":"65582","street":"Wilhelm-von-Nassau-Str. 19","school_type_entity":"Waldorfschule","school_type":"Freie Waldorfschule","phone_number":"+49 6432 80080","old_slug":"65582-freie-waldorfschule-diez-staatlich-genehmigte-ersatzschule","official_id":"79034","name":"Freie Waldorfschule Diez","lon":8.005145,"lat":50.3755252,"homepage_url":"http://www.waldorfschule-diez.de","federal_state_code":"RP","fax_number":"+49 6432 800822","email_address":"info@waldorfschule-diez.de","city":"Diez"},{"zip_code":"54296","street":"Montessoriweg 7","school_type_entity":"Waldorfschule","school_type":"Freie Waldorfschule","phone_number":"+49 651 9930136","old_slug":"54296-freie-waldorfschule-trier","official_id":"79018","name":"Freie Waldorfschule Trier","lon":6.647168,"lat":49.729486,"homepage_url":"http://www.waldorfschule-trier.de/","federal_state_code":"RP","fax_number":"+49 651 9930139","email_address":"waldorfschule-trier@t-online.de","city":"Trier"},{"zip_code":"53518","street":"Schulstr.","school_type_entity":"Grundschule","school_type":"Grundschule","phone_number":"+49 2691 546","old_slug":"53518-grundschule-adenau","official_id":"11725","name":"Grundschule Adenau","lon":6.932542,"lat":50.382554,"homepage_url":null,"federal_state_code":"RP","fax_number":"+49 2691 930306","email_address":"gsadenau@t-online.de","city":"Adenau"},{"zip_code":"53506","street":"Kesslinger Str. 8","school_type_entity":"Grundschule","school_type":"Grundschule","phone_number":"+49 2643 6774","old_slug":"53506-denntal-grundschule-ahrbrueck","official_id":"11739","name":"Denntal Grundschule","lon":6.98917,"lat":50.4825,"homepage_url":null,"federal_state_code":"RP","fax_number":"+49 2643 940123","email_address":"gs-ahrbrueck@gmx.de","city":"Ahrbrück"},{"zip_code":"53505","street":"Schulstr. 5","school_type_entity":"Grundschule","school_type":"Grundschule","phone_number":"+49 2643 901859","old_slug":"53505-grundschule-altenahr-altenahr","official_id":"26883","name":"Grundschule Altenahr","lon":6.988954,"lat":50.508332,"homepage_url":null,"federal_state_code":"RP","fax_number":"+49 2643 901657","email_address":"grundschule-altenahr@t-online.de","city":"Altenahr"},{"zip_code":"53533","street":"Eichenbacher Weg 36","school_type_entity":"Grundschule","school_type":"Grundschule","phone_number":"+49 2693 930016","old_slug":"53533-margaretha-von-arenberg-schule-grundschule-antweiler","official_id":"11863","name":"Margaretha-von-Arenberg-Schule","lon":6.825916,"lat":50.406871,"homepage_url":null,"federal_state_code":"RP","fax_number":"+49 2693 930017","email_address":"mva-grundschule@gmx.de","city":"Antweiler"},{"zip_code":"53498","street":"Rheintalstr. 35-39","school_type_entity":"Grundschule","school_type":"Grundschule","phone_number":"+49 2633 9467","old_slug":"53498-grundschule-lindenschule-bad-breisig","official_id":"11996","name":"Lindenschule","lon":7.295975,"lat":50.514882,"homepage_url":null,"federal_state_code":"RP","fax_number":"+49 2633 95421","email_address":"info@lindenschule-breisig.de","city":"Bad Breisig"},{"zip_code":"53474","street":"Weststr. 27","school_type_entity":"Grundschule","school_type":"Grundschule","phone_number":"+49 2641 28359","old_slug":"53474-grundschule-bad-neuenahr-bad-neuenahr-ahrweiler","official_id":"12060","name":"Grundschule Bad Neuenahr","lon":7.131912,"lat":50.544252,"homepage_url":null,"federal_state_code":"RP","fax_number":"+49 2641 203455","email_address":"gs-bad-neuenahr@gmx.de","city":"Bad Neuenahr-Ahrweiler Stadt"},{"zip_code":"53474","street":"Vehner Weg 31","school_type_entity":"Grundschule","school_type":"Grundschule","phone_number":"+49 2641 25375","old_slug":"53474-grundschule-an-der-landskrone-heimersheim","official_id":"22062","name":"Grundschule an der Landskrone","lon":7.09501,"lat":50.5424,"homepage_url":null,"federal_state_code":"RP","fax_number":"+49 2641 203878","email_address":"gs-heimersheim@gmx.de","city":"Bad Neuenahr-Ahrweiler Stadt"},{"zip_code":"53474","street":"Blankartstr. 13","school_type_entity":"Grundschule","school_type":"Grundschule","phone_number":"+49 2641 3386","old_slug":"53474-grundschule-ahrweiler","official_id":"23880","name":"Ganztagsgrundschule Ahrweiler","lon":7.09501,"lat":50.5424,"homepage_url":"http://aloisiusschule.de","federal_state_code":"RP","fax_number":"+49 2641 900894","email_address":"gs-ahrweiler@gmx.de","city":"Bad Neuenahr-Ahrweiler Stadt"},{"zip_code":"53505","street":"Ahrstr. 87","school_type_entity":"Grundschule","school_type":"Grundschule","phone_number":"+49 2643 1089","old_slug":"53505-vischeltalschule-grundschule-berg","official_id":"12237","name":"Vischeltalschule","lon":6.936236,"lat":50.522565,"homepage_url":"http://www.vischeltalschule.berg-aw.de","federal_state_code":"RP","fax_number":"+49 2643 1089","email_address":"info@vischeltalschule.berg-aw.de","city":"Berg"},{"zip_code":"56656","street":"Quellenstr. 15","school_type_entity":"Grundschule","school_type":"Grundschule","phone_number":"+49 2633 1581","old_slug":"56656-grundschule-leo-stausberg-schule-brohl-luetzing","official_id":"12630","name":"Leo-Stausberg-Schule","lon":7.327303,"lat":50.485977,"homepage_url":"http://leo-stausberg-schule.de","federal_state_code":"RP","fax_number":"+49 2633 440217","email_address":"leo-stausberg-schule@bad-breisig.de","city":"Brohl-Lützing"},{"zip_code":"56659","street":"Greimerstalweg 19","school_type_entity":"Grundschule","school_type":"Grundschule","phone_number":"+49 2636 2056","old_slug":"56659-grundschule-burgbrohl","official_id":"26537","name":"Grundschule Burgbrohl","lon":7.270293,"lat":50.456798,"homepage_url":"http://www.grundschule-burgbrohl.de","federal_state_code":"RP","fax_number":"+49 2636 3606","email_address":"gs_burgbrohl@t-online.de","city":"Burgbrohl"},{"zip_code":"53507","street":"Römerstr.","school_type_entity":"Grundschule","school_type":"Grundschule","phone_number":"+49 2643 1551","old_slug":"53507-grundschule-dernau","official_id":"26357","name":"Grundschule Dernau","lon":7.046781,"lat":50.53537,"homepage_url":null,"federal_state_code":"RP","fax_number":"+49 2643 902662","email_address":"gs.dernau@t-online.de","city":"Dernau"},{"zip_code":"53501","street":"Grünstr. 9","school_type_entity":"Grundschule","school_type":"Grundschule","phone_number":"+49 2225 10463","old_slug":"53501-grundschule-obere-grafschaft-grafschaft-gelsdorf","official_id":"21955","name":"Grundschule Obere Grafschaft","lon":7.032312,"lat":50.584917,"homepage_url":"http://www.Grundschule-Gelsdorf.de","federal_state_code":"RP","fax_number":"+49 2225 707606","email_address":"grundschule-gelsdorf@web.de","city":"Grafschaft"},{"zip_code":"53501","street":"An der Arche 10","school_type_entity":"Grundschule","school_type":"Grundschule","phone_number":"+49 2641 27336","old_slug":"53501-grundschule-leimersdorf-grafschaft","official_id":"22482","name":"Grundschule Leimersdorf","lon":7.131921,"lat":50.585002,"homepage_url":"http://www.grundschule-leimersdorf.wg.am","federal_state_code":"RP","fax_number":"+49 2641 208920","email_address":"grundschule-leimersdorf@web.de","city":"Grafschaft"},{"zip_code":"53501","street":"Im Kreuzerfeld 6","school_type_entity":"Grundschule","school_type":"Grundschule","phone_number":"+49 2641 28363","old_slug":"53501-grundschule-grafschaft-ringen","official_id":"23126","name":"Grundschule Grafschaft-Ringen","lon":7.09043,"lat":50.571005,"homepage_url":null,"federal_state_code":"RP","fax_number":"+49 2641 208917","email_address":"grundschule-ringen@web.de","city":"Grafschaft"},{"zip_code":"56746","street":"Hardtstr. 2","school_type_entity":"Grundschule","school_type":"Grundschule","phone_number":"+49 2655 1595","old_slug":"56746-grundschule-kempenich","official_id":"14476","name":"Grundschule Kempenich","lon":7.118175,"lat":50.419187,"homepage_url":null,"federal_state_code":"RP","fax_number":"+49 2655 941422","email_address":"http://gs_kempenich@t-online.de","city":"Kempenich"},{"zip_code":"56651","street":"In der Hohl 16","school_type_entity":"Grundschule","school_type":"Grundschule","phone_number":"+49 2636 6305","old_slug":"56651-grundschule-am-maar-niederduerenbach","official_id":"15933","name":"Grundschule am Maar","lon":7.178276,"lat":50.458756,"homepage_url":null,"federal_state_code":"RP","fax_number":"+49 2636 800495","email_address":"gs_niederdürenbach@t-online.de","city":"Niederdürenbach"},{"zip_code":"53520","street":"Fuchshofener Str. 12","school_type_entity":"Grundschule","school_type":"Grundschule","phone_number":"+49 2691 2644","old_slug":"53520-grundschule-reifferscheid","official_id":"16637","name":"Grundschule Reifferscheid","lon":6.87958,"lat":50.405683,"homepage_url":"http://www.grundschule-reifferscheid.de","federal_state_code":"RP","fax_number":"+49 2691 2644","email_address":"gs.reifferscheid@hocheifel.de","city":"Reifferscheid"},{"zip_code":"53424","street":"Pastor-Keller-Str. 9","school_type_entity":"Grundschule","school_type":"Grundschule","phone_number":"+49 2642 44328","old_slug":"53424-grundschule-kripp-remagen","official_id":"16667","name":"Grundschule Kripp","lon":7.264705,"lat":50.559282,"homepage_url":null,"federal_state_code":"RP","fax_number":"+49 2642 993875","email_address":"gskripp@googlemail.com","city":"Remagen"},{"zip_code":"53424","street":"Pfarrer-Sachsse-Str. 1","school_type_entity":"Grundschule","school_type":"Grundschule","phone_number":"+49 2228 7124","old_slug":"53424-grundschule-oberwinter-remagen","official_id":"24631","name":"Grundschule Oberwinter","lon":7.209385,"lat":50.612822,"homepage_url":"http://www.grundschule-oberwinter.de","federal_state_code":"RP","fax_number":"+49 2228 912889","email_address":"mail@gsoberwinter.de","city":"Remagen"},{"zip_code":"53424","street":"Alte Str.","school_type_entity":"Grundschule","school_type":"Grundschule","phone_number":"+49 2642 22370","old_slug":"53424-grundschule-remagen","official_id":"24645","name":"Grundschule St. Martin Remagen","lon":7.2391744,"lat":50.5769913,"homepage_url":"http://www.grundschule-remagen.de","federal_state_code":"RP","fax_number":"+49 2642 905307","email_address":"st.martin.remagen@t-online.de","city":"Remagen"},{"zip_code":"53426","street":"Schulstr. 35","school_type_entity":"Grundschule","school_type":"Grundschule","phone_number":"+49 2646 513","old_slug":"53426-grundschule-schalkenbach-regenbogenschule","official_id":"16955","name":"Regenbogenschule","lon":7.143017,"lat":50.493592,"homepage_url":"http://www.grundschuleschalkenbach.de","federal_state_code":"RP","fax_number":"+49 2646 914615","email_address":"gs-schalkenbach@gmx.de","city":"Schalkenbach"},{"zip_code":"53489","street":"Dreifaltigkeitsweg 37","school_type_entity":"Grundschule","school_type":"Grundschule","phone_number":"+49 2642 994511","old_slug":"53489-regenbogenschule-sinzig-grundschule","official_id":"17182","name":"Regenbogenschule","lon":7.249932,"lat":50.547923,"homepage_url":"http://www.regenbogenschule-sinzig.de","federal_state_code":"RP","fax_number":"+49 2642 994517","email_address":"info@regenbogensschule-sinzig.de","city":"Sinzig"},{"zip_code":"53489","street":"Lerchenweg 2","school_type_entity":"Grundschule","school_type":"Grundschule","phone_number":"+49 2642 981770","old_slug":"53489-grundschule-sinzig-westum","official_id":"17196","name":"Hellenbachschule","lon":7.228504,"lat":50.535973,"homepage_url":"http://www.grundschule-sinzig-westum.de/","federal_state_code":"RP","fax_number":"+49 2642 981771","email_address":null,"city":"Sinzig"},{"zip_code":"53489","street":"Schulstr. 30","school_type_entity":"Grundschule","school_type":"Grundschule","phone_number":"+49 2642 41780","old_slug":"53489-grundschule-bad-bodendorf-sinzig","official_id":"21217","name":"Grundschule Bad Bodendorf","lon":7.222234,"lat":50.556869,"homepage_url":null,"federal_state_code":"RP","fax_number":"+49 2642 993537","email_address":"grundschule@bad-bodendorf.de","city":"Sinzig"},{"zip_code":"56653","street":"Zehntgasse 16","school_type_entity":"Grundschule","school_type":"Grundschule","phone_number":"+49 2636 1226","old_slug":"56653-grundschule-wassenach","official_id":"18160","name":"Grundschule Wassenach","lon":7.280698,"lat":50.433919,"homepage_url":null,"federal_state_code":"RP","fax_number":"+49 2636 941532","email_address":"gs_wassenach@t-online.de","city":"Wassenach"},{"zip_code":"56653","street":"Kellerei 2","school_type_entity":"Grundschule","school_type":"Grundschule","phone_number":"+49 2636 7030","old_slug":"56653-grundschule-wehr","official_id":"18173","name":"Grundschule Wehr","lon":7.210235,"lat":50.421446,"homepage_url":"http://www.grundschule-wehr.de","federal_state_code":"RP","fax_number":"+49 2636 800616","email_address":"gs_wehr@t-online.de","city":"Wehr"},{"zip_code":"56745","street":"Schulstr. 3","school_type_entity":"Grundschule","school_type":"Grundschule","phone_number":"+49 2655 1313","old_slug":"56745-grundschule-weibern","official_id":"18186","name":"Grundschule Weibern","lon":7.14819,"lat":50.406486,"homepage_url":"http://www.grundschule-weibern.de","federal_state_code":"RP","fax_number":"+49  ","email_address":"gs_weibern@t-online.de","city":"Weibern"},{"zip_code":"53520","street":"Hauptstr. 42","school_type_entity":"Grundschule","school_type":"Grundschule","phone_number":"+49 2694 1344","old_slug":"53520-herzog-ludwig-engelbert-grundschule-wershofen","official_id":"18310","name":"Herzog-Ludwig-Engelbert-Schule","lon":6.814079,"lat":50.444543,"homepage_url":null,"federal_state_code":"RP","fax_number":"+49 2694 911874","email_address":"grundschule.wershofen@t-online.de","city":"Wershofen"},{"zip_code":"57518","street":"Hauptstr. 53","school_type_entity":"Grundschule","school_type":"Grundschule","phone_number":"+49 2741 23134","old_slug":"57518-grundschule-hellertal-alsdorf","official_id":"11802","name":"Grundschule Hellertal","lon":7.880889,"lat":50.778332,"homepage_url":null,"federal_state_code":"RP","fax_number":"+49 2741 970991","email_address":"hellertal-grundschule@web.de","city":"Alsdorf"},{"zip_code":"57610","street":"Ziegelweg 4","school_type_entity":"Grundschule","school_type":"Grundschule","phone_number":"+49 2681 6136","old_slug":"57610-pestalozzi-schule-grundschule-i-altenkirchen","official_id":"14102","name":"Pestalozzi-Schule","lon":7.638689,"lat":50.687937,"homepage_url":"http://www.pestalozzi-ak.de","federal_state_code":"RP","fax_number":"+49 2681 989709","email_address":"info@pestalozzi-ak.de","city":"Altenkirchen (Westerwald)"},{"zip_code":"57610","street":"Siegener Str. 26","school_type_entity":"Grundschule","school_type":"Grundschule","phone_number":"+49 2681 6148","old_slug":"57610-erich-kaestner-schule-grundschule-ii-altenkirchen","official_id":"14176","name":"Erich-Kästner-Schule","lon":7.650764,"lat":50.690079,"homepage_url":"http://www.eks-altenkirchen.de","federal_state_code":"RP","fax_number":"+49 2681 6188","email_address":"kaestner.grundschuleak@t-online.de","city":"Altenkirchen (Westerwald)"},{"zip_code":"57610","street":"Heinestr. 12","school_type_entity":"Grundschule","school_type":"Grundschule","phone_number":"+49 2681 3909","old_slug":"57610-freie-evangelische-bekenntnisschule-grundschule-des-vereins-freie-ev-bekenntnisschule-altenk-feba-e-v","official_id":"26327","name":"Freie Ev. Bekenntnisschule","lon":7.645627,"lat":50.701699,"homepage_url":"http://Feba-AK.de","federal_state_code":"RP","fax_number":"+49 2681 70009","email_address":"velten.feba-ak@t-online.de","city":"Altenkirchen (Westerwald)"},{"zip_code":"57518","street":"Martin-Luther-Str. 31","school_type_entity":"Grundschule","school_type":"Grundschule","phone_number":"+49 2741 910710","old_slug":"57518-martin-luther-schule-grundschule-betzdorf","official_id":"26134","name":"Martin-Luther-Schule","lon":7.867335,"lat":50.79372,"homepage_url":null,"federal_state_code":"RP","fax_number":"+49 2741 9107119","email_address":"gsbetzdorf1@gmx.de","city":"Betzdorf"},{"zip_code":"57518","street":"Johannes-Krell-Str. 17","school_type_entity":"Grundschule","school_type":"Grundschule","phone_number":"+49 2741 910730","old_slug":"57518-christophorus-schule-grundschule-betzdorf","official_id":"26147","name":"Christophorus-Schule","lon":7.851153,"lat":50.790865,"homepage_url":"http://www.cgs-betzdorf.de","federal_state_code":"RP","fax_number":"+49 2741 9107314","email_address":"christophorus.betzdorf@gmail.com","city":"Betzdorf"},{"zip_code":"57587","street":"Hauptstr. 134","school_type_entity":"Grundschule","school_type":"Grundschule","phone_number":"+49 2742 969100","old_slug":"57587-christophorus-grundschule-honigsessen","official_id":"13981","name":"Christophorus-Schule","lon":7.740693,"lat":50.821491,"homepage_url":null,"federal_state_code":"RP","fax_number":"+49 2742 969101","email_address":"gs-christobiho@freenet.de","city":"Birken-Honigsessen"},{"zip_code":"57555","street":"Konrad-Adenauer-Str. 1","school_type_entity":"Grundschule","school_type":"Grundschule","phone_number":"+49 2745 405","old_slug":"57555-petrus-canisius-schule-grundschule-brachbach","official_id":"21131","name":"Petrus-Canisius-Schule","lon":7.942675,"lat":50.819002,"homepage_url":"http://www.grundschule-brachbach.de","federal_state_code":"RP","fax_number":"+49 2745 930027","email_address":"gs.brachbach@gmail.com","city":"Brachbach"},{"zip_code":"57567","street":"Hachenburger Str. 3","school_type_entity":"Grundschule","school_type":"Grundschule","phone_number":"+49 2743 2288","old_slug":"57567-grundschule-daaden","official_id":"12810","name":"Grundschule Daaden","lon":7.966648,"lat":50.736703,"homepage_url":"http://www.daadetal-grundschule.de","federal_state_code":"RP","fax_number":"+49 2743 4377","email_address":"info@daadetal-grundschule.de","city":"Daaden"},{"zip_code":"57567","street":"Friedhofstr. 6","school_type_entity":"Grundschule","school_type":"Grundschule","phone_number":"+49 2743 2239","old_slug":"57567-grundschule-biersdorf-daaden","official_id":"12824","name":"Grundschule Biersdorf","lon":7.95151,"lat":50.746955,"homepage_url":"http://www.grundschule-biersdorf.de","federal_state_code":"RP","fax_number":"+49 2743 4940","email_address":"info@grundschule-biersdorf.de","city":"Daaden"},{"zip_code":"57578","street":"Jahnstr.","school_type_entity":"Grundschule","school_type":"Grundschule","phone_number":"+49 2747 91570","old_slug":"57578-st-martin-schule-grundschule-elkenroth","official_id":"13078","name":"St. Martin-Schule","lon":7.883638,"lat":50.731576,"homepage_url":null,"federal_state_code":"RP","fax_number":"+49 2747 915719","email_address":"sankt-martin-grundschule@t-online.de","city":"Elkenroth"},{"zip_code":"57539","street":"Wiesenstr. 21","school_type_entity":"Grundschule","school_type":"Grundschule","phone_number":"+49 2682 573","old_slug":"57539-grundschule-etzbach","official_id":"13201","name":"Grundschule Etzbach","lon":7.688206,"lat":50.77554,"homepage_url":"http://www.grundschule-etzbach.de","federal_state_code":"RP","fax_number":"+49 2682 968399","email_address":"info@grundschule-etzbach.de","city":"Etzbach"},{"zip_code":"57632","street":"Südstr. 1","school_type_entity":"Grundschule","school_type":"Grundschule","phone_number":"+49 2685 466","old_slug":"57632-grundschule-flammersfeld","official_id":"13261","name":"Grundschule Flammersfeld","lon":7.525166,"lat":50.645135,"homepage_url":null,"federal_state_code":"RP","fax_number":"+49 2685 989657","email_address":"gs-flammersfeld@gmx.de","city":"Flammersfeld"},{"zip_code":"57520","street":"Kaiser-Ludwig-Str. 2","school_type_entity":"Grundschule","school_type":"Grundschule","phone_number":"+49 2743 1250","old_slug":"57520-grundschule-friedewald","official_id":"13364","name":"Grundschule Friedewald","lon":7.962245,"lat":50.710613,"homepage_url":null,"federal_state_code":"RP","fax_number":"+49 2743 932928","email_address":"info@grundschule-friedewald.de","city":"Friedewald"},{"zip_code":"51598","street":"Klosterstr. 7","school_type_entity":"Grundschule","school_type":"Grundschule","phone_number":"+49 2734 7376","old_slug":"51598-st-franziskus-schule-friesenhagen-grundschule","official_id":"26039","name":"St. Franziskus-Schule","lon":7.808991,"lat":50.905099,"homepage_url":"http://www.gs-friesenhagen.de","federal_state_code":"RP","fax_number":"+49 2734 438474","email_address":"gs.friesenhagen@t-online.de","city":"Friesenhagen"},{"zip_code":"57580","street":"Schulstr.","school_type_entity":"Grundschule","school_type":"Grundschule","phone_number":"+49 2747 3550","old_slug":"57580-astrid-lindgren-schule-grundschule-gebhardshain","official_id":"13408","name":"Astrid-Lindgren-Schule","lon":7.825726,"lat":50.745351,"homepage_url":null,"federal_state_code":"RP","fax_number":"+49 2747 7469","email_address":"info@grundschule-gebhardshain.de","city":"Gebhardshain"},{"zip_code":"57577","street":"Martin-Luther-Str. 4","school_type_entity":"Grundschule","school_type":"Grundschule","phone_number":"+49 2682 969422","old_slug":"57577-friedrich-wilhelm-raiffeisen-schule-grundschule-hamm","official_id":"10435","name":"Friedrich-W.-Raiffeisen-Schule","lon":7.671222,"lat":50.76206,"homepage_url":"http://www.grundschule-hamm.de","federal_state_code":"RP","fax_number":"+49 2682 969661","email_address":"gshamm@grundschule-hamm.de","city":"Hamm (Sieg)"},{"zip_code":"57562","street":"Schneiderstr. 11","school_type_entity":"Grundschule","school_type":"Grundschule","phone_number":"+49 2744 1693","old_slug":"57562-grundschule-herdorf","official_id":"13844","name":"Grundschule Herdorf","lon":7.958069,"lat":50.781841,"homepage_url":"http://www.grundschule-herdorf.de","federal_state_code":"RP","fax_number":"+49 2744 6172","email_address":"grundschule-herdorf@t-online.de","city":"Herdorf"},{"zip_code":"56593","street":"Steinstr. 3","school_type_entity":"Grundschule","school_type":"Grundschule","phone_number":"+49 2687 929183","old_slug":"56593-glueck-auf-schule-grundschule-horhausen","official_id":"14025","name":"Glück auf!-Schule","lon":7.524959,"lat":50.596117,"homepage_url":"http://www.grundschule-horhausen.de","federal_state_code":"RP","fax_number":"+49 2687 929185","email_address":"bender@grundschule-horhausen.de","city":"Horhausen (Westerwald)"},{"zip_code":"57581","street":"Knappenstr. 55a","school_type_entity":"Grundschule","school_type":"Grundschule","phone_number":"+49 2741 8812","old_slug":"57581-grundschule-katzwinkel-barbaraschule","official_id":"14428","name":"Barbaraschule","lon":7.822666,"lat":50.812678,"homepage_url":null,"federal_state_code":"RP","fax_number":"+49 2741 933902","email_address":"gs-katzwinkel@gmx.de","city":"Katzwinkel (Sieg)"},{"zip_code":"57548","street":"Auf dem Molzberg 8","school_type_entity":"Grundschule","school_type":"Grundschule","phone_number":"+49 2741 6604","old_slug":"57548-michaelschule-grundschule-kirchen","official_id":"14549","name":"Michaelschule","lon":7.874023,"lat":50.803105,"homepage_url":null,"federal_state_code":"RP","fax_number":"+49 2741 931104","email_address":"michaelgrundschule@web.de","city":"Kirchen (Sieg)"},{"zip_code":"57555","street":"Am Erlenwald 31","school_type_entity":"Grundschule","school_type":"Grundschule","phone_number":"+49 271 353768","old_slug":"57555-martin-luther-schule-grundschule-mudersbach-niederschelderhuette","official_id":"21127","name":"Martin-Luther-Schule","lon":7.96033,"lat":50.842096,"homepage_url":null,"federal_state_code":"RP","fax_number":"+49 271 3829859","email_address":"gsmudersbach@t-online.de","city":"Mudersbach"},{"zip_code":"57572","street":"Rothenbergstr. 15","school_type_entity":"Grundschule","school_type":"Grundschule","phone_number":"+49 2734 61258","old_slug":"57572-w-e-ketteler-schule-grundschule-niederfischbach","official_id":"15950","name":"W.E. Ketteler-Schule","lon":7.878612,"lat":50.854271,"homepage_url":null,"federal_state_code":"RP","fax_number":"+49 2734 6396","email_address":"ketteler-schule@freenet.de","city":"Niederfischbach"},{"zip_code":"57641","street":"Hauptstr. 10","school_type_entity":"Grundschule","school_type":"Grundschule","phone_number":"+49 2685 613","old_slug":"57641-grundschule-lahrer-herrlichkeit-oberlahr","official_id":"16101","name":"Schule Lahrer Herrlichkeit","lon":7.516172,"lat":50.623171,"homepage_url":"http://www.grundschule-oberlahr.de","federal_state_code":"RP","fax_number":"+49 2685 987380","email_address":"grundschule.oberlahr@gmx.de","city":"Oberlahr"},{"zip_code":"57584","street":"Schulstr. 36","school_type_entity":"Grundschule","school_type":"Grundschule","phone_number":"+49 2741 23638","old_slug":"57584-maximilian-kolbe-schule-grundschule-scheuerfeld","official_id":"16998","name":"Maximilian-Kolbe-Schule","lon":7.84699,"lat":50.786384,"homepage_url":null,"federal_state_code":"RP","fax_number":"+49 2741 971895","email_address":"gs-scheuerfeld@gmx.de","city":"Scheuerfeld"},{"zip_code":"57586","street":"Schulstr. 3","school_type_entity":"Grundschule","school_type":"Grundschule","phone_number":"+49 2743 6310","old_slug":"57586-grundschule-weitefeld","official_id":"18263","name":"Grundschule Weitefeld","lon":7.884851,"lat":50.698221,"homepage_url":"http://www.grundschule.weitefeld.de","federal_state_code":"RP","fax_number":"+49 2743 932370","email_address":"grundschule@weitefeld.de","city":"Weitefeld"},{"zip_code":"57635","street":"Schulstr.","school_type_entity":"Grundschule","school_type":"Grundschule","phone_number":"+49 2686 295","old_slug":"57635-grundschule-buergermeister-raiffeisen-schule-weyerbusch","official_id":"10105","name":"Bürgerm.-Raiffeisen-Schule","lon":7.550318,"lat":50.711513,"homepage_url":"http://www.gs-weyerbusch.de","federal_state_code":"RP","fax_number":"+49 2686 988217","email_address":"grundschule@gs-weyerbusch.de","city":"Weyerbusch"},{"zip_code":"57537","street":"Schulstr. 12","school_type_entity":"Grundschule","school_type":"Grundschule","phone_number":"+49 2742 2921","old_slug":"57537-franziskus-grundschule-wissen","official_id":"18443","name":"Franziskus-Grundschule","lon":7.73467,"lat":50.779943,"homepage_url":null,"federal_state_code":"RP","fax_number":"+49 2742 4731","email_address":"info-gswissen@online.de","city":"Wissen"},{"zip_code":"55234","street":"Ardennenstr. 20","school_type_entity":"Grundschule","school_type":"Grundschule","phone_number":"+49 6731 7558","old_slug":"55234-grundschule-albig","official_id":"25006","name":"Grundschule Albig","lon":8.123443,"lat":49.776495,"homepage_url":null,"federal_state_code":"RP","fax_number":"+49 6731 908217","email_address":"gs-albig@web.de","city":"Albig"},{"zip_code":"67577","street":"Schulstr. 10","school_type_entity":"Grundschule","school_type":"Grundschule","phone_number":"+49 6249 8056990","old_slug":"67577-grundschule-am-sonnenberg-alsheim","official_id":"23954","name":"Grundschule am Sonnenberg","lon":8.33522,"lat":49.761363,"homepage_url":"http://www.grundschule-alsheim.de","federal_state_code":"RP","fax_number":"+49 6249 8056992","email_address":"mail@grundschule-alsheim.de","city":"Alsheim"},{"zip_code":"55232","street":"Donnersbergstr. 32","school_type_entity":"Grundschule","school_type":"Grundschule","phone_number":"+49 6731 3193","old_slug":"55232-grundschule-alzey-albert-schweitzer-schule","official_id":"20647","name":"Albert-Schweitzer-Schule","lon":8.111593,"lat":49.740834,"homepage_url":"http://www.ass-alzey.de.vu","federal_state_code":"RP","fax_number":"+49 6731 992755","email_address":"gsassalzey@gmx.de","city":"Alzey"},{"zip_code":"55232","street":"Nibelungenstr. 14","school_type_entity":"Grundschule","school_type":"Grundschule","phone_number":"+49 6731 3180","old_slug":"55232-grundschule-alzey-nibelungenschule","official_id":"20886","name":"Nibelungenschule","lon":8.119697,"lat":49.745817,"homepage_url":"http://www.nibelungenschule-alzey.de","federal_state_code":"RP","fax_number":"+49 6731 992722","email_address":"nibelungenschule.alzey@web.de","city":"Alzey"},{"zip_code":"55232","street":"Schulgässchen 7","school_type_entity":"Grundschule","school_type":"Grundschule","phone_number":"+49 6731 6749","old_slug":"55232-private-grundschule-st-marien-alzey","official_id":"21188","name":"Private Grundschule St. Marien","lon":8.112043,"lat":49.743963,"homepage_url":"http://www.st.marien-schule-alzey.de","federal_state_code":"RP","fax_number":"+49 6731 999957","email_address":"st.marien-schule@t-online.de","city":"Alzey"},{"zip_code":"55232","street":"Rathausstr. 36","school_type_entity":"Grundschule","school_type":"Grundschule","phone_number":"+49 6731 41994","old_slug":"55232-grundschule-alzey-weinheim","official_id":"25019","name":"Grundschule Weinheim","lon":8.063147,"lat":49.737588,"homepage_url":null,"federal_state_code":"RP","fax_number":"+49 6731 996319","email_address":"grundschule-weinheim@web.de","city":"Alzey"},{"zip_code":"55288","street":"Keltenweg 15","school_type_entity":"Grundschule","school_type":"Grundschule","phone_number":"+49 6734 8728","old_slug":"55288-grundschule-armsheim","official_id":"11893","name":"Wiesbachtalgrundschule Armshei","lon":8.061187,"lat":49.812004,"homepage_url":null,"federal_state_code":"RP","fax_number":"+49 6734 ","email_address":"info@gs-armsheim.de","city":"Armsheim"},{"zip_code":"67595","street":"Am Markt 7","school_type_entity":"Grundschule","school_type":"Grundschule","phone_number":"+49 6242 2407","old_slug":"67595-grundschule-bechtheim","official_id":"12164","name":"Grundschule Bechtheim","lon":8.29534,"lat":49.727798,"homepage_url":"http://grundschule-bechtheim.de","federal_state_code":"RP","fax_number":"+49 6242 990734","email_address":"grundschule-bechtheim@t-online.de","city":"Bechtheim"},{"zip_code":"55234","street":"Bahnhofstr.11","school_type_entity":"Grundschule","school_type":"Grundschule","phone_number":"+49 6733 6829","old_slug":"55234-grundschule-bechtolsheim","official_id":"12177","name":"Grundschule Bechtolsheim","lon":8.19389,"lat":49.80417,"homepage_url":"http://gs-bechtolsheim.de","federal_state_code":"RP","fax_number":"+49 6733 949725","email_address":"bechtolsheim@t-online.de","city":"Bechtolsheim"},{"zip_code":"67596","street":"Kämmerergasse 12","school_type_entity":"Grundschule","school_type":"Grundschule","phone_number":"+49 6244 4510","old_slug":"67596-grundschule-von-dalberg-schule-dittelsheim-hessloch","official_id":"12943","name":"Von-Dalberg-Schule","lon":8.246285,"lat":49.743556,"homepage_url":"http://von-dalberg-schule.de","federal_state_code":"RP","fax_number":"+49 6244 907758","email_address":"dieter.gutzler@web.de","city":"Dittelsheim-Heßloch"},{"zip_code":"67575","street":"Schulstr. 2","school_type_entity":"Grundschule","school_type":"Grundschule","phone_number":"+49 6246 906790","old_slug":"67575-grundschule-eich","official_id":"27051","name":"Grundschule Eich","lon":8.407615,"lat":49.747484,"homepage_url":"http://www.grundschule-eich.de","federal_state_code":"RP","fax_number":"+49 6246 90679132","email_address":"grundschule.eich@web.de","city":"Eich"},{"zip_code":"55234","street":"Nackerstr. 22","school_type_entity":"Grundschule","school_type":"Grundschule","phone_number":"+49 6731 908321","old_slug":"55234-grundschule-erbes-buedesheim","official_id":"21432","name":"Grundschule Erbes-Büdesheim","lon":8.028658,"lat":49.754494,"homepage_url":"http://www.gs-eb.de","federal_state_code":"RP","fax_number":"+49 6731 999613","email_address":"gs-erbes-buedesheim@web.de","city":"Erbes-Büdesheim"},{"zip_code":"55234","street":"Schulstr.","school_type_entity":"Grundschule","school_type":"Grundschule","phone_number":"+49 6735 411","old_slug":"55234-grundschule-flomborn","official_id":"10898","name":"Grundschule","lon":8.155295,"lat":49.689835,"homepage_url":"http://www.grundschule-flomborn.de","federal_state_code":"RP","fax_number":"+49 6735 960166","email_address":"info@grundschule-flomborn.de","city":"Flomborn"},{"zip_code":"55237","street":"Bahnhofstr. 5","school_type_entity":"Grundschule","school_type":"Grundschule","phone_number":"+49 6734 475","old_slug":"55237-grundschule-flonheim","official_id":"10901","name":"Grundschule Flonheim","lon":8.039889,"lat":49.784328,"homepage_url":"http://www.lernen-in-flonheim.de","federal_state_code":"RP","fax_number":"+49 6734 960636","email_address":"gsflonheim@t-online.de","city":"Flonheim"},{"zip_code":"55599","street":"Pestalozzistr. 5","school_type_entity":"Grundschule","school_type":"Grundschule","phone_number":"+49 6701 2892","old_slug":"55599-grundschule-st-martin-gau-bickelheim","official_id":"11683","name":"Grundschule St. Martin","lon":8.015673,"lat":49.83784,"homepage_url":null,"federal_state_code":"RP","fax_number":"+49 6701 961979","email_address":"gs-gaubickelheim@woellstein.de","city":"Gau-Bickelheim"},{"zip_code":"55239","street":"Freiherr-vom-Stein-Str. 49","school_type_entity":"Grundschule","school_type":"Grundschule","phone_number":"+49 6733 929676","old_slug":"55239-grundschule-gau-odernheim","official_id":"10931","name":"Grundschule Gau-Odernheim","lon":8.186667,"lat":49.77983,"homepage_url":"http://www.gs-go.de","federal_state_code":"RP","fax_number":"+49 6733 929677","email_address":"info@gs-go.de","city":"Gau-Odernheim"},{"zip_code":"67578","street":"Goethestr. 7","school_type_entity":"Grundschule","school_type":"Grundschule","phone_number":"+49 6249 5926","old_slug":"67578-prof-jakob-muth-grundschule-gimbsheim","official_id":"23949","name":"Prof. Jakob Muth Grundschule","lon":8.374711,"lat":49.781183,"homepage_url":"http://www.gimbsheim.de","federal_state_code":"RP","fax_number":"+49  ","email_address":"gs-gimbsheim@web.de","city":"Gimbsheim"},{"zip_code":"67598","street":"Am Schulberg 2","school_type_entity":"Grundschule","school_type":"Grundschule","phone_number":"+49 6244 5285","old_slug":"67598-grundschule-gundersheim","official_id":"13618","name":"Grundschule Gundersheim","lon":8.201946,"lat":49.69447,"homepage_url":"http://www.grundschule-gundersheim.de","federal_state_code":"RP","fax_number":"+49 6244 907759","email_address":"grundschule@gundersheim.de","city":"Gundersheim"},{"zip_code":"67294","street":"Schulstr. 6","school_type_entity":"Grundschule","school_type":"Grundschule","phone_number":"+49 6352 4862","old_slug":"67294-grundschule-mauchenheim","official_id":"22585","name":"Grundschule Mauchenheim","lon":8.043564,"lat":49.716097,"homepage_url":null,"federal_state_code":"RP","fax_number":"+49 6352 7070116","email_address":"gs-mauchenheim@gmx.de","city":"Mauchenheim"},{"zip_code":"67590","street":"Moltkestr. 5","school_type_entity":"Grundschule","school_type":"Grundschule","phone_number":"+49 6243 7533","old_slug":"67590-grundschule-monsheim","official_id":"15590","name":"Grundschule Monsheim","lon":8.211861,"lat":49.634411,"homepage_url":"http://grundschule-monsheim.de","federal_state_code":"RP","fax_number":"+49 6243 ","email_address":"grundschule.monsheim@web.de","city":"Monsheim"},{"zip_code":"67591","street":"Johann-Peter-Schneider-Str. 1","school_type_entity":"Grundschule","school_type":"Grundschule","phone_number":"+49 6243 7185","old_slug":"67591-grundschule-am-engelsberg","official_id":"16187","name":"Grundschule am Engelsberg","lon":8.240715,"lat":49.608502,"homepage_url":null,"federal_state_code":"RP","fax_number":"+49 6243 7185","email_address":"grundschule-offstein@t-online.de","city":"Offstein"},{"zip_code":"67574","street":"Memelstr. 2","school_type_entity":"Grundschule","school_type":"Grundschule","phone_number":"+49 6242 3679","old_slug":"67574-grundschule-osthofen-seebachschule","official_id":"21114","name":"Seebachschule","lon":8.328488,"lat":49.707209,"homepage_url":"http://www.seebachschule.de","federal_state_code":"RP","fax_number":"+49 6242 915965","email_address":"schulleitung@seebachschule.de","city":"Osthofen"},{"zip_code":"55288","street":"Am Sportplatz 2","school_type_entity":"Grundschule","school_type":"Grundschule","phone_number":"+49 6732 7201","old_slug":"55288-grundschule-partenheim","official_id":"24991","name":"Grundschule Partenheim","lon":8.072249,"lat":49.883327,"homepage_url":null,"federal_state_code":"RP","fax_number":"+49 6732 933348","email_address":"info-gspartenheim@kabelmail.de","city":"Partenheim"},{"zip_code":"55291","street":"Kapellenberg 1","school_type_entity":"Grundschule","school_type":"Grundschule","phone_number":"+49 6732 938460","old_slug":"55291-grundschule-saulheim","official_id":"24988","name":"Grundschule Saulheim","lon":8.147979,"lat":49.873131,"homepage_url":"http://www.grundschule-saulheim.de","federal_state_code":"RP","fax_number":"+49 6732 9384620","email_address":"info@gs-saulheim.de","city":"Saulheim"},{"zip_code":"55288","street":"Goethestr. 1","school_type_entity":"Grundschule","school_type":"Grundschule","phone_number":"+49 6732 3968","old_slug":"55288-grundschule-schornsheim","official_id":"17062","name":"Grundschule Schornsheim","lon":8.169712,"lat":49.846828,"homepage_url":null,"federal_state_code":"RP","fax_number":"+49 6732 9336907","email_address":"info@gs-schornsheim.de","city":"Schornsheim"},