[{"zip_code":"25767","street":"Wulf-Isebrand-Straße 2","school_type_entity":"Grundschule","school_type":"Grundschule","phone_number":"+49 4835 97760","old_slug":null,"official_id":"0702160","name":"Wulf-Isebrand-Schule","lon":9.287706,"lat":54.14371,"homepage_url":null,"federal_state_code":"SH","fax_number":"+49 4835 977322","email_address":null,"city":"Albersdorf"},{"zip_code":"23623","street":"Gartenweg 8 a","school_type_entity":"Gemeinschaftsschule","school_type":"Gemeinschaftsschule ohne Oberstufe","phone_number":"+49 4525 492430","old_slug":null,"official_id":"0707353","name":"Arnesboken-Schule","lon":10.568093,"lat":54.010431,"homepage_url":null,"federal_state_code":"SH","fax_number":"+49 4525 8978","email_address":null,"city":"Ahrensbök"},{"zip_code":"22926","street":"Schulstraße 13","school_type_entity":"FöZ mit dem SP geistige Entwicklung","school_type":"FöZ mit dem SP geistige Entwicklung","phone_number":"+49 4102 42422","old_slug":null,"official_id":"0703757","name":"Woldenhorn-Schule","lon":10.237123,"lat":53.677588,"homepage_url":null,"federal_state_code":"SH","fax_number":"+49 4102 44760","email_address":null,"city":"Ahrensburg"},{"zip_code":"22926","street":"Fritz-Reuter-Straße 51 - 53","school_type_entity":"FöZ mit dem SP Lernen","school_type":"FöZ mit dem SP Lernen","phone_number":"+49 4102 51700","old_slug":null,"official_id":"0703750","name":"Fritz-Reuter-Schule","lon":10.228491,"lat":53.674045,"homepage_url":null,"federal_state_code":"SH","fax_number":"+49 4102 517020","email_address":null,"city":"Ahrensburg"},{"zip_code":"22926","street":"Wulfsdorfer Weg 71","school_type_entity":"Gemeinschaftsschule","school_type":"Gemeinschaftsschule mit Oberstufe","phone_number":"+49 4102 51700","old_slug":null,"official_id":"0707714","name":"Selma-Lagerlöf-Gemeinschaftsschule Ahrensburg mit Oberstufe","lon":10.223279,"lat":53.672938,"homepage_url":null,"federal_state_code":"SH","fax_number":"+49 4102 880519","email_address":null,"city":"Ahrensburg"},{"zip_code":"22926","street":"Reesenbüttler Redder 4 - 10","school_type_entity":"Gymnasium","school_type":"Gymnasium","phone_number":"+49 4102 478430","old_slug":null,"official_id":"0705755","name":"Eric-Kandel-Gymnasium Ahrensburg","lon":10.218165,"lat":53.679326,"homepage_url":null,"federal_state_code":"SH","fax_number":"+49 4102 478417","email_address":null,"city":"Ahrensburg"},{"zip_code":"22926","street":"Schimmelmannstraße 46","school_type_entity":"Grundschule","school_type":"Grundschule","phone_number":"+49 4102 88760","old_slug":null,"official_id":"0702941","name":"Grundschule Am Reesenbüttel","lon":10.216247,"lat":53.675102,"homepage_url":null,"federal_state_code":"SH","fax_number":"+49 4102 887676","email_address":null,"city":"Ahrensburg"},{"zip_code":"22926","street":"Dänenweg 13","school_type_entity":"Grundschule","school_type":"Grundschule","phone_number":"+49 4102 57666","old_slug":null,"official_id":"0702940","name":"Grundschule Am Hagen","lon":10.21701,"lat":53.642288,"homepage_url":null,"federal_state_code":"SH","fax_number":"+49 4102 57677","email_address":null,"city":"Ahrensburg"},{"zip_code":"22926","street":"Waldstraße 14","school_type_entity":"Gymnasium","school_type":"Gymnasium","phone_number":"+49 4102 88030","old_slug":"22926-stormarnschule","official_id":"0705750","name":"Stormarnschule","lon":10.240593,"lat":53.669384,"homepage_url":"http://www.stormarnschule.de","federal_state_code":"SH","fax_number":"+49 4102 880330","email_address":"ly@sto.od.sh.schule.de","city":"Ahrensburg"},{"zip_code":"22926","street":"Schulstraße 4","school_type_entity":"Grundschule","school_type":"Grundschule","phone_number":"+49 4102 471417","old_slug":null,"official_id":"0702942","name":"Grundschule Am Schloß","lon":10.238391,"lat":53.678442,"homepage_url":null,"federal_state_code":"SH","fax_number":"+49 4102 471418","email_address":null,"city":"Ahrensburg"},{"zip_code":"22926","street":"Ahrensfelder Weg 43","school_type_entity":"Grundschule","school_type":"Grundschule","phone_number":"+49 4102 57595","old_slug":null,"official_id":"0702986","name":"Grundschule Am Aalfang","lon":10.243789,"lat":53.662164,"homepage_url":null,"federal_state_code":"SH","fax_number":"+49 4102 57526","email_address":null,"city":"Ahrensburg"},{"zip_code":"22926","street":"Hermann-Löns-Straße 38","school_type_entity":"Berufsbildende Schule","school_type":"Berufsbildende Schule","phone_number":"+49 4102 67830","old_slug":null,"official_id":"0706707","name":"Berufliche Schule des Kreises Stormarn in Ahrensburg","lon":10.230819,"lat":53.678965,"homepage_url":null,"federal_state_code":"SH","fax_number":"+49 4102 678331","email_address":null,"city":"Ahrensburg"},{"zip_code":"24161","street":"Klausdorfer Straße 74","school_type_entity":"FöZ mit dem SP Lernen","school_type":"FöZ mit dem SP Lernen","phone_number":"+49 431 328425","old_slug":null,"official_id":"0703558","name":"Helene-Dieckmann-Schule","lon":10.118032,"lat":54.399621,"homepage_url":null,"federal_state_code":"SH","fax_number":"+49 431 2404437","email_address":null,"city":"Altenholz"},{"zip_code":"25486","street":"Bahnhofstraße 4","school_type_entity":"Grundschule","school_type":"Grundschule","phone_number":"+49 4193 762906","old_slug":null,"official_id":"0702805","name":"Grundschule Alveslohe","lon":9.914376,"lat":53.79046,"homepage_url":null,"federal_state_code":"SH","fax_number":"+49 4193 2285","email_address":null,"city":"Alveslohe"},{"zip_code":"24161","street":"Danziger Straße 18 c","school_type_entity":"Gemeinschaftsschule","school_type":"Gemeinschaftsschule ohne Oberstufe","phone_number":"+49 431 2406116","old_slug":null,"official_id":"0707514","name":"Gemeinschaftsschule der Gemeinde Altenholz in Altenholz","lon":10.131218,"lat":54.384236,"homepage_url":null,"federal_state_code":"SH","fax_number":"+49 431 26096110","email_address":null,"city":"Altenholz"},{"zip_code":"24161","street":"Danziger Straße 18 a","school_type_entity":"Gymnasium","school_type":"Gymnasium","phone_number":"+49 431 5402860","old_slug":null,"official_id":"0705553","name":"Gymnasium Altenholz","lon":10.131218,"lat":54.384236,"homepage_url":null,"federal_state_code":"SH","fax_number":"+49 431 54028624","email_address":null,"city":"Altenholz"},{"zip_code":"23843","street":"Olivet-Allee 15","school_type_entity":"Gemeinschaftsschule","school_type":"Gemeinschaftsschule ohne Oberstufe","phone_number":"+49 4531 504660","old_slug":null,"official_id":"0707709","name":"Theodor-Storm-Schule","lon":10.364895,"lat":53.807073,"homepage_url":null,"federal_state_code":"SH","fax_number":"+49 4531 504664","email_address":null,"city":"Bad Oldesloe"},{"zip_code":"23795","street":"Burgfeldstraße 104","school_type_entity":"FöZ mit dem SP geistige Entwicklung","school_type":"FöZ mit dem SP geistige Entwicklung","phone_number":"+49 4551 90861713","old_slug":null,"official_id":"0703649","name":"Trave-Schule","lon":10.290191,"lat":53.925489,"homepage_url":null,"federal_state_code":"SH","fax_number":"+49 4551 93766","email_address":null,"city":"Bad Segeberg"},{"zip_code":"25704","street":"Klintweg 7","school_type_entity":"Grundschule","school_type":"Grundschule","phone_number":"+49 4832 1464","old_slug":null,"official_id":"0702162","name":"Grundschule Bargenstedt-Schafstedt","lon":9.152981,"lat":54.095985,"homepage_url":null,"federal_state_code":"SH","fax_number":"+49 4832 6006027","email_address":null,"city":"Bargenstedt"},{"zip_code":"23795","street":"Falkenburger Straße 94","school_type_entity":"FöZ mit dem SP Lernen","school_type":"FöZ mit dem SP Lernen","phone_number":"+49 4552 9933390","old_slug":null,"official_id":"0703651","name":"Franz-Claudius-Schule","lon":10.296333,"lat":53.930061,"homepage_url":null,"federal_state_code":"SH","fax_number":"+49 4551 961419","email_address":null,"city":"Bad Segeberg"},{"zip_code":"23795","street":"Falkenburger Str. 94 a","school_type_entity":"Gemeinschaftsschule","school_type":"Gemeinschaftsschule mit Oberstufe","phone_number":"+49 4551 96180","old_slug":null,"official_id":"0707604","name":"Schule am Burgfeld","lon":10.296333,"lat":53.930061,"homepage_url":null,"federal_state_code":"SH","fax_number":"+49 4551 961820","email_address":null,"city":"Bad Segeberg"},{"zip_code":"23795","street":"Seminarweg 5","school_type_entity":"Gemeinschaftsschule","school_type":"Gemeinschaftsschule ohne Oberstufe","phone_number":"+49 04551 96190","old_slug":null,"official_id":"0707603","name":"Gemeinschaftsschule am Seminarweg","lon":10.30676,"lat":53.936031,"homepage_url":null,"federal_state_code":"SH","fax_number":"+49 04551 961920","email_address":null,"city":"Bad Segeberg"},{"zip_code":"23795","street":"Am Markt 4","school_type_entity":"Gymnasium","school_type":"Gymnasium","phone_number":"+49 4551 96160","old_slug":null,"official_id":"0705653","name":"Dahlmannschule","lon":10.308688,"lat":53.935391,"homepage_url":null,"federal_state_code":"SH","fax_number":"+49 4551 961620","email_address":null,"city":"Bad Segeberg"},{"zip_code":"23795","street":"Hamburger Straße 29 a","school_type_entity":"Gymnasium","school_type":"Gymnasium","phone_number":"+49 4551 96150","old_slug":null,"official_id":"0705655","name":"Städtisches Gymnasium Segeberg","lon":10.301498,"lat":53.937107,"homepage_url":null,"federal_state_code":"SH","fax_number":"+49 4551 961520","email_address":null,"city":"Bad Segeberg"},{"zip_code":"23795","street":"Theodor-Storm-Straße 18 a","school_type_entity":"Grundschule","school_type":"Grundschule","phone_number":"+49 4551 96250","old_slug":null,"official_id":"0702883","name":"Theodor-Storm-Schule","lon":10.304564,"lat":53.933332,"homepage_url":null,"federal_state_code":"SH","fax_number":"+49 4551 962518","email_address":null,"city":"Bad Segeberg"},{"zip_code":"23795","street":"Schillerstraße 17","school_type_entity":"Grundschule","school_type":"Grundschule","phone_number":"+49 4551 96170","old_slug":null,"official_id":"0702808","name":"Heinrich-Rantzau-Schule","lon":10.302307,"lat":53.944693,"homepage_url":null,"federal_state_code":"SH","fax_number":"+49 4551 961720","email_address":null,"city":"Bad Segeberg"},{"zip_code":"23611","street":"Am Kirchhof 10","school_type_entity":"FöZ mit dem SP geistige Entwicklung","school_type":"FöZ mit dem SP geistige Entwicklung","phone_number":"+49 451 23236","old_slug":null,"official_id":"0703413","name":"Schule am Papenmoor -FöZ-","lon":10.680686,"lat":53.923399,"homepage_url":null,"federal_state_code":"SH","fax_number":"+49 451 2036330","email_address":null,"city":"Bad Schwartau"},{"zip_code":"23795","street":"Theodor-Storm-Straße 9 - 11","school_type_entity":"Berufsbildende Schule","school_type":"Berufsbildende Schule","phone_number":"+49 4551 959825","old_slug":null,"official_id":"0706666","name":"Berufsbildungszentrum Bad Segeberg","lon":10.304254,"lat":53.932708,"homepage_url":null,"federal_state_code":"SH","fax_number":"+49 4551 9631","email_address":null,"city":"Bad Segeberg"},{"zip_code":"23611","street":"Am Hochkamp","school_type_entity":"FöZ mit dem SP Lernen","school_type":"FöZ mit dem SP Lernen","phone_number":"+49 451 20007150","old_slug":null,"official_id":"0703400","name":"Schule am Hochkamp -FöZ-","lon":10.693929,"lat":53.921445,"homepage_url":null,"federal_state_code":"SH","fax_number":"+49 451 2900574","email_address":null,"city":"Bad Schwartau"},{"zip_code":"24327","street":"Radeberg 20","school_type_entity":"Grundschule","school_type":"Grundschule","phone_number":"+49 4383 781","old_slug":null,"official_id":"0702567","name":"Grundschule des Schulverbandes Blekendorf in Blekendorf - Ostseeschule","lon":10.65649,"lat":54.283395,"homepage_url":null,"federal_state_code":"SH","fax_number":"+49 4381 7620","email_address":null,"city":"Blekendorf"},{"zip_code":"23919","street":"Berliner Straße 20","school_type_entity":"Gemeinschaftsschule","school_type":"Gemeinschaftsschule ohne Oberstufe","phone_number":"+49 4508 257","old_slug":null,"official_id":"0707251","name":"Grund- und Gemeinschaftsschule Stecknitz","lon":10.640062,"lat":53.731249,"homepage_url":null,"federal_state_code":"SH","fax_number":"+49 4544 430","email_address":null,"city":"Berkenthin"},{"zip_code":"22885","street":"Soltausredder 28","school_type_entity":"Gemeinschaftsschule","school_type":"Gemeinschaftsschule mit Oberstufe","phone_number":"+49 40 6708580","old_slug":null,"official_id":"0707719","name":"Erich Kästner Gemeinschaftsschule Barsbüttel mit Oberstufe","lon":10.163646,"lat":53.574159,"homepage_url":null,"federal_state_code":"SH","fax_number":"+49 40 67085829","email_address":null,"city":"Barsbüttel"},{"zip_code":"25712","street":"Bahnhofstraße 33","school_type_entity":"Grundschule","school_type":"Grundschule","phone_number":"+49 4825 2249","old_slug":null,"official_id":"0702169","name":"Grundschule Burg","lon":9.258065,"lat":54.001255,"homepage_url":null,"federal_state_code":"SH","fax_number":"+49 4825 923324","email_address":null,"city":"Burg (Dithmarschen)"},{"zip_code":"21039","street":"Hamfelderedder 17","school_type_entity":"Grundschule","school_type":"Grundschule","phone_number":"+49 40 73924320","old_slug":null,"official_id":"0702277","name":"Dalbek-Schule Börnsen","lon":10.288909,"lat":53.474868,"homepage_url":null,"federal_state_code":"SH","fax_number":"+49 40 739243229","email_address":null,"city":"Börnsen"},{"zip_code":"24340","street":"Bergstraße 26","school_type_entity":"Grundschule","school_type":"Grundschule","phone_number":"+49 4351 726580","old_slug":null,"official_id":"0702649","name":"Richard-Vosgerau-Schule","lon":9.839734,"lat":54.477474,"homepage_url":null,"federal_state_code":"SH","fax_number":"+49 4351 7265850","email_address":null,"city":"Eckernförde"},{"zip_code":"24229","street":"Schulstraße 13","school_type_entity":"Grundschule","school_type":"Grundschule","phone_number":"+49 4349 270","old_slug":null,"official_id":"0702644","name":"Grundschule Dänischenhagen","lon":10.125575,"lat":54.425357,"homepage_url":null,"federal_state_code":"SH","fax_number":"+49 4349 913528","email_address":null,"city":"Dänischenhagen"},{"zip_code":"24340","street":"Sauerstraße 16","school_type_entity":"Grundschule","school_type":"Grundschule","phone_number":"+49 4351 769590","old_slug":null,"official_id":"0702742","name":"Gorch-Fock-Schule","lon":9.841519,"lat":54.447921,"homepage_url":null,"federal_state_code":"SH","fax_number":"+49 4351 7695950","email_address":null,"city":"Eckernförde"},{"zip_code":"25786","street":"Schulstraße 18","school_type_entity":"Grundschule","school_type":"Grundschule","phone_number":"+49 4803 366","old_slug":null,"official_id":"0702218","name":"Eiderschule","lon":9.373351,"lat":54.234913,"homepage_url":null,"federal_state_code":"SH","fax_number":"+49 4802 751528","email_address":null,"city":"Dellstedt"},{"zip_code":"25853","street":"Karkenweg 22","school_type_entity":"Grundschule","school_type":"Grundschule","phone_number":"+49 4673 415","old_slug":null,"official_id":"0702333","name":"Grundschule des Schulverbandes Mittleres Nordfriesland in Drelsdorf mit  Außenstelle in Joldelund - Lüttschool Drelsdorf-Joldelund","lon":9.039344,"lat":54.603616,"homepage_url":null,"federal_state_code":"SH","fax_number":"+49 4671 1008","email_address":null,"city":"Drelsdorf"},{"zip_code":"21521","street":"Bornweg 18","school_type_entity":"Grundschule","school_type":"Grundschule","phone_number":"+49 4104 69090","old_slug":null,"official_id":"0702281","name":"Alfried-Otto-Schule","lon":10.355288,"lat":53.493383,"homepage_url":null,"federal_state_code":"SH","fax_number":"+49 4104 690929","email_address":null,"city":"Dassendorf"},{"zip_code":"25474","street":"Ellerbeker Straße 25","school_type_entity":"Gemeinschaftsschule","school_type":"Gemeinschaftsschule ohne Oberstufe","phone_number":"+49 40 5560400","old_slug":null,"official_id":"0707406","name":"Gemeinschaftsschule des Amtes Pinnau in Bönningstedt","lon":9.901542,"lat":53.662728,"homepage_url":null,"federal_state_code":"SH","fax_number":"+49 40 55604034","email_address":null,"city":"Bönningstedt"},{"zip_code":"24351","street":"Passatring 4","school_type_entity":"FöZ mit dem SP körperliche und motorische Entwicklung","school_type":"FöZ mit dem SP körperliche und motorische Entwicklung","phone_number":"+49 4352 808324","old_slug":"24351-internat-der-helen-keller-schule-staatliche-schule-fuer-koerperbehinderte-im-ostseebad-damp","official_id":"0703565","name":"Helen-Keller-Schule","lon":10.019921,"lat":54.580407,"homepage_url":"http://www.damp-akademie.de/internat.html","federal_state_code":"SH","fax_number":"+49 4352 808355","email_address":"internat@damp.de","city":"Damp"},{"zip_code":"24620","street":"Plöner Chaussee","school_type_entity":"Grundschule","school_type":"Grundschule","phone_number":"+49 4394 275","old_slug":null,"official_id":"0702581","name":"Grundschule der Gemeinde Bönebüttel in Bönebüttel","lon":10.0485325,"lat":54.0695108,"homepage_url":null,"federal_state_code":"SH","fax_number":"+49 4321 6022056","email_address":null,"city":"Bönebüttel"},{"zip_code":"24860","street":"Stolker Straße 4","school_type_entity":"Gemeinschaftsschule","school_type":"Gemeinschaftsschule ohne Oberstufe","phone_number":"+49 4623 180280","old_slug":null,"official_id":"0707566","name":"Auenwaldschule","lon":9.575539,"lat":54.602987,"homepage_url":null,"federal_state_code":"SH","fax_number":"+49 4623 180285","email_address":null,"city":"Böklund"},{"zip_code":"25474","street":"Kieler Straße 118","school_type_entity":"Grundschule","school_type":"Grundschule","phone_number":"+49 40 5566030","old_slug":null,"official_id":"0702488","name":"Grundschule Bönningstedt","lon":9.903706,"lat":53.66748,"homepage_url":null,"federal_state_code":"SH","fax_number":"+49 40 471","email_address":null,"city":"Bönningstedt"},{"zip_code":"24860","street":"Stolker Straße 4","school_type_entity":"Grundschule","school_type":"Grundschule","phone_number":"+49 4623 180280","old_slug":null,"official_id":"0702751","name":"Auenwaldschule Grundschule Böklund","lon":9.575539,"lat":54.602987,"homepage_url":null,"federal_state_code":"SH","fax_number":"+49 4623 180285","email_address":null,"city":"Böklund"},{"zip_code":"25337","street":"Binsenweg 1","school_type_entity":"Gemeinschaftsschule","school_type":"Gemeinschaftsschule ohne Oberstufe","phone_number":"+49 4121 9089028","old_slug":null,"official_id":"0707408","name":"Anne-Frank-Gemeinschaftsschule","lon":9.670771,"lat":53.751745,"homepage_url":null,"federal_state_code":"SH","fax_number":"+49 4121 791619","email_address":null,"city":"Elmshorn"},{"zip_code":"25335","street":"Bismarckstraße 2","school_type_entity":"Gymnasium","school_type":"Gymnasium","phone_number":"+49 4121 9084010","old_slug":null,"official_id":"0705450","name":"Bismarckschule Elmshorn","lon":9.653857,"lat":53.75601,"homepage_url":null,"federal_state_code":"SH","fax_number":"+49 4121 90840125","email_address":null,"city":"Elmshorn"},{"zip_code":"25337","street":"Zum Krückaupark 7","school_type_entity":"Gymnasium","school_type":"Gymnasium","phone_number":"+49 4121 43670","old_slug":"25337-elsa-braendstroem-schule","official_id":"0705451","name":"Elsa-Brändström-Schule","lon":9.674203,"lat":53.757355,"homepage_url":"http://www.ebs-elmshorn.de","federal_state_code":"SH","fax_number":"+49 4121 436744","email_address":"cejaekel@aol.com","city":"Elmshorn"},{"zip_code":"24357","street":"Am Holm 2","school_type_entity":"Grundschule","school_type":"Grundschule","phone_number":"+49 4354 376","old_slug":null,"official_id":"0702654","name":"Grundschule Fleckeby","lon":9.703787,"lat":54.483427,"homepage_url":null,"federal_state_code":"SH","fax_number":"+49 4354 1011","email_address":null,"city":"Fleckeby"},{"zip_code":"24242","street":"Dorfstraße 93","school_type_entity":"Grundschule","school_type":"Grundschule","phone_number":"+49 4305 758","old_slug":null,"official_id":"0702652","name":"Grundschule des Amtes Achterwehr in Felde","lon":9.930359,"lat":54.298685,"homepage_url":null,"federal_state_code":"SH","fax_number":"+49 4340 402563","email_address":null,"city":"Felde"},{"zip_code":"24937","street":"Friesische Lücke 7","school_type_entity":"Gemeinschaftsschule","school_type":"Gemeinschaftsschule ohne Oberstufe","phone_number":"+49 461 852538","old_slug":null,"official_id":"0707003","name":"Gemeinschaftsschule Flensburg-West","lon":9.421855,"lat":54.77656,"homepage_url":null,"federal_state_code":"SH","fax_number":"+49 461 851728","email_address":null,"city":"Flensburg"},{"zip_code":"24943","street":"Mommsenstraße 45","school_type_entity":"Gemeinschaftsschule","school_type":"Gemeinschaftsschule ohne Oberstufe","phone_number":"+49 461 852540","old_slug":null,"official_id":"0707006","name":"Käte-Lassen-Schule","lon":9.450401,"lat":54.78801,"homepage_url":null,"federal_state_code":"SH","fax_number":"+49 461 851646","email_address":null,"city":"Flensburg"},{"zip_code":"24937","street":"Südergraben 34","school_type_entity":"Gymnasium","school_type":"Gymnasium","phone_number":"+49 461 852048","old_slug":"24937-auguste-viktoria-schule","official_id":"0705001","name":"Auguste-Viktoria-Schule","lon":9.43137,"lat":54.782403,"homepage_url":"http://www.avs.flensburg.de","federal_state_code":"SH","fax_number":"+49 461 851718","email_address":"schule@avs.flensburg.de","city":"Flensburg"},{"zip_code":"24937","street":"Selckstraße 1","school_type_entity":"Gymnasium","school_type":"Gymnasium","phone_number":"+49 461 852902","old_slug":null,"official_id":"0705000","name":"Altes Gymnasium","lon":9.428373,"lat":54.788884,"homepage_url":null,"federal_state_code":"SH","fax_number":"+49 461 851726","email_address":null,"city":"Flensburg"},{"zip_code":"24943","street":"Elbestraße 10","school_type_entity":"Gymnasium","school_type":"Gymnasium","phone_number":"+49 461 852507","old_slug":"24943-foerdegymnasium-flensburg","official_id":"0705002","name":"Fördegymnasium","lon":9.464993,"lat":54.802311,"homepage_url":"http://www.foerdegym.flensburg.de","federal_state_code":"SH","fax_number":"+49 461 851645","email_address":"foerdegym@foerdegym.flensburg.de","city":"Flensburg"},{"zip_code":"24943","street":"Bismarckstraße 41","school_type_entity":"Gymnasium","school_type":"Gymnasium","phone_number":"+49 461 852536","old_slug":null,"official_id":"0705003","name":"Goethe-Schule","lon":9.442983,"lat":54.786472,"homepage_url":null,"federal_state_code":"SH","fax_number":"+49 461 851744","email_address":null,"city":"Flensburg"},{"zip_code":"24941","street":"Lundweg 30","school_type_entity":"Grundschule","school_type":"Grundschule","phone_number":"+49 461 852556","old_slug":null,"official_id":"0702020","name":"Schule auf der Rude","lon":9.428771,"lat":54.772663,"homepage_url":null,"federal_state_code":"SH","fax_number":"+49 461 851642","email_address":null,"city":"Flensburg"},{"zip_code":"24937","street":"Emil-Nolde-Straße 31","school_type_entity":"Grundschule","school_type":"Grundschule","phone_number":"+49 461 852548","old_slug":null,"official_id":"0702021","name":"Falkenbergschule","lon":9.41059,"lat":54.782594,"homepage_url":null,"federal_state_code":"SH","fax_number":"+49 461 851643","email_address":null,"city":"Flensburg"},{"zip_code":"24939","street":"Waldstraße 44","school_type_entity":"Grundschule","school_type":"Grundschule","phone_number":"+49 461 852545","old_slug":null,"official_id":"0702024","name":"Waldschule","lon":9.417192,"lat":54.794193,"homepage_url":null,"federal_state_code":"SH","fax_number":"+49 461 851725","email_address":null,"city":"Flensburg"},{"zip_code":"24943","street":"Glücksburger Straße 38 a","school_type_entity":"Grundschule","school_type":"Grundschule","phone_number":"+49 461 852587","old_slug":null,"official_id":"0702022","name":"Hohlwegschule","lon":9.447125,"lat":54.784461,"homepage_url":null,"federal_state_code":"SH","fax_number":"+49 461 851724","email_address":null,"city":"Flensburg"},{"zip_code":"24939","street":"Bauer Landstraße 37-39","school_type_entity":"Grundschule","school_type":"Grundschule","phone_number":"+49 461 852541","old_slug":null,"official_id":"0702023","name":"Schule Ramsharde","lon":9.413582,"lat":54.8044076,"homepage_url":null,"federal_state_code":"SH","fax_number":"+49 461 851751","email_address":null,"city":"Flensburg"},{"zip_code":"24395","street":"Norderholm 38","school_type_entity":"Grundschule","school_type":"Grundschule","phone_number":"+49 4643 183401","old_slug":null,"official_id":"0702238","name":"Georg-Asmussen-Schule Gelting","lon":9.899511,"lat":54.75095,"homepage_url":null,"federal_state_code":"SH","fax_number":"+49 4643 183405","email_address":null,"city":"Gelting"},{"zip_code":"21502","street":"Dialogweg 2","school_type_entity":"FöZ mit dem SP geistige Entwicklung","school_type":"FöZ mit dem SP geistige Entwicklung","phone_number":"+49 4152 84940","old_slug":null,"official_id":"0703302","name":"Hachede-Schule","lon":10.382709,"lat":53.443239,"homepage_url":null,"federal_state_code":"SH","fax_number":"+49 4152 849415","email_address":null,"city":"Geesthacht"},{"zip_code":"21502","street":"Neuer Krug 33 - 35","school_type_entity":"FöZ mit dem SP Lernen","school_type":"FöZ mit dem SP Lernen","phone_number":"+49 4152 918364","old_slug":"21502-foerderschule-geesthacht","official_id":"0703301","name":"Förderschule Geesthacht","lon":10.364427,"lat":53.43829,"homepage_url":"http://www.Foerderschule-Geesthacht.de","federal_state_code":"SH","fax_number":"+49 4152 83063","email_address":"info@foerderschule-geesthacht.de","city":"Geesthacht"},{"zip_code":"22927","street":"Sieker Landstraße 203","school_type_entity":"Gymnasium","school_type":"Gymnasium","phone_number":"+49 4102 4586","old_slug":null,"official_id":"0705751","name":"Emil-von-Behring-Gymnasium","lon":10.275898,"lat":53.646816,"homepage_url":null,"federal_state_code":"SH","fax_number":"+49 4102 458623","email_address":null,"city":"Großhansdorf"},{"zip_code":"22927","street":"Wöhrendamm 59","school_type_entity":"Grundschule","school_type":"Grundschule","phone_number":"+49 4102 63592","old_slug":null,"official_id":"0702956","name":"Grundschule Wöhrendamm","lon":10.283696,"lat":53.661458,"homepage_url":null,"federal_state_code":"SH","fax_number":"+49 4102 62403","email_address":null,"city":"Großhansdorf"},{"zip_code":"24955","street":"Alt Frösleer Weg 39","school_type_entity":"Gemeinschaftsschule","school_type":"Gemeinschaftsschule ohne Oberstufe","phone_number":"+49 461 978710","old_slug":null,"official_id":"0707555","name":"Zentralschule Harrislee","lon":9.394653,"lat":54.80659,"homepage_url":null,"federal_state_code":"SH","fax_number":"+49 461 9787129","email_address":null,"city":"Harrislee"},{"zip_code":"25746","street":"Süderholmer Straße 65","school_type_entity":"Grundschule","school_type":"Grundschule","phone_number":"+49 481 87267","old_slug":null,"official_id":"0702183","name":"Schulen am Moor","lon":9.156835,"lat":54.202829,"homepage_url":null,"federal_state_code":"SH","fax_number":"+49 481 7870257","email_address":null,"city":"Heide"},{"zip_code":"25856","street":"Nordseestraße","school_type_entity":"Grundschule","school_type":"Grundschule","phone_number":"+49 4846 236","old_slug":null,"official_id":"0702348","name":"Jens-Iwersen-Schule","lon":9.016658,"lat":54.524818,"homepage_url":null,"federal_state_code":"SH","fax_number":"+49 4846 1744","email_address":null,"city":"Hattstedt"},{"zip_code":"24376","street":"Raiffeisenstraße 14","school_type_entity":"Grundschule","school_type":"Grundschule","phone_number":"+49 4642 6121","old_slug":null,"official_id":"0702257","name":"Grundschule Kieholm","lon":9.945991,"lat":54.710479,"homepage_url":null,"federal_state_code":"SH","fax_number":"+49 4642 965082","email_address":null,"city":"Hasselberg"},{"zip_code":"25474","street":"Schulstraße 21","school_type_entity":"Grundschule","school_type":"Grundschule","phone_number":"+49 4106 2291","old_slug":null,"official_id":"0702508","name":"Peter-Lunding-Schule Grundschule Hasloh","lon":9.915828,"lat":53.691428,"homepage_url":null,"federal_state_code":"SH","fax_number":"+49 4106 626971","email_address":null,"city":"Hasloh"},{"zip_code":"25489","street":"Kamperrege 1","school_type_entity":"Grundschule","school_type":"Grundschule","phone_number":"+49 4103 7029040","old_slug":null,"official_id":"0702507","name":"Grundschule Haseldorfer Marsch","lon":9.604347,"lat":53.633998,"homepage_url":null,"federal_state_code":"SH","fax_number":"+49 4129 955985","email_address":null,"city":"Haseldorf"},{"zip_code":"24983","street":"Alter Kirchenweg 38","school_type_entity":"Gemeinschaftsschule","school_type":"Gemeinschaftsschule mit Oberstufe","phone_number":"+49 4630 498","old_slug":null,"official_id":"0707552","name":"Gemeinschaftsschule mit Oberstufe mit Grundschulteil und Förderzentrum der Gemeinde Handewitt","lon":9.329988,"lat":54.768676,"homepage_url":null,"federal_state_code":"SH","fax_number":"+49 4608 900322","email_address":null,"city":"Handewitt"},{"zip_code":"24805","street":"Dorfstraße 8","school_type_entity":"Grundschule","school_type":"Grundschule","phone_number":"+49 4332 221","old_slug":null,"official_id":"0702669","name":"Grundschule des Amtes Hohner Harde in Hamdorf","lon":9.518805,"lat":54.224648,"homepage_url":null,"federal_state_code":"SH","fax_number":"+49 4332 991236","email_address":null,"city":"Hamdorf"},{"zip_code":"25557","street":"Hafenstraße 20","school_type_entity":"Gemeinschaftsschule","school_type":"Gemeinschaftsschule ohne Oberstufe","phone_number":"+49 4874 212","old_slug":null,"official_id":"0707506","name":"Theodor-Storm-Dörfergemeinschaftsschule","lon":9.407718,"lat":54.128472,"homepage_url":null,"federal_state_code":"SH","fax_number":"+49 4872 3974","email_address":null,"city":"Hanerau-Hademarschen"},{"zip_code":"23619","street":"Schulstraße 10","school_type_entity":"Grundschule","school_type":"Grundschule","phone_number":"+49 451 891406","old_slug":null,"official_id":"0702958","name":"Grundschule Hamberge","lon":10.580403,"lat":53.841335,"homepage_url":null,"federal_state_code":"SH","fax_number":"+49  ","email_address":null,"city":"Hamberge"},{"zip_code":"25469","street":"Hartkirchener Chaussee 8","school_type_entity":"Gemeinschaftsschule","school_type":"Gemeinschaftsschule ohne Oberstufe","phone_number":"+49 4101 58980100","old_slug":null,"official_id":"0707404","name":"Grund- und Gemeinschaftsschule an der Bek in Halstenbek","lon":9.837944,"lat":53.632163,"homepage_url":null,"federal_state_code":"SH","fax_number":"+49 4101 58980200","email_address":null,"city":"Halstenbek"},{"zip_code":"25469","street":"Bickbargen 111","school_type_entity":"Gymnasium","school_type":"Gymnasium","phone_number":"+49 4101 84280","old_slug":null,"official_id":"0705459","name":"Wolfgang-Borchert-Gymnasium","lon":9.86351,"lat":53.621074,"homepage_url":null,"federal_state_code":"SH","fax_number":"+49 4101 842844","email_address":null,"city":"Halstenbek"},{"zip_code":"24558","street":"Schulstraße 9","school_type_entity":"Grundschule","school_type":"Grundschule","phone_number":"+49 4193 6037","old_slug":null,"official_id":"0702830","name":"Grundschule Ulzburg","lon":9.976757,"lat":53.790132,"homepage_url":null,"federal_state_code":"SH","fax_number":"+49 4193 993994","email_address":null,"city":"Henstedt-Ulzburg"},{"zip_code":"24558","street":"Abschiedskoppel 6","school_type_entity":"Grundschule","school_type":"Grundschule","phone_number":"+49 4193 8825115","old_slug":null,"official_id":"0702886","name":"Grundschule Lütte School","lon":9.980445,"lat":53.776284,"homepage_url":null,"federal_state_code":"SH","fax_number":"+49 4193 8825116","email_address":null,"city":"Henstedt-Ulzburg"},{"zip_code":"25779","street":"Schulstraße 29 - 31","school_type_entity":"Gemeinschaftsschule","school_type":"Gemeinschaftsschule ohne Oberstufe","phone_number":"+49 4882 65600","old_slug":null,"official_id":"0707204","name":"Eiderlandschule Hennstedt","lon":9.710995,"lat":54.030669,"homepage_url":null,"federal_state_code":"SH","fax_number":"+49 4836 639","email_address":null,"city":"Hennstedt"},{"zip_code":"24975","street":"Schulstraße 16","school_type_entity":"Grundschule","school_type":"Grundschule","phone_number":"+49 4634 260","old_slug":null,"official_id":"0702247","name":"Grundschule Husby","lon":9.581401,"lat":54.766496,"homepage_url":null,"federal_state_code":"SH","fax_number":"+49 4634 931494","email_address":null,"city":"Husby"},{"zip_code":"25358","street":"Heisterender Weg 19","school_type_entity":"Gemeinschaftsschule","school_type":"Gemeinschaftsschule ohne Oberstufe","phone_number":"+49 4126 38251","old_slug":null,"official_id":"0707651","name":"Jacob-Struve-Schule","lon":9.622598,"lat":53.815419,"homepage_url":null,"federal_state_code":"SH","fax_number":"+49 4126 38246","email_address":null,"city":"Horst (Holstein)"},{"zip_code":"25358","street":"Birkenweg 19","school_type_entity":"Grundschule","school_type":"Grundschule","phone_number":"+49 4126 39790","old_slug":null,"official_id":"0702930","name":"Grundschule Op de Host","lon":9.61405,"lat":53.810418,"homepage_url":null,"federal_state_code":"SH","fax_number":"+49 4126 397919","email_address":null,"city":"Horst (Holstein)"},{"zip_code":"24363","street":"Dorfstraße 14","school_type_entity":"Grundschule","school_type":"Grundschule","phone_number":"+49 4356 245","old_slug":null,"official_id":"0702676","name":"Schule am See","lon":9.855746,"lat":54.400455,"homepage_url":null,"federal_state_code":"SH","fax_number":"+49 4357 999699","email_address":null,"city":"Holtsee"},{"zip_code":"25524","street":"Gorch-Fock-Straße 17","school_type_entity":"Gemeinschaftsschule","school_type":"Gemeinschaftsschule ohne Oberstufe","phone_number":"+49 4821 4039890","old_slug":null,"official_id":"0707660","name":"Wolfgang-Borchert-Schule","lon":9.51315,"lat":53.933648,"homepage_url":null,"federal_state_code":"SH","fax_number":"+49 4821 80408940","email_address":null,"city":"Itzehoe"},{"zip_code":"25524","street":"Gr. Paaschburg 68","school_type_entity":"Gymnasium","school_type":"Gymnasium","phone_number":"+49 4821 67410","old_slug":null,"official_id":"0705701","name":"Auguste-Viktoria-Schule","lon":9.524641,"lat":53.920081,"homepage_url":null,"federal_state_code":"SH","fax_number":"+49 4821 674139","email_address":null,"city":"Itzehoe"},{"zip_code":"25524","street":"Hinterm Sandberg 1 - 3","school_type_entity":"Gymnasium","school_type":"Gymnasium","phone_number":"+49 4821 2764","old_slug":null,"official_id":"0705702","name":"Kaiser-Karl-Schule","lon":9.519067,"lat":53.922995,"homepage_url":null,"federal_state_code":"SH","fax_number":"+49 4821 3210","email_address":null,"city":"Itzehoe"},{"zip_code":"25524","street":"Am Lehmwohld 41","school_type_entity":"Gymnasium","school_type":"Gymnasium","phone_number":"+49 4821 75021","old_slug":null,"official_id":"0705703","name":"Sophie-Scholl-Gymnasium","lon":9.509057,"lat":53.937326,"homepage_url":null,"federal_state_code":"SH","fax_number":"+49 4821 75022","email_address":null,"city":"Itzehoe"},{"zip_code":"25524","street":"Obere Dorfstraße 8","school_type_entity":"Grundschule","school_type":"Grundschule","phone_number":"+49 4821 404990","old_slug":null,"official_id":"0702903","name":"Grundschule Edendorf","lon":9.498716,"lat":53.951692,"homepage_url":null,"federal_state_code":"SH","fax_number":"+49 4821 4049913","email_address":null,"city":"Itzehoe"},{"zip_code":"25524","street":"Ansgarstraße 10","school_type_entity":"Grundschule","school_type":"Grundschule","phone_number":"+49 4821 17650","old_slug":"25524-grundschule-sude-west","official_id":"0702904","name":"Grundschule Sude-West","lon":9.49173,"lat":53.93692,"homepage_url":"http://www.gs-sude-west.de","federal_state_code":"SH","fax_number":"+49 4821 1765","email_address":"gs-sude-west@t-online.de","city":"Itzehoe"},{"zip_code":"25524","street":"Kamper Weg 105 - 107","school_type_entity":"Grundschule","school_type":"Grundschule","phone_number":"+49 4821 89630","old_slug":null,"official_id":"0702905","name":"Grundschule Wellenkamp","lon":9.484949,"lat":53.908111,"homepage_url":null,"federal_state_code":"SH","fax_number":"+49 4821 896320","email_address":null,"city":"Itzehoe"},{"zip_code":"25524","street":"Schäferkoppel 2","school_type_entity":"Grundschule","school_type":"Grundschule","phone_number":"+49 4821 40480","old_slug":null,"official_id":"0702908","name":"Ernst-Moritz-Arndt-Schule","lon":9.51961,"lat":53.941129,"homepage_url":null,"federal_state_code":"SH","fax_number":"+49 4821 404822","email_address":null,"city":"Itzehoe"},{"zip_code":"25524","street":"Fehrsstraße 16","school_type_entity":"Grundschule","school_type":"Grundschule","phone_number":"+49 4821 92042","old_slug":null,"official_id":"0702909","name":"Fehrs-Schule","lon":9.527682,"lat":53.92517,"homepage_url":null,"federal_state_code":"SH","fax_number":"+49 4821 92054","email_address":null,"city":"Itzehoe"},{"zip_code":"25524","street":"Juliengardeweg 9","school_type_entity":"Berufsbildende Schule","school_type":"Berufsbildende Schule","phone_number":"+49 4822 3655119","old_slug":null,"official_id":"0706685","name":"Regionales Berufsbildungszentrum des Kreises Steinburg","lon":9.516984,"lat":53.932011,"homepage_url":null,"federal_state_code":"SH","fax_number":"+49 4821 68355","email_address":null,"city":"Itzehoe"},{"zip_code":"25813","street":"Hermann-Tast-Straße 62","school_type_entity":"FöZ mit dem SP geistige Entwicklung","school_type":"FöZ mit dem SP geistige Entwicklung","phone_number":"+49 4841 83640","old_slug":null,"official_id":"0703358","name":"Rungholtschule","lon":9.056371,"lat":54.486855,"homepage_url":null,"federal_state_code":"SH","fax_number":"+49 4841 836434","email_address":null,"city":"Husum"},{"zip_code":"24398","street":"Schulweg 6","school_type_entity":"Grundschule","school_type":"Grundschule","phone_number":"+49 4644 239","old_slug":null,"official_id":"0702764","name":"Grundschule Karby","lon":9.97706,"lat":54.622316,"homepage_url":null,"federal_state_code":"SH","fax_number":"+49 4644 973197","email_address":null,"city":"Karby"},{"zip_code":"24376","street":"Hindenburgstraße 2","school_type_entity":"Gemeinschaftsschule","school_type":"Gemeinschaftsschule ohne Oberstufe","phone_number":"+49 4642 2176","old_slug":null,"official_id":"0707557","name":"Gemeinschaftsschule an der Schlei","lon":9.924935,"lat":54.662063,"homepage_url":null,"federal_state_code":"SH","fax_number":"+49 4642 2180","email_address":null,"city":"Kappeln"},{"zip_code":"24145","street":"Schoolkamp 14","school_type_entity":"Grundschule","school_type":"Grundschule","phone_number":"+49 431 26093070","old_slug":null,"official_id":"0702054","name":"Grundschule Wellsee","lon":10.16521,"lat":54.288047,"homepage_url":null,"federal_state_code":"SH","fax_number":"+49 431 26093099","email_address":null,"city":"Kiel"},{"zip_code":"24159","street":"Fritz-Reuter-Straße 79 - 85","school_type_entity":"Grundschule","school_type":"Grundschule","phone_number":"+49 431 220870","old_slug":null,"official_id":"0702061","name":"Fritz-Reuter-Schule","lon":10.168345,"lat":54.395519,"homepage_url":null,"federal_state_code":"SH","fax_number":"+49 431 2208729","email_address":null,"city":"Kiel"},{"zip_code":"24143","street":"Iltisstraße 82","school_type_entity":"Grundschule","school_type":"Grundschule","phone_number":"+49 431 76617","old_slug":"24143-froebelschule","official_id":"0702062","name":"Grundschule Fröbelschule","lon":10.144919,"lat":54.305522,"homepage_url":"http://froebelschule-kiel.lernnetz.de/","federal_state_code":"SH","fax_number":"+49 431 75844","email_address":"froebelschule-kiel@t-online.de","city":"Kiel"},{"zip_code":"24148","street":"Große Ziegelstraße 62","school_type_entity":"Grundschule","school_type":"Grundschule","phone_number":"+49 431 724980","old_slug":null,"official_id":"0702063","name":"Gerhart-Hauptmann-Schule -Grundschule-","lon":10.164166,"lat":54.311998,"homepage_url":null,"federal_state_code":"SH","fax_number":"+49 431 721089","email_address":null,"city":"Kiel"},{"zip_code":"24114","street":"Paul-Fleming-Straße 1","school_type_entity":"Gymnasium","school_type":"Gymnasium","phone_number":"+49 431 2604390","old_slug":"24114-kaethe-kollwitz-schule","official_id":"0705053","name":"Käthe-Kollwitz-Schule","lon":10.116568,"lat":54.319526,"homepage_url":"http://www.kaethe-kollwitz-schule.de","federal_state_code":"SH","fax_number":"+49 431 26043939","email_address":"kaethe-kollwitz-schule-kiel@t-online.de","city":"Kiel"},{"zip_code":"24116","street":"Knooper Weg 63","school_type_entity":"Gymnasium","school_type":"Gymnasium","phone_number":"+49 431 26040370","old_slug":null,"official_id":"0705052","name":"Humboldt-Schule","lon":10.127169,"lat":54.326195,"homepage_url":null,"federal_state_code":"SH","fax_number":"+49 431 26040399","email_address":null,"city":"Kiel"},{"zip_code":"24105","street":"Feldstraße 19","school_type_entity":"Gymnasium","school_type":"Gymnasium","phone_number":"+49 431 567274","old_slug":"24105-kieler-gelehrtenschule","official_id":"0705054","name":"Kieler Gelehrtenschule","lon":10.139106,"lat":54.331522,"homepage_url":"http://www.kieler-gelehrtenschule.de","federal_state_code":"SH","fax_number":"+49 431 562005","email_address":"j.hamkens@gmx.de","city":"Kiel"},{"zip_code":"24114","street":"Winterbeker Weg 1","school_type_entity":"Gymnasium","school_type":"Gymnasium","phone_number":"+49 431 6499280","old_slug":null,"official_id":"0705055","name":"Max-Planck-Schule","lon":10.11908,"lat":54.312114,"homepage_url":null,"federal_state_code":"SH","fax_number":"+49 431 684331","email_address":null,"city":"Kiel"},{"zip_code":"24148","street":"Poppenrade 53","school_type_entity":"Gymnasium","school_type":"Gymnasium","phone_number":"+49 431 2203990","old_slug":null,"official_id":"0705057","name":"Hans-Geiger-Gymnasium","lon":10.161941,"lat":54.308497,"homepage_url":null,"federal_state_code":"SH","fax_number":"+49 431 22039939","email_address":null,"city":"Kiel"},{"zip_code":"24118","street":"Hansastrasse 69 a","school_type_entity":"Gymnasium","school_type":"Gymnasium","phone_number":"+49 431 26042810","old_slug":null,"official_id":"0705056","name":"Ricarda-Huch-Schule","lon":10.12689,"lat":54.336934,"homepage_url":null,"federal_state_code":"SH","fax_number":"+49 431 26042839","email_address":null,"city":"Kiel"},{"zip_code":"24148","street":"Schönberger Straße 67 - 73","school_type_entity":"Gymnasium","school_type":"Gymnasium","phone_number":"+49 431 6007630","old_slug":null,"official_id":"0705058","name":"Gymnasium Wellingdorf","lon":10.179038,"lat":54.324994,"homepage_url":null,"federal_state_code":"SH","fax_number":"+49 431 60076333","email_address":null,"city":"Kiel"},{"zip_code":"24109","street":"Vaasastraße 43","school_type_entity":"Gymnasium","school_type":"Gymnasium","phone_number":"+49 431 5377003","old_slug":null,"official_id":"0705060","name":"Thor-Heyerdahl-Gymnasium","lon":10.048037,"lat":54.324461,"homepage_url":null,"federal_state_code":"SH","fax_number":"+49 431 5377063","email_address":null,"city":"Kiel"},{"zip_code":"24146","street":"Allgäuer Straße 30","school_type_entity":"Gymnasium","school_type":"Gymnasium","phone_number":"+49 431 668480","old_slug":null,"official_id":"0705063","name":"Gymnasium Elmschenhagen","lon":10.193904,"lat":54.291697,"homepage_url":null,"federal_state_code":"SH","fax_number":"+49 431 6684818","email_address":null,"city":"Kiel"},{"zip_code":"24149","street":"Tiefe Allee 45","school_type_entity":"Grundschule","school_type":"Grundschule","phone_number":"+49 431 22002400","old_slug":null,"official_id":"0702040","name":"Adolf-Reichwein-Schule","lon":10.186938,"lat":54.332443,"homepage_url":null,"federal_state_code":"SH","fax_number":"+49 431 22002409","email_address":null,"city":"Kiel"},{"zip_code":"24116","street":"Langenbeckstraße 65","school_type_entity":"Grundschule","school_type":"Grundschule","phone_number":"+49 431 17007","old_slug":null,"official_id":"0702041","name":"Friedrich-Junge-Grundschule","lon":10.106207,"lat":54.323717,"homepage_url":null,"federal_state_code":"SH","fax_number":"+49 431 13952","email_address":null,"city":"Kiel"},{"zip_code":"24118","street":"Westring 444","school_type_entity":"Abend-Gymnasium","school_type":"Abendgymnasium","phone_number":"+49 431 1698400","old_slug":null,"official_id":"0705059","name":"Abendgymnasium im RBZ Wirtschaft der Landeshauptstadt Kiel (AöR) Europaschule","lon":10.127224,"lat":54.34144,"homepage_url":null,"federal_state_code":"SH","fax_number":"+49 431 1698444","email_address":null,"city":"Kiel"},{"zip_code":"24148","street":"Klausdorfer Weg 62","school_type_entity":"FöZ mit dem SP geistige Entwicklung","school_type":"FöZ mit dem SP geistige Entwicklung","phone_number":"+49 431 3642020","old_slug":null,"official_id":"0703063","name":"Ellerbeker Schule","lon":10.169601,"lat":54.319245,"homepage_url":null,"federal_state_code":"SH","fax_number":"+49 431 721126","email_address":null,"city":"Kiel"},{"zip_code":"24977","street":"Hauptstraße 15 a","school_type_entity":"Grundschule","school_type":"Grundschule","phone_number":"+49 4636 8395","old_slug":null,"official_id":"0702250","name":"Grundschule Langballig","lon":9.638478,"lat":54.80424,"homepage_url":null,"federal_state_code":"SH","fax_number":"+49 4636 977584","email_address":null,"city":"Langballig"},{"zip_code":"25926","street":"Schulstraße 13","school_type_entity":"Grundschule","school_type":"Grundschule","phone_number":"+49 4662 619","old_slug":null,"official_id":"0702361","name":"Grundschule Ladelund-Achtrup,Grundschule des Schulverbandes Ladelund in Ladelund","lon":9.030425,"lat":54.841972,"homepage_url":null,"federal_state_code":"SH","fax_number":"+49 4666 989317","email_address":null,"city":"Ladelund"},{"zip_code":"24235","street":"Schulstraße 1","school_type_entity":"Grundschule","school_type":"Grundschule","phone_number":"+49 4343 1753","old_slug":null,"official_id":"0702587","name":"Grundschule Laboe","lon":10.223577,"lat":54.403474,"homepage_url":null,"federal_state_code":"SH","fax_number":"+49 4343 421251","email_address":null,"city":"Laboe"},{"zip_code":"25337","street":"Köllner Chaussee 129","school_type_entity":"Grundschule","school_type":"Grundschule","phone_number":"+49 4121 71766","old_slug":null,"official_id":"0702517","name":"Grundschule Kölln-Reisiek","lon":9.706459,"lat":53.756486,"homepage_url":null,"federal_state_code":"SH","fax_number":"+49 4121 787980","email_address":null,"city":"Kölln-Reisiek"},{"zip_code":"25495","street":"Prisdorfer Straße 72","school_type_entity":"Grundschule","school_type":"Grundschule","phone_number":"+49 4101 856660","old_slug":null,"official_id":"0702518","name":"Bilsbek-Schule","lon":9.778946,"lat":53.687016,"homepage_url":null,"federal_state_code":"SH","fax_number":"+49 4101 85666","email_address":null,"city":"Kummerfeld"},{"zip_code":"Lübeck","street":"23554","school_type_entity":"Grundschule","school_type":"Grundschule","phone_number":"+49 451 4983010","old_slug":null,"official_id":"0702132","name":"Paul-Gerhardt-Schule","lon":10.659185,"lat":53.887729,"homepage_url":null,"federal_state_code":"SH","fax_number":"+49 451 49830120","email_address":null,"city":"Hansestadt"},{"zip_code":"Lübeck","street":"23558","school_type_entity":"Grundschule","school_type":"Grundschule","phone_number":"+49 451 8715060","old_slug":null,"official_id":"0702134","name":"Schule am Koggenweg","lon":10.640993,"lat":53.85383,"homepage_url":null,"federal_state_code":"SH","fax_number":"+49 451 87150620","email_address":null,"city":"Hansestadt"},{"zip_code":"Lübeck","street":"23562","school_type_entity":"Grundschule","school_type":"Grundschule","phone_number":"+49 451 5821863","old_slug":null,"official_id":"0702135","name":"Paul-Klee-Schule","lon":10.691188,"lat":53.832449,"homepage_url":null,"federal_state_code":"SH","fax_number":"+49 451 3998120","email_address":null,"city":"Hansestadt"},{"zip_code":"Lübeck","street":"23570","school_type_entity":"Berufsbildende Schule","school_type":"Berufsbildende Schule","phone_number":"+49 451 5029100","old_slug":null,"official_id":"0706171","name":"Berufsschule der Handwerkskammer Lübeck","lon":10.886201,"lat":53.952443,"homepage_url":null,"federal_state_code":"SH","fax_number":"+49 4502 887407","email_address":null,"city":"Hansestadt"},{"zip_code":"Lübeck","street":"23552","school_type_entity":"Berufsbildende Schule","school_type":"Berufsbildende Schule","phone_number":"+49 451 1228975","old_slug":null,"official_id":"0706197","name":"Gewerbeschule - Nahrung und Gastronomie - Berufliche Schule der Hansestadt Lübeck","lon":10.69167,"lat":53.86667,"homepage_url":null,"federal_state_code":"SH","fax_number":"+49 451 1228966","email_address":null,"city":"Hansestadt"},{"zip_code":"Lübeck","street":"23554","school_type_entity":"Berufsbildende Schule","school_type":"Berufsbildende Schule","phone_number":"+49 451 12286900","old_slug":null,"official_id":"0706198","name":"Emil-Possehl-Schule","lon":10.675649,"lat":53.882984,"homepage_url":null,"federal_state_code":"SH","fax_number":"+49 451 12286990","email_address":null,"city":"Hansestadt"},{"zip_code":"Lübeck","street":"23552","school_type_entity":"Berufsbildende Schule","school_type":"Berufsbildende Schule","phone_number":"+49 451 1228887","old_slug":null,"official_id":"0706226","name":"Hanse-Schule","lon":10.683485,"lat":53.863234,"homepage_url":null,"federal_state_code":"SH","fax_number":"+49 451 1228892","email_address":null,"city":"Hansestadt"},{"zip_code":"Lübeck","street":"23554","school_type_entity":"Berufsbildende Schule","school_type":"Berufsbildende Schule","phone_number":"+49 451 1228935","old_slug":null,"official_id":"0706240","name":"Friedrich-List-Schule","lon":10.674632,"lat":53.88259,"homepage_url":null,"federal_state_code":"SH","fax_number":"+49 451 1228912","email_address":null,"city":"Hansestadt"},{"zip_code":"Lübeck","street":"23568","school_type_entity":"Berufsbildende Schule","school_type":"Berufsbildende Schule","phone_number":"+49 451 1228860","old_slug":null,"official_id":"0706254","name":"Dorothea-Schlözer-Schule","lon":10.694568,"lat":53.879274,"homepage_url":null,"federal_state_code":"SH","fax_number":"+49 451 1228868","email_address":null,"city":"Hansestadt"},{"zip_code":"25774","street":"Am Gehölz 12","school_type_entity":"Grundschule","school_type":"Grundschule","phone_number":"+49 4882 65600","old_slug":null,"official_id":"0702219","name":"Grundschule Lunden","lon":9.029426,"lat":54.326771,"homepage_url":null,"federal_state_code":"SH","fax_number":"+49 4882 656050","email_address":null,"city":"Lunden"},{"zip_code":"Lübeck","street":"23556","school_type_entity":"Grundschule","school_type":"Grundschule","phone_number":"+49 451 891916","old_slug":null,"official_id":"0702103","name":"Grundschule Schönböcken","lon":10.624466,"lat":53.866919,"homepage_url":null,"federal_state_code":"SH","fax_number":"+49 451 8132902","email_address":null,"city":"Hansestadt"},{"zip_code":"Lübeck","street":"23558","school_type_entity":"Grundschule","school_type":"Grundschule","phone_number":"+49 451 8715020","old_slug":null,"official_id":"0702092","name":"Bugenhagen-Schule","lon":10.672632,"lat":53.860853,"homepage_url":null,"federal_state_code":"SH","fax_number":"+49 451 87150220","email_address":null,"city":"Hansestadt"},{"zip_code":"Lübeck","street":"23568","school_type_entity":"Gemeinschaftsschule","school_type":"Gemeinschaftsschule mit Oberstufe","phone_number":"+49 451 12284800","old_slug":null,"official_id":"0707113","name":"Geschwister-Prenski-Schule","lon":10.693995,"lat":53.877096,"homepage_url":null,"federal_state_code":"SH","fax_number":"+49 451 12284890","email_address":null,"city":"Hansestadt"},{"zip_code":"Lübeck","street":"23560","school_type_entity":"Gemeinschaftsschule","school_type":"Gemeinschaftsschule ohne Oberstufe","phone_number":"+49 451 1228411","old_slug":null,"official_id":"0707103","name":"Heinrich-Mann-Schule","lon":10.627032,"lat":53.844976,"homepage_url":null,"federal_state_code":"SH","fax_number":"+49 451 1228407","email_address":null,"city":"Hansestadt"},{"zip_code":"Lübeck","street":"23554","school_type_entity":"Gemeinschaftsschule","school_type":"Gemeinschaftsschule ohne Oberstufe","phone_number":"+49 451 1228019","old_slug":null,"official_id":"0707105","name":"Julius-Leber-Schule","lon":10.670615,"lat":53.871144,"homepage_url":null,"federal_state_code":"SH","fax_number":"+49 451 1228446","email_address":null,"city":"Hansestadt"},{"zip_code":"Lübeck","street":"23552","school_type_entity":"Gemeinschaftsschule","school_type":"Gemeinschaftsschule ohne Oberstufe","phone_number":"+49 451 1228451","old_slug":null,"official_id":"0707106","name":"Emanuel-Geibel-Schule","lon":10.691137,"lat":53.869219,"homepage_url":null,"federal_state_code":"SH","fax_number":"+49 451 1228454","email_address":null,"city":"Hansestadt"},{"zip_code":"Lübeck","street":"23554","school_type_entity":"Gemeinschaftsschule","school_type":"Gemeinschaftsschule ohne Oberstufe","phone_number":"+49 451 1228200","old_slug":null,"official_id":"0707107","name":"Schule Tremser Teich","lon":10.67742,"lat":53.894514,"homepage_url":null,"federal_state_code":"SH","fax_number":"+49 451 48151820","email_address":null,"city":"Hansestadt"},{"zip_code":"25704","street":"Rosenstraße 36 - 28","school_type_entity":"Grundschule","school_type":"Grundschule","phone_number":"+49 4832 9469","old_slug":null,"official_id":"0702196","name":"Grundschule Meldorf","lon":9.07625,"lat":54.088518,"homepage_url":null,"federal_state_code":"SH","fax_number":"+49 4832 9439","email_address":null,"city":"Meldorf"},{"zip_code":"25704","street":"Friedrichshöfer Straße 31","school_type_entity":"Berufsbildende Schule","school_type":"Berufsbildende Schule","phone_number":"+49 481 850810","old_slug":null,"official_id":"0706383","name":"Regionales BerufsBildungsZentrum Dithmarschen","lon":9.070811,"lat":54.082194,"homepage_url":null,"federal_state_code":"SH","fax_number":"+49 4832 903250","email_address":null,"city":"Meldorf"},{"zip_code":"24994","street":"Hauptstraße 4","school_type_entity":"Grundschule","school_type":"Grundschule","phone_number":"+49 4605 238","old_slug":null,"official_id":"0702253","name":"Grundschule Medelby","lon":9.164563,"lat":54.813441,"homepage_url":null,"federal_state_code":"SH","fax_number":"+49 4605 416","email_address":null,"city":"Medelby"},{"zip_code":"25709","street":"Hafenstrasse 12","school_type_entity":"Gemeinschaftsschule","school_type":"Gemeinschaftsschule ohne Oberstufe","phone_number":"+49 4851 95970","old_slug":null,"official_id":"0707207","name":"Reimer-Bull-Schule","lon":9.008407,"lat":53.950182,"homepage_url":null,"federal_state_code":"SH","fax_number":"+49 4851 785","email_address":null,"city":"Marne"},{"zip_code":"25709","street":"Bürgermeister-Plambeck-Straße 9","school_type_entity":"Gymnasium","school_type":"Gymnasium","phone_number":"+49 4851 3083","old_slug":null,"official_id":"0705202","name":"Gymnasium Marne","lon":9.006125,"lat":53.95586,"homepage_url":null,"federal_state_code":"SH","fax_number":"+49 4851 8303","email_address":null,"city":"Marne"},{"zip_code":"23714","street":"Neversfelder Straße 11","school_type_entity":"Gemeinschaftsschule","school_type":"Gemeinschaftsschule ohne Oberstufe","phone_number":"+49 4523 98910","old_slug":null,"official_id":"0707359","name":"Gemeinschaftsschule der  Gemeinde Malente in Malente","lon":10.555638,"lat":54.177282,"homepage_url":null,"federal_state_code":"SH","fax_number":"+49 4523 989150","email_address":null,"city":"Malente"},{"zip_code":"23714","street":"Marktstraße 2","school_type_entity":"Grundschule","school_type":"Grundschule","phone_number":"+49 4523 2367","old_slug":null,"official_id":"0702452","name":"Grundschule Malente","lon":10.557808,"lat":54.173835,"homepage_url":null,"federal_state_code":"SH","fax_number":"+49 4523 7552","email_address":null,"city":"Malente"},{"zip_code":"25566","street":"Liliencronstraße 18","school_type_entity":"Grundschule","school_type":"Grundschule","phone_number":"+49 4828 301","old_slug":null,"official_id":"0702916","name":"Liliencronschule","lon":9.573254,"lat":53.889147,"homepage_url":null,"federal_state_code":"SH","fax_number":"+49 4828 1240","email_address":null,"city":"Lägerdorf"},{"zip_code":"22952","street":"Hamburger Straße 11","school_type_entity":"Grundschule","school_type":"Grundschule","phone_number":"+49 4154 791034","old_slug":null,"official_id":"0702962","name":"Grundschule Lütjensee","lon":10.361667,"lat":53.646755,"homepage_url":null,"federal_state_code":"SH","fax_number":"+49 4154 791036","email_address":null,"city":"Lütjensee"},{"zip_code":"24321","street":"Kieler Straße 30","school_type_entity":"Gemeinschaftsschule","school_type":"Gemeinschaftsschule ohne Oberstufe","phone_number":"+49 4381 905821","old_slug":null,"official_id":"0707454","name":"Gemeinschaftsschule im Hoffmann-von-Fallersleben-Schulzentrum","lon":10.577222,"lat":54.293467,"homepage_url":null,"federal_state_code":"SH","fax_number":"+49 4381 905870","email_address":null,"city":"Lütjenburg"},{"zip_code":"23879","street":"Bürgermeister-Oetken-Straße 3","school_type_entity":"FöZ mit dem SP geistige Entwicklung","school_type":"FöZ mit dem SP geistige Entwicklung","phone_number":"+49 4542 838980","old_slug":null,"official_id":"0703309","name":"Schule Steinfeld","lon":10.681229,"lat":53.605927,"homepage_url":null,"federal_state_code":"SH","fax_number":"+49 4542 8389859","email_address":null,"city":"Mölln"},{"zip_code":"24536","street":"Roschdohler Weg 11","school_type_entity":"Gymnasium","school_type":"Gymnasium","phone_number":"+49 4321 957050","old_slug":null,"official_id":"0705154","name":"Alexander-von-Humboldt-Schule","lon":9.988341,"lat":54.127227,"homepage_url":null,"federal_state_code":"SH","fax_number":"+49 4321 9570530","email_address":null,"city":"Neumünster"},{"zip_code":"24534","street":"Roonstraße 42","school_type_entity":"Regionale Schule","school_type":"Regionalschule","phone_number":"+49 4321 2520610","old_slug":null,"official_id":"0708151","name":"Helene-Lange-Schule","lon":9.971983,"lat":54.077016,"homepage_url":null,"federal_state_code":"SH","fax_number":"+49 4321 179802","email_address":null,"city":"Neumünster"},{"zip_code":"24536","street":"Am Kamp 1","school_type_entity":"Regionale Schule","school_type":"Regionalschule","phone_number":"+49 4321 8534764","old_slug":null,"official_id":"0708152","name":"Pestalozzischule","lon":9.995678,"lat":54.099489,"homepage_url":null,"federal_state_code":"SH","fax_number":"+49 4321 939221","email_address":null,"city":"Neumünster"},{"zip_code":"24539","street":"Norderstraße 1","school_type_entity":"Grundschule","school_type":"Grundschule","phone_number":"+49 4321 73964","old_slug":null,"official_id":"0702142","name":"Schule Gadeland","lon":10.02231,"lat":54.05342,"homepage_url":null,"federal_state_code":"SH","fax_number":"+49 4321 979581","email_address":null,"city":"Neumünster"},{"zip_code":"24537","street":"Nachtredder 69","school_type_entity":"Grundschule","school_type":"Grundschule","phone_number":"+49 4321 2653623","old_slug":null,"official_id":"0702143","name":"Gartenstadtschule","lon":9.968182,"lat":54.09032,"homepage_url":null,"federal_state_code":"SH","fax_number":"+49 4321 953125","email_address":null,"city":"Neumünster"},{"zip_code":"24534","street":"Wilhelmstraße 8 - 16","school_type_entity":"Grundschule","school_type":"Grundschule","phone_number":"+49 4321 5550984","old_slug":null,"official_id":"0702145","name":"Johann-Hinrich-Fehrs-Schule","lon":9.974902,"lat":54.072365,"homepage_url":null,"federal_state_code":"SH","fax_number":"+49 4321 179808","email_address":null,"city":"Neumünster"},{"zip_code":"25899","street":"Friedrich-Paulsen-Straße 5","school_type_entity":"Gymnasium","school_type":"Gymnasium","phone_number":"+49 4661 96280","old_slug":null,"official_id":"0705352","name":"Friedrich-Paulsen-Schule","lon":8.823999,"lat":54.786958,"homepage_url":null,"federal_state_code":"SH","fax_number":"+49 4661 962828","email_address":null,"city":"Niebüll"},{"zip_code":"25899","street":"Uhlebüller Straße 15","school_type_entity":"Gemeinschaftsschule","school_type":"Gemeinschaftsschule ohne Oberstufe","phone_number":"+49 4661 930300","old_slug":null,"official_id":"0707311","name":"Gemeinschaftsschule der Stadt Niebüll in Niebüll","lon":8.828527,"lat":54.79418,"homepage_url":null,"federal_state_code":"SH","fax_number":"+49 4661 930329","email_address":null,"city":"Niebüll"},{"zip_code":"25899","street":"Uhlebüller Straße 15","school_type_entity":"Berufsbildende Schule","school_type":"Berufsbildende Schule","phone_number":"+49 4651 8364640","old_slug":null,"official_id":"0706468","name":"Berufliche Schule des Kreises Nordfriesland in Niebüll","lon":8.828527,"lat":54.79418,"homepage_url":null,"federal_state_code":"SH","fax_number":"+49 4661 930199","email_address":null,"city":"Niebüll"},{"zip_code":"25899","street":"Marktstraße 14","school_type_entity":"Grundschule","school_type":"Grundschule","phone_number":"+49 4661 96050","old_slug":null,"official_id":"0702370","name":"Alwin-Lensch-Schule","lon":8.822121,"lat":54.784597,"homepage_url":null,"federal_state_code":"SH","fax_number":"+49 4661 960520","email_address":null,"city":"Niebüll"},{"zip_code":"23730","street":"Rosengarten 20","school_type_entity":"FöZ mit dem SP Lernen","school_type":"FöZ mit dem SP Lernen","phone_number":"+49 4561 519910","old_slug":null,"official_id":"0703405","name":"Schule am Rosengarten","lon":10.819039,"lat":54.107551,"homepage_url":null,"federal_state_code":"SH","fax_number":"+49 4561 5199114","email_address":null,"city":"Neustadt in Holstein"},{"zip_code":"23730","street":"Schulstraße 2","school_type_entity":"Gemeinschaftsschule","school_type":"Gemeinschaftsschule ohne Oberstufe","phone_number":"+49 4561 407180","old_slug":null,"official_id":"0707361","name":"Jacob-Lienau-Schule","lon":10.822051,"lat":54.106484,"homepage_url":null,"federal_state_code":"SH","fax_number":"+49 4561 4071818","email_address":null,"city":"Neustadt in Holstein"},{"zip_code":"23730","street":"Butzhorn 85","school_type_entity":"Gymnasium","school_type":"Gymnasium","phone_number":"+49 4561 17100","old_slug":"23730-staedtisches-gymnasium-neustadt-i-h","official_id":"0705403","name":"Städtisches Gymnasium Neustadt in Holstein","lon":10.816768,"lat":54.095076,"homepage_url":"http://www.gymnasiumneustadt.de/cms/kgn-info.html","federal_state_code":"SH","fax_number":"+49 4561 407368","email_address":"sekretariat@gymnasiumneustadt.de","city":"Neustadt in Holstein"},{"zip_code":"24537","street":"Flensburger Str. 9","school_type_entity":"FöZ mit dem SP geistige Entwicklung","school_type":"FöZ mit dem SP geistige Entwicklung","phone_number":"+49 4321 2691166","old_slug":null,"official_id":"0703154","name":"Fröbelschule","lon":9.950949,"lat":54.058576,"homepage_url":null,"federal_state_code":"SH","fax_number":"+49 4321 968446","email_address":null,"city":"Neumünster"},{"zip_code":"23730","street":"Am Steinkamp 5","school_type_entity":"Grundschule","school_type":"Grundschule","phone_number":"+49 4561 519920","old_slug":null,"official_id":"0702455","name":"Steinkamp-Grundschule","lon":10.81583,"lat":54.10722,"homepage_url":null,"federal_state_code":"SH","fax_number":"+49 4561 5199222","email_address":null,"city":"Neustadt in Holstein"},{"zip_code":"24539","street":"Dithmarscher Straße 6","school_type_entity":"FöZ mit dem SP Lernen","school_type":"FöZ mit dem SP Lernen","phone_number":"+49 4321 2516337","old_slug":null,"official_id":"0703150","name":"Gustav-Hansen-Schule","lon":9.994084,"lat":54.06215,"homepage_url":null,"federal_state_code":"SH","fax_number":"+49 4321 979468","email_address":null,"city":"Neumünster"},{"zip_code":"22844","street":"Falkenbergstraße 25","school_type_entity":"Gymnasium","school_type":"Gymnasium","phone_number":"+49 40 52560630","old_slug":null,"official_id":"0705651","name":"Gymnasium Harksheide","lon":10.005604,"lat":53.707672,"homepage_url":null,"federal_state_code":"SH","fax_number":"+49 40 52560655","email_address":null,"city":"Norderstedt"},{"zip_code":"23758","street":"Mühlenkamp 18 a","school_type_entity":"Gemeinschaftsschule","school_type":"Gemeinschaftsschule ohne Oberstufe","phone_number":"+49 4361 49090","old_slug":null,"official_id":"0707356","name":"Wagrienschule","lon":10.879843,"lat":54.290792,"homepage_url":null,"federal_state_code":"SH","fax_number":"+49 4361 490920","email_address":null,"city":"Oldenburg in Holstein"},{"zip_code":"23758","street":"Adolf-Friedrich-Straße 1","school_type_entity":"Gymnasium","school_type":"Gymnasium","phone_number":"+49 4361 90860","old_slug":null,"official_id":"0705404","name":"Freiherr-vom-Stein-Gymnasium der Stadt Oldenburg","lon":10.896197,"lat":54.29205,"homepage_url":null,"federal_state_code":"SH","fax_number":"+49 4361 908629","email_address":null,"city":"Oldenburg in Holstein"},{"zip_code":"23758","street":"Breslauer Straße 15","school_type_entity":"Grundschule","school_type":"Grundschule","phone_number":"+49 4361 7360","old_slug":null,"official_id":"0702459","name":"Grundschule am Wasserquell","lon":10.894598,"lat":54.296323,"homepage_url":null,"federal_state_code":"SH","fax_number":"+49 4361 621445","email_address":null,"city":"Oldenburg in Holstein"},{"zip_code":"24988","street":"Stapelholmer Weg 39","school_type_entity":"Grundschule","school_type":"Grundschule","phone_number":"+49 4630 5250","old_slug":null,"official_id":"0702254","name":"Grundschule Oeversee","lon":9.430164,"lat":54.699138,"homepage_url":null,"federal_state_code":"SH","fax_number":"+49 4630 937166","email_address":null,"city":"Oeversee"},{"zip_code":"23758","street":"Kremsdorfer Weg 31","school_type_entity":"Berufsbildende Schule","school_type":"Berufsbildende Schule","phone_number":"+49 4561 51210","old_slug":null,"official_id":"0706505","name":"Berufliche Schule des Kreises Ostholstein in Oldenburg","lon":10.898505,"lat":54.294041,"homepage_url":null,"federal_state_code":"SH","fax_number":"+49 4361 43","email_address":null,"city":"Oldenburg in Holstein"},{"zip_code":"25421","street":"Richard-Köhn-Straße 75","school_type_entity":"Gemeinschaftsschule","school_type":"Gemeinschaftsschule ohne Oberstufe","phone_number":"+49 4101 696650","old_slug":null,"official_id":"0707405","name":"GuGS im Quellental","lon":9.794771,"lat":53.646179,"homepage_url":null,"federal_state_code":"SH","fax_number":"+49 4101 6966522","email_address":null,"city":"Pinneberg"},{"zip_code":"25421","street":"Horn 5","school_type_entity":"Gemeinschaftsschule","school_type":"Gemeinschaftsschule mit Oberstufe","phone_number":"+49 4101 69410","old_slug":null,"official_id":"0707414","name":"Johann-Comenius-Schule Thesdorf","lon":9.812782,"lat":53.641004,"homepage_url":null,"federal_state_code":"SH","fax_number":"+49 4101 694180","email_address":null,"city":"Pinneberg"},{"zip_code":"25421","street":"Schulenhörn 40","school_type_entity":"Gemeinschaftsschule","school_type":"Gemeinschaftsschule ohne Oberstufe","phone_number":"+49 4101 79940","old_slug":null,"official_id":"0707418","name":"Schulzentrum Nord","lon":9.785165,"lat":53.671924,"homepage_url":null,"federal_state_code":"SH","fax_number":"+49 4101 799444","email_address":null,"city":"Pinneberg"},{"zip_code":"25421","street":"Fahltskamp 36","school_type_entity":"Gymnasium","school_type":"Gymnasium","phone_number":"+49 4101 8451601","old_slug":null,"official_id":"0705452","name":"Johannes-Brahms-Schule","lon":9.805443,"lat":53.658243,"homepage_url":null,"federal_state_code":"SH","fax_number":"+49 4101 ","email_address":null,"city":"Pinneberg"},{"zip_code":"25421","street":"Datumer Chaussee 2","school_type_entity":"Gymnasium","school_type":"Gymnasium","phone_number":"+49 4101 69810","old_slug":"25421-theodor-heuss-schule","official_id":"0705453","name":"Theodor-Heuss-Schule","lon":9.797657,"lat":53.643954,"homepage_url":"http://www.ths-pinneberg.de/","federal_state_code":"SH","fax_number":"+49 4101 698134","email_address":"sekretariat@ths-pinneberg.de","city":"Pinneberg"},{"zip_code":"25421","street":"Elmshorner Straße 52","school_type_entity":"Grundschule","school_type":"Grundschule","phone_number":"+49 4101 73076","old_slug":null,"official_id":"0702521","name":"Hans-Claussen-Schule","lon":9.794072,"lat":53.668299,"homepage_url":null,"federal_state_code":"SH","fax_number":"+49 4101 73076","email_address":null,"city":"Pinneberg"},{"zip_code":"25421","street":"Kirchhofsweg 5","school_type_entity":"Grundschule","school_type":"Grundschule","phone_number":"+49 4101 556140","old_slug":null,"official_id":"0702522","name":"Helene-Lange-Schule Pinneberg","lon":9.785937,"lat":53.6577,"homepage_url":null,"federal_state_code":"SH","fax_number":"+49 4101 5561413","email_address":null,"city":"Pinneberg"},{"zip_code":"25421","street":"Rübekamp 13 - 15","school_type_entity":"Grundschule","school_type":"Grundschule","phone_number":"+49 4101 22789","old_slug":null,"official_id":"0702523","name":"Grundschule Rübekamp","lon":9.794294,"lat":53.660441,"homepage_url":null,"federal_state_code":"SH","fax_number":"+49 4101 22789","email_address":null,"city":"Pinneberg"},{"zip_code":"25421","street":"Pestalozzistraße 7","school_type_entity":"Grundschule","school_type":"Grundschule","phone_number":"+49 4101 62709","old_slug":null,"official_id":"0702526","name":"Grundschule Thesdorf","lon":9.813765,"lat":53.642673,"homepage_url":null,"federal_state_code":"SH","fax_number":"+49 4101 690506","email_address":null,"city":"Pinneberg"},{"zip_code":"25421","street":"An der Berufsschule 1","school_type_entity":"Berufsbildende Schule","school_type":"Berufsbildende Schule","phone_number":"+49 4101 843400","old_slug":null,"official_id":"0706533","name":"Berufliche Schule des Kreises Pinneberg in Pinneberg","lon":9.8,"lat":53.63333,"homepage_url":null,"federal_state_code":"SH","fax_number":"+49 4101 84340700","email_address":null,"city":"Pinneberg"},{"zip_code":"24211","street":"Hufenweg 5","school_type_entity":"FöZ mit dem SP Lernen","school_type":"FöZ mit dem SP Lernen","phone_number":"+49 4342 303270","old_slug":null,"official_id":"0703504","name":"Johann-Heinrich-Pestalozzi-Schule","lon":10.27826,"lat":54.235793,"homepage_url":null,"federal_state_code":"SH","fax_number":"+49 4342 303274","email_address":null,"city":"Preetz"},{"zip_code":"25451","street":"Heidkampstraße 10","school_type_entity":"Gymnasium","school_type":"Gymnasium","phone_number":"+49 4106 6414100","old_slug":null,"official_id":"0705457","name":"Elsensee-Gymnasium","lon":9.906114,"lat":53.722124,"homepage_url":null,"federal_state_code":"SH","fax_number":"+49 4106 653869","email_address":null,"city":"Quickborn"},{"zip_code":"23858","street":"Bischofsteicher Weg 75 b","school_type_entity":"FöZ mit dem SP Lernen","school_type":"FöZ mit dem SP Lernen","phone_number":"+49 4533 3011","old_slug":"23858-erich-kaestner-schule","official_id":"0703755","name":"Erich Kästner Schule","lon":10.500968,"lat":53.835054,"homepage_url":"http://www.eks-reinfeld.de","federal_state_code":"SH","fax_number":"+49 4533 5835","email_address":"erich-kaestner-schule.reinfeld@schule.landsh.de","city":"Reinfeld (Holstein)"},{"zip_code":"23858","street":"Bischofsteicher Weg 75","school_type_entity":"Gemeinschaftsschule","school_type":"Gemeinschaftsschule mit Oberstufe","phone_number":"+49 4533 204980","old_slug":"23858-erich-kaestner-schule","official_id":"0707717","name":"Immanuel-Kant-Schule Reinfeld","lon":10.500968,"lat":53.835054,"homepage_url":"http://www.eks-reinfeld.de","federal_state_code":"SH","fax_number":"+49 4533 2049849","email_address":"erich-kaestner-schule.reinfeld@schule.landsh.de","city":"Reinfeld (Holstein)"},{"zip_code":"23858","street":"Marktplatz 1","school_type_entity":"Grundschule","school_type":"Grundschule","phone_number":"+49 4533 2441","old_slug":null,"official_id":"0702970","name":"Matthias-Claudius-Schule","lon":10.48333,"lat":53.83333,"homepage_url":null,"federal_state_code":"SH","fax_number":"+49 4533 61177","email_address":null,"city":"Reinfeld (Holstein)"},{"zip_code":"21465","street":"Am Mühlenredder 30","school_type_entity":"FöZ mit dem SP Lernen","school_type":"FöZ mit dem SP Lernen","phone_number":"+49 4154 2980","old_slug":null,"official_id":"0703754","name":"Amalie-Sieveking-Schule","lon":10.241802,"lat":53.518669,"homepage_url":null,"federal_state_code":"SH","fax_number":"+49 40 72734539","email_address":null,"city":"Reinbek"},{"zip_code":"21465","street":"Mühlenredder 30","school_type_entity":"Gemeinschaftsschule","school_type":"Gemeinschaftsschule ohne Oberstufe","phone_number":"+49 40 72734521","old_slug":"21465-realschule-reinbek","official_id":"0707711","name":"Gemeinschaftsschule mit Oberstufe i.E. im Schulzentrum Mühlenredder. Reinbek","lon":10.241802,"lat":53.518669,"homepage_url":"http://www.realschule-reinbek.de/","federal_state_code":"SH","fax_number":"+49 40 72734529","email_address":"winkmann@realschule-reinbek.de","city":"Reinbek"},{"zip_code":"24635","street":"Dorfstraße 63","school_type_entity":"Grundschule","school_type":"Grundschule","phone_number":"+49 4328 294","old_slug":null,"official_id":"0702857","name":"Grundschule der Gemeinde Rickling in Rickling","lon":10.165871,"lat":54.004877,"homepage_url":null,"federal_state_code":"SH","fax_number":"+49 4328 170819","email_address":null,"city":"Rickling"},{"zip_code":"24768","street":"Aalborgstraße 78 - 84","school_type_entity":"FöZ mit dem SP geistige Entwicklung","school_type":"FöZ mit dem SP geistige Entwicklung","phone_number":"+49 4331 24320","old_slug":null,"official_id":"0703566","name":"Schule Hochfeld","lon":9.705745,"lat":54.307473,"homepage_url":null,"federal_state_code":"SH","fax_number":"+49 4331 56975","email_address":null,"city":"Rendsburg"},{"zip_code":"25566","street":"- keine Angabe -","school_type_entity":"Grundschule","school_type":"Grundschule","phone_number":"+49 4828 212","old_slug":null,"official_id":"0702920","name":"Grundschule Rethwisch","lon":9.575691,"lat":53.868911,"homepage_url":null,"federal_state_code":"SH","fax_number":"+49 4828 901729","email_address":null,"city":"Rethwisch"},{"zip_code":"24768","street":"Ostlandstraße 44","school_type_entity":"FöZ mit dem SP Sprache","school_type":"FöZ mit dem SP Sprache","phone_number":"+49 4331 4855","old_slug":"24768-sternschule-sprachheilgrundschule","official_id":"0703567","name":"Sternschule","lon":9.643071,"lat":54.320173,"homepage_url":"http://www.sprachheilgrundschule.de","federal_state_code":"SH","fax_number":"+49 4331 2017827","email_address":"sternschule@t-online.de","city":"Rendsburg"},{"zip_code":"24768","street":"Ahlmannstraße 6 - 8","school_type_entity":"FöZ mit dem SP Lernen","school_type":"FöZ mit dem SP Lernen","phone_number":"+49 4331 138162","old_slug":null,"official_id":"0703557","name":"Förderzentrum Lernen der Stadt Rendsburg in Rendsburg","lon":9.637167,"lat":54.312122,"homepage_url":null,"federal_state_code":"SH","fax_number":"+49 4331 12105","email_address":null,"city":"Rendsburg"},{"zip_code":"24768","street":"An der Bleiche 1","school_type_entity":"Gemeinschaftsschule","school_type":"Gemeinschaftsschule ohne Oberstufe","phone_number":"+49 4331 943880","old_slug":null,"official_id":"0707502","name":"Schule Altstadt","lon":9.65941,"lat":54.304771,"homepage_url":null,"federal_state_code":"SH","fax_number":"+49 4331 9438859","email_address":null,"city":"Rendsburg"},{"zip_code":"24768","street":"Ritterstraße 12","school_type_entity":"Gymnasium","school_type":"Gymnasium","phone_number":"+49 4331 14120","old_slug":"24768-helene-lange-gymnasium","official_id":"0705551","name":"Helene-Lange-Gymnasium","lon":9.660387,"lat":54.29839,"homepage_url":"http://www.hela-rd.de/index.html","federal_state_code":"SH","fax_number":"+49 4331 141228","email_address":"turan@hela-rd.de","city":"Rendsburg"},{"zip_code":"24768","street":"Kieler Straße 27","school_type_entity":"Gemeinschaftsschule","school_type":"Gemeinschaftsschule ohne Oberstufe","phone_number":"+49 4331 5222","old_slug":null,"official_id":"0707512","name":"Christian-Timm-Schule","lon":9.675545,"lat":54.304609,"homepage_url":null,"federal_state_code":"SH","fax_number":"+49 4331 5223","email_address":null,"city":"Rendsburg"},{"zip_code":"24768","street":"Am Stadtsee 11 - 17","school_type_entity":"Gymnasium","school_type":"Gymnasium","phone_number":"+49 4331 123080","old_slug":null,"official_id":"0705552","name":"Herderschule","lon":9.661869,"lat":54.302081,"homepage_url":null,"federal_state_code":"SH","fax_number":"+49 4331 21056","email_address":null,"city":"Rendsburg"},{"zip_code":"22869","street":"Achter De Weiden 34","school_type_entity":"Gemeinschaftsschule","school_type":"Gemeinschaftsschule ohne Oberstufe","phone_number":"+49 40 83037220","old_slug":null,"official_id":"0707410","name":"Gemeinschaftsschule Achter de Weiden","lon":9.831305,"lat":53.606252,"homepage_url":null,"federal_state_code":"SH","fax_number":"+49 40 83037221","email_address":null,"city":"Schenefeld"},{"zip_code":"25560","street":"Rosenstieg 16","school_type_entity":"Gemeinschaftsschule","school_type":"Gemeinschaftsschule ohne Oberstufe","phone_number":"+49 4892 80380","old_slug":null,"official_id":"0707652","name":"Grund- und Gemeinschaftsschule des  Amtes Schenefeld in Schenefeld","lon":9.476693,"lat":54.044147,"homepage_url":null,"federal_state_code":"SH","fax_number":"+49 4892 803822","email_address":null,"city":"Schenefeld"},{"zip_code":"21493","street":"Cesenaticostraße 14","school_type_entity":"Regionale Schule","school_type":"Regionalschule","phone_number":"+49 4151 840920","old_slug":null,"official_id":"0708250","name":"Grund-und Regionalschule des Schulverbandes Schwarzenbek-Nordost in Schwarzenbek","lon":10.49366,"lat":53.507756,"homepage_url":null,"federal_state_code":"SH","fax_number":"+49 4151 8409220","email_address":null,"city":"Schwarzenbek"},{"zip_code":"24257","street":"Dorfstrasse 59","school_type_entity":"Grundschule","school_type":"Grundschule","phone_number":"+49 4385 205","old_slug":null,"official_id":"0702604","name":"Grundschule Schwartbuck","lon":10.480127,"lat":54.360275,"homepage_url":null,"federal_state_code":"SH","fax_number":"+49 4385 599327","email_address":null,"city":"Schwartbuck"},{"zip_code":"24850","street":"Bahnhofstraße 18","school_type_entity":"Grundschule","school_type":"Grundschule","phone_number":"+49 4627 1433","old_slug":null,"official_id":"0702787","name":"Grundschule Schuby mit Außenstelle Hollingstedt","lon":9.478916,"lat":54.517151,"homepage_url":null,"federal_state_code":"SH","fax_number":"+49 4621 41197","email_address":null,"city":"Schuby"},{"zip_code":"24640","street":"Schulstrasse 3","school_type_entity":"Grundschule","school_type":"Grundschule","phone_number":"+49 4195 372","old_slug":null,"official_id":"0702861","name":"Grundschule Schmalfeld-Hartenholm","lon":9.982031,"lat":53.876727,"homepage_url":null,"federal_state_code":"SH","fax_number":"+49 4191 954017","email_address":null,"city":"Schmalfeld"},{"zip_code":"24837","street":"Holzredder 12","school_type_entity":"FöZ mit dem SP geistige Entwicklung","school_type":"FöZ mit dem SP geistige Entwicklung","phone_number":"+49 4621 3060990","old_slug":null,"official_id":"0703608","name":"Peter-Härtling-Schule","lon":9.524348,"lat":54.498198,"homepage_url":null,"federal_state_code":"SH","fax_number":"+49 4621 3060997","email_address":null,"city":"Schleswig"},{"zip_code":"24837","street":"Friedrich-Ebert-Straße 5","school_type_entity":"FöZ mit dem SP dauerhaft kranke Schüler/-innen","school_type":"FöZ mit dem SP dauerhaft kranke Schüler/-innen","phone_number":"+49 4841 77097634","old_slug":null,"official_id":"0703605","name":"Schule Hesterberg","lon":9.55063,"lat":54.520993,"homepage_url":null,"federal_state_code":"SH","fax_number":"+49 4621 834851","email_address":null,"city":"Schleswig"},{"zip_code":"24885","street":"Sieverstedter Straße 9","school_type_entity":"Grundschule","school_type":"Grundschule","phone_number":"+49 4603 497","old_slug":null,"official_id":"0702258","name":"Schule im Autal","lon":9.469656,"lat":54.641458,"homepage_url":null,"federal_state_code":"SH","fax_number":"+49 4603 964009","email_address":null,"city":"Sieverstedt"},{"zip_code":"24641","street":"Am Sportfeld 3","school_type_entity":"Grundschule","school_type":"Grundschule","phone_number":"+49 4535 8432","old_slug":null,"official_id":"0702863","name":"Grundschule am Wald","lon":10.11858,"lat":53.846874,"homepage_url":null,"federal_state_code":"SH","fax_number":"+49 4194 980272","email_address":null,"city":"Sievershütten"},{"zip_code":"23714","street":"Kreisstraße 1","school_type_entity":"Grundschule","school_type":"Grundschule","phone_number":"+49 4523 2129","old_slug":null,"official_id":"0702471","name":"Grundschule Sieversdorf","lon":10.569137,"lat":54.18455,"homepage_url":null,"federal_state_code":"SH","fax_number":"+49 4523 984780","email_address":null,"city":"Sieversdorf"},{"zip_code":"23845","street":"Schulstraße 4","school_type_entity":"Grundschule","school_type":"Grundschule","phone_number":"+49 4194 376","old_slug":null,"official_id":"0702862","name":"Grundschule Seth","lon":10.176336,"lat":53.850588,"homepage_url":null,"federal_state_code":"SH","fax_number":"+49 4194 7292","email_address":null,"city":"Seth"},{"zip_code":"23611","street":"Schulstrasse 6","school_type_entity":"Grundschule","school_type":"Grundschule","phone_number":"+49451 - 392420","old_slug":null,"official_id":"0702470","name":"Achim-Bröger-Schule","lon":10.694481,"lat":53.921331,"homepage_url":null,"federal_state_code":"SH","fax_number":"+49451 - 3968302","email_address":null,"city":"Sereetz"},{"zip_code":"25370","street":"Dorfstraße 43","school_type_entity":"Grundschule","school_type":"Grundschule","phone_number":"+49 4125 386","old_slug":null,"official_id":"0702537","name":"Grundschule Seester","lon":9.597823,"lat":53.718324,"homepage_url":null,"federal_state_code":"SH","fax_number":"+49 4125 958880","email_address":null,"city":"Seester"},{"zip_code":"23823","street":"Schulstrasse 1","school_type_entity":"Grundschule","school_type":"Grundschule","phone_number":"+49 4555 513","old_slug":null,"official_id":"0702860","name":"Grundschule Schlamersdorf","lon":10.392052,"lat":54.042789,"homepage_url":null,"federal_state_code":"SH","fax_number":"+49 4555 464","email_address":null,"city":"Seedorf"},{"zip_code":"23744","street":"Am Ruhsal","school_type_entity":"Grundschule","school_type":"Grundschule","phone_number":"+494528 - 404","old_slug":null,"official_id":"0702469","name":"Friedrich-Hiller-Schule","lon":10.754938,"lat":54.188058,"homepage_url":null,"federal_state_code":"SH","fax_number":"+494528 - 911813","email_address":null,"city":"Schönwalde am Bungsberg"},{"zip_code":"24232","street":"Augustental","school_type_entity":"FöZ mit dem SP Lernen","school_type":"FöZ mit dem SP Lernen","phone_number":"+49 4344 9074","old_slug":null,"official_id":"0703507","name":"Förderzentrum Schönkirchen - Schönberg","lon":10.219873,"lat":54.334865,"homepage_url":null,"federal_state_code":"SH","fax_number":"+49 4348 916611","email_address":null,"city":"Schönkirchen"},{"zip_code":"25980","street":"St.Nicolai-Straße 6","school_type_entity":"Grundschule","school_type":"Grundschule","phone_number":"+49 4651 5378","old_slug":null,"official_id":"0702407","name":"Schule St. Nicolai","lon":8.32361,"lat":54.8931,"homepage_url":null,"federal_state_code":"SH","fax_number":"+49 4651 299408","email_address":null,"city":"Sylt"},{"zip_code":"25923","street":"Schulstraße 15","school_type_entity":"Grundschule","school_type":"Grundschule","phone_number":"+49 4663 349","old_slug":null,"official_id":"0702396","name":"Grundschule Süderlügum","lon":8.905782,"lat":54.873595,"homepage_url":null,"federal_state_code":"SH","fax_number":"+49 4663 328","email_address":null,"city":"Süderlügum"},{"zip_code":"22946","street":"Heinrich-Hertz-Straße 7","school_type_entity":"Gymnasium","school_type":"Gymnasium","phone_number":"+49 4154 98920","old_slug":null,"official_id":"0705758","name":"Gymnasium Trittau","lon":10.395749,"lat":53.618778,"homepage_url":null,"federal_state_code":"SH","fax_number":"+49 4154 81027","email_address":null,"city":"Trittau"},{"zip_code":"22946","street":"Im Raum 24","school_type_entity":"Grundschule","school_type":"Grundschule","phone_number":"+49 4154 809920","old_slug":null,"official_id":"0702990","name":"Grundschule Trittau","lon":10.397132,"lat":53.618171,"homepage_url":null,"federal_state_code":"SH","fax_number":"+49 4154 8099237","email_address":null,"city":"Trittau"},{"zip_code":"24896","street":"Treenestraße 53","school_type_entity":"Grundschule","school_type":"Grundschule","phone_number":"+49 4626 490","old_slug":null,"official_id":"0702799","name":"Grundschule Treia","lon":9.314924,"lat":54.514213,"homepage_url":null,"federal_state_code":"SH","fax_number":"+49 4626 406","email_address":null,"city":"Treia"},{"zip_code":"24610","street":"Gablonzer Straße 42","school_type_entity":"Gemeinschaftsschule","school_type":"Gemeinschaftsschule mit Oberstufe","phone_number":"+49 4323 914200","old_slug":null,"official_id":"0707617","name":"Richard-Hallmann-Schule","lon":10.217449,"lat":54.036989,"homepage_url":null,"federal_state_code":"SH","fax_number":"+49 4323 914211","email_address":null,"city":"Trappenkamp"},{"zip_code":"24610","street":"Gablonzer Straße 42","school_type_entity":"Grundschule","school_type":"Grundschule","phone_number":"+49 4323 914300","old_slug":null,"official_id":"0702867","name":"Dr.-Gerlich-Schule","lon":10.217449,"lat":54.036989,"homepage_url":null,"federal_state_code":"SH","fax_number":"+49 4323 914304","email_address":null,"city":"Trappenkamp"},{"zip_code":"25436","street":"Klaus-Groth-Straße 11","school_type_entity":"Gemeinschaftsschule","school_type":"Gemeinschaftsschule mit Oberstufe","phone_number":"+49 4122 40390","old_slug":null,"official_id":"0707413","name":"Klaus-Groth-Schule","lon":9.71034,"lat":53.690116,"homepage_url":null,"federal_state_code":"SH","fax_number":"+49 4122 403989","email_address":null,"city":"Tornesch"},{"zip_code":"22880","street":"Breiter Weg 57 - 67","school_type_entity":"Grundschule","school_type":"Grundschule","phone_number":"+49 4103 912170","old_slug":null,"official_id":"0702549","name":"Moorwegschule","lon":9.716014,"lat":53.592279,"homepage_url":null,"federal_state_code":"SH","fax_number":"+49 4103 9121720","email_address":null,"city":"Wedel"},{"zip_code":"25795","street":"Alter Landweg 2","school_type_entity":"Grundschule","school_type":"Grundschule","phone_number":"+49 481 87998","old_slug":null,"official_id":"0702210","name":"Grundschule des Schulträgerverbandes Heider Umland in Weddingstedt","lon":9.089535,"lat":54.23584,"homepage_url":null,"federal_state_code":"SH","fax_number":"+49 481 4211764","email_address":null,"city":"Weddingstedt"},{"zip_code":"24582","street":"Schulstraße 6","school_type_entity":"Grundschule","school_type":"Grundschule","phone_number":"+49 4322 9704","old_slug":null,"official_id":"0702738","name":"Landschule an der Eider","lon":10.05459,"lat":54.168095,"homepage_url":null,"federal_state_code":"SH","fax_number":"+49 4322 691493","email_address":null,"city":"Wattenbek"},{"zip_code":"24601","street":"Schulweg 6","school_type_entity":"Grundschule","school_type":"Grundschule","phone_number":"+49 4394 240","old_slug":null,"official_id":"0702609","name":"Grundschule Wankendorf und Umgebung","lon":10.202639,"lat":54.116693,"homepage_url":null,"federal_state_code":"SH","fax_number":"+49 4326 2558","email_address":null,"city":"Wankendorf"},{"zip_code":"23758","street":"Ostseestraße 23","school_type_entity":"Grundschule","school_type":"Grundschule","phone_number":"+49 4361 8237","old_slug":null,"official_id":"0702440","name":"Grundschule Oldenburg-Land","lon":10.756403,"lat":54.253464,"homepage_url":null,"federal_state_code":"SH","fax_number":"+49 4382 92272","email_address":null,"city":"Wangels"},{"zip_code":"24647","street":"Schulstraße 14","school_type_entity":"Grundschule","school_type":"Grundschule","phone_number":"+49 4321 62141","old_slug":null,"official_id":"0702737","name":"Hermann-Claudius-Schule","lon":9.900121,"lat":54.07507,"homepage_url":null,"federal_state_code":"SH","fax_number":"+49 4321 699346","email_address":null,"city":"Wasbek"},{"zip_code":"24997","street":"Tarper Straße 19 - 21","school_type_entity":"Grundschule","school_type":"Grundschule","phone_number":"+49 4606 238","old_slug":null,"official_id":"0702263","name":"Grundschule Wanderup","lon":9.337583,"lat":54.688377,"homepage_url":null,"federal_state_code":"SH","fax_number":"+49  ","email_address":null,"city":"Wanderup"},{"zip_code":"23812","street":"Neumünsterstraße 22","school_type_entity":"Gemeinschaftsschule","school_type":"Gemeinschaftsschule ohne Oberstufe","phone_number":"+49 4554 2284","old_slug":null,"official_id":"0707605","name":"Poul-Due-Jensen-Schule","lon":10.207297,"lat":53.954391,"homepage_url":null,"federal_state_code":"SH","fax_number":"+49 4554 991944","email_address":null,"city":"Wahlstedt"},{"zip_code":"25764","street":"Ekenesch 15","school_type_entity":"Grundschule","school_type":"Grundschule","phone_number":"+49 4837 433","old_slug":null,"official_id":"0702212","name":"Grundschule Wesselburen mit Außenstelle Neuenkirchen","lon":8.917257,"lat":54.21213,"homepage_url":null,"federal_state_code":"SH","fax_number":"+49 4833 424010","email_address":null,"city":"Wesselburen"},{"zip_code":"25563","street":"Am Sportplatz","school_type_entity":"Grundschule","school_type":"Grundschule","phone_number":"+49 4822 95133","old_slug":null,"official_id":"0702928","name":"Grundschule Wrist","lon":9.753553,"lat":53.934569,"homepage_url":null,"federal_state_code":"SH","fax_number":"+49 4822 95134","email_address":null,"city":"Wrist"},{"zip_code":"21521","street":"Alter Knick 22","school_type_entity":"Grundschule","school_type":"Grundschule","phone_number":"+49 4104 2680","old_slug":null,"official_id":"0702312","name":"Grundschule Wohltorf","lon":10.285913,"lat":53.523214,"homepage_url":null,"federal_state_code":"SH","fax_number":"+49 4104 901103","email_address":null,"city":"Wohltorf"},{"zip_code":"23619","street":"Pöhlser Weg 18","school_type_entity":"Grundschule","school_type":"Grundschule","phone_number":"+49 4533 1445","old_slug":null,"official_id":"0702984","name":"Dörfergemeinschaftsschule am Struckteich","lon":10.514714,"lat":53.874301,"homepage_url":null,"federal_state_code":"SH","fax_number":"+49 4533 798698","email_address":null,"city":"Zarpen"},{"zip_code":"25938","street":"Rebbelstieg","school_type_entity":"Gymnasium","school_type":"Gymnasium","phone_number":"+49 4681 4440","old_slug":null,"official_id":"0705355","name":"Eilun Feer Skuul","lon":8.5623607,"lat":54.6864066,"homepage_url":null,"federal_state_code":"SH","fax_number":"+49 4681 5338","email_address":null,"city":"Wyk auf Föhr"},{"zip_code":"25938","street":"Süderstraße 24","school_type_entity":"Grundschule","school_type":"Grundschule","phone_number":"+49 4681 2666","old_slug":null,"official_id":"0702411","name":"Rüm-Hart-Schule","lon":8.566901,"lat":54.689159,"homepage_url":null,"federal_state_code":"SH","fax_number":"+49 4681 50380","email_address":null,"city":"Wyk auf Föhr"},{"zip_code":"25889","street":"Kirchenweg 2","school_type_entity":"Grundschule","school_type":"Grundschule","phone_number":"+49 4864 684","old_slug":null,"official_id":"0702410","name":"Grundschule Witzwort","lon":8.9866,"lat":54.399,"homepage_url":null,"federal_state_code":"SH","fax_number":"+49 4864 271625","email_address":null,"city":"Witzwort"},{"zip_code":"24398","street":"Mühlenberg 2 a","school_type_entity":"FöZ mit dem SP geistige Entwicklung","school_type":"FöZ mit dem SP geistige Entwicklung","phone_number":"+49 4642 9144111","old_slug":null,"official_id":"0703559","name":"Albert-Schweitzer-Schule","lon":9.91667,"lat":54.61667,"homepage_url":null,"federal_state_code":"SH","fax_number":"+49 4642 9144122","email_address":null,"city":"Winnemark"},{"zip_code":"25554","street":"Am Schulzentrum 3","school_type_entity":"Gemeinschaftsschule","school_type":"Gemeinschaftsschule ohne Oberstufe","phone_number":"+49 4823 337","old_slug":null,"official_id":"0707653","name":"Gemeinschaftsschule des Schulverbandes Wilstermarsch in Wilster","lon":9.368965,"lat":53.923745,"homepage_url":null,"federal_state_code":"SH","fax_number":"+49 4823 92672","email_address":null,"city":"Wilster"},{"zip_code":"25554","street":"Landrecht 45","school_type_entity":"Grundschule","school_type":"Grundschule","phone_number":"+49 4823 8230","old_slug":null,"official_id":"0702926","name":"Wolfgang-Ratke-Schule","lon":9.369192,"lat":53.922029,"homepage_url":null,"federal_state_code":"SH","fax_number":"+49 4823 750336","email_address":null,"city":"Wilster"},{"zip_code":"25746","street":"Holstenstraße 43","school_type_entity":"Grundschule","school_type":"Grundschule","phone_number":"+49 481 72754","old_slug":null,"official_id":"0702213","name":"Grundschule des Grundschulträgerverbandes Heider Umland in Wesseln","lon":9.074038,"lat":54.20941,"homepage_url":null,"federal_state_code":"SH","fax_number":"+49 481 7889455","email_address":null,"city":"Wesseln"},{"zip_code":"25764","street":"Dohrnstraße 1","school_type_entity":"Gemeinschaftsschule","school_type":"Gemeinschaftsschule ohne Oberstufe","phone_number":"+49 4833 525","old_slug":"25764-friedrich-hebbel-schule","official_id":"0707210","name":"Gemeinschaftsschule des Schulverbandes Wesselburen in Wesselburen","lon":8.923795,"lat":54.216283,"homepage_url":"http://www.friedrich-hebbel-schule.de","federal_state_code":"SH","fax_number":"+49 4833 8571","email_address":"info@friedrich-hebbel-schule.de","city":"Wesselburen"},{"zip_code":"21465","street":"Achtern Höben 3","school_type_entity":"Gemeinschaftsschule","school_type":"Gemeinschaftsschule ohne Oberstufe","phone_number":"+49 40 72004430","old_slug":null,"official_id":"0707260","name":"Gemeinschaftsschule der Gemeinde Wentorf in Wentorf bei Hamburg","lon":10.257224,"lat":53.495288,"homepage_url":null,"federal_state_code":"SH","fax_number":"+49 40 720044329","email_address":null,"city":"Wentorf bei Hamburg"},{"zip_code":"21465","street":"Hohler Weg 16","school_type_entity":"Gymnasium","school_type":"Gymnasium","phone_number":"+49 40 72005433","old_slug":null,"official_id":"0705303","name":"Gymnasium Wentorf","lon":10.246401,"lat":53.49969,"homepage_url":null,"federal_state_code":"SH","fax_number":"+49 40 72545028","email_address":null,"city":"Wentorf bei Hamburg"},{"zip_code":"21465","street":"Wohltorfer Weg 6","school_type_entity":"Grundschule","school_type":"Grundschule","phone_number":"+49 40 72004480","old_slug":null,"official_id":"0702314","name":"Grundschule Wentorf","lon":10.25333,"lat":53.49306,"homepage_url":null,"federal_state_code":"SH","fax_number":"+49 40 720044820","email_address":null,"city":"Wentorf bei Hamburg"},{"zip_code":"25996","street":"Norderweg 2","school_type_entity":"Grundschule","school_type":"Grundschule","phone_number":"+49 4651 42276","old_slug":null,"official_id":"0702406","name":"Norddörferschule Wenningstedt","lon":8.334928,"lat":54.942256,"homepage_url":null,"federal_state_code":"SH","fax_number":"+49 4651 446445","email_address":null,"city":"Wenningstedt-Braderup (Sylt)"},{"zip_code":"24999","street":"Hau 1","school_type_entity":"Grundschule","school_type":"Grundschule","phone_number":"+49 4631 952","old_slug":null,"official_id":"0702265","name":"Grundschule Munkbrarup","lon":9.560444,"lat":54.814265,"homepage_url":null,"federal_state_code":"SH","fax_number":"+49 4631 622292","email_address":null,"city":"Wees"},{"zip_code":"22880","street":"Im Autal 37","school_type_entity":"FöZ mit dem SP Lernen","school_type":"FöZ mit dem SP Lernen","phone_number":"+49 4103 912190","old_slug":null,"official_id":"0703458","name":"Pestalozzischule -FöZ-","lon":9.710445,"lat":53.587562,"homepage_url":null,"federal_state_code":"SH","fax_number":"+49 4103 9121920","email_address":null,"city":"Wedel"},{"zip_code":"22880","street":"Rosengarten 18","school_type_entity":"Gemeinschaftsschule","school_type":"Gemeinschaftsschule mit Oberstufe","phone_number":"+49 4103 912150","old_slug":null,"official_id":"0707415","name":"Gebrüder-Humboldt-Schule","lon":9.707871,"lat":53.581218,"homepage_url":null,"federal_state_code":"SH","fax_number":"+49 4103 9121520","email_address":null,"city":"Wedel"},{"zip_code":"22880","street":"Tinsdaler Weg 44","school_type_entity":"Gemeinschaftsschule","school_type":"Gemeinschaftsschule ohne Oberstufe","phone_number":"+49 4103 912160","old_slug":null,"official_id":"0707417","name":"Ernst-Barlach-Gemeinschaftsschule","lon":9.712832,"lat":53.575023,"homepage_url":null,"federal_state_code":"SH","fax_number":"+49 4103 9121620","email_address":null,"city":"Wedel"},{"zip_code":"22880","street":"Am Redder 8","school_type_entity":"Gymnasium","school_type":"Gymnasium","phone_number":"+49 4103 912140","old_slug":"22880-johann-rist-gymnasium","official_id":"0705456","name":"Johann-Rist-Gymnasium","lon":9.700241,"lat":53.58648,"homepage_url":"http://www.jrg-wedel.de","federal_state_code":"SH","fax_number":"+49 4103 9121420","email_address":"jrg@unser-wedel.de","city":"Wedel"},{"zip_code":"22880","street":"Pulverstraße 67 a","school_type_entity":"Grundschule","school_type":"Grundschule","phone_number":"+49 4103 912180","old_slug":null,"official_id":"0702545","name":"Albert-Schweitzer-Schule","lon":9.722909,"lat":53.572234,"homepage_url":null,"federal_state_code":"SH","fax_number":"+49 4103 9121820","email_address":null,"city":"Wedel"},{"zip_code":"22880","street":"Schulstraße 8","school_type_entity":"Grundschule","school_type":"Grundschule","phone_number":"+49 4103 912130","old_slug":null,"official_id":"0702546","name":"Grundschule Altstadt","lon":9.699558,"lat":53.58235,"homepage_url":null,"federal_state_code":"SH","fax_number":"+49 4103 9121320","email_address":null,"city":"Wedel"},{"zip_code":"23812","street":"Scharnhorststrasse 6","school_type_entity":"Grundschule","school_type":"Grundschule","phone_number":"+49 4554 6072540","old_slug":null,"official_id":"0702819","name":"Helen-Keller-Schule","lon":10.206089,"lat":53.95801,"homepage_url":null,"federal_state_code":"SH","fax_number":"+49 4554 991942","email_address":null,"city":"Wahlstedt"},{"zip_code":"25596","street":"Bokelrehmer Straße 51","school_type_entity":"Grundschule","school_type":"Grundschule","phone_number":"+49 4827 677","old_slug":null,"official_id":"0702924","name":"Grundschule des Amtes Schenefeld in Wacken","lon":9.376062,"lat":54.027727,"homepage_url":null,"federal_state_code":"SH","fax_number":"+49 4827 932381","email_address":null,"city":"Wacken"},{"zip_code":"24369","street":"Kirchstraße 12","school_type_entity":"Grundschule","school_type":"Grundschule","phone_number":"+49 4352 91903","old_slug":null,"official_id":"0702681","name":"Grundschule Mittelschwansen","lon":9.987109,"lat":54.533746,"homepage_url":null,"federal_state_code":"SH","fax_number":"+49 4352 919050","email_address":null,"city":"Waabs"},{"zip_code":"25884","street":"Gartenstraße 4 - 8","school_type_entity":"Gemeinschaftsschule","school_type":"Gemeinschaftsschule ohne Oberstufe","phone_number":"+49 4847 411","old_slug":null,"official_id":"0707302","name":"Grund- und Gemeinschaftsschule des Schulverbandes Viöl in Viöl mit Außenstelle in Haselund","lon":9.179211,"lat":54.571028,"homepage_url":null,"federal_state_code":"SH","fax_number":"+49 4843 208181","email_address":null,"city":"Viöl"},{"zip_code":"25436","street":"Birkenallee","school_type_entity":"FöZ mit dem SP Lernen","school_type":"FöZ mit dem SP Lernen","phone_number":"+49 4122 460160","old_slug":"25436-grundschule-birkenallee","official_id":"0703457","name":"Förderzentrum Region Uetersen","lon":9.682792,"lat":53.688517,"homepage_url":"http://www.schule-birkenallee.de","federal_state_code":"SH","fax_number":"+49 4122 460164","email_address":"schulleitung@schule-birkenallee.de","city":"Uetersen"},