[{"zip_code":"16356","street":"Schulstraße 10","school_type_entity":null,"school_type":"Grundschule","phone_number":"+49 33394 579990","old_slug":"16356-grundschule-blumberg","official_id":"102350","name":"Friedrich von Canitz Grundschule Blumberg","lon":13.618922,"lat":52.60201,"homepage_url":"http://www.grundschule-blumberg.de/","federal_state_code":"BB","fax_number":"+49 33394 5799919","email_address":"post@grundschule-blumberg.de","city":"Ahrensfelde/OT Blumberg"},{"zip_code":"14806","street":"Weitzgrunder Weg 3","school_type_entity":null,"school_type":"Grundschule","phone_number":"+49 33841 42155","old_slug":null,"official_id":"101321","name":"Geschwister-Scholl-Grundschule","lon":12.587634,"lat":52.149229,"homepage_url":null,"federal_state_code":"BB","fax_number":"+49 33841 34994","email_address":null,"city":"Bad Belzig"},{"zip_code":"14806","street":"Ernst-Thälmann-Straße 2","school_type_entity":null,"school_type":"Gymnasium","phone_number":"+49 33841 42474","old_slug":"14806-flaeming-gymnasium-belzig","official_id":"120224","name":"Fläming-Gymnasium","lon":12.587466,"lat":52.142724,"homepage_url":"http://www.gymbel.de","federal_state_code":"BB","fax_number":"+49 33841 34938","email_address":"gymbel@t-online.de","city":"Bad Belzig"},{"zip_code":"16278","street":"Fischerstraße 16","school_type_entity":null,"school_type":"Grundschule","phone_number":"+49 3331 32649","old_slug":null,"official_id":"100640","name":"Puschkinschule","lon":14.004073,"lat":53.01987,"homepage_url":null,"federal_state_code":"BB","fax_number":"+49 3331 299785","email_address":null,"city":"Angermünde"},{"zip_code":"16278","street":"Rudolf-Harbig-Straße 12","school_type_entity":null,"school_type":"Grundschule","phone_number":"+49 3331 32644","old_slug":null,"official_id":"100638","name":"Gustav-Bruhn-Grundschule","lon":13.984404,"lat":53.018195,"homepage_url":null,"federal_state_code":"BB","fax_number":"+49 3331 32644","email_address":null,"city":"Angermünde"},{"zip_code":"16278","street":"Heinrichstraße 7","school_type_entity":null,"school_type":"Gymnasium","phone_number":"+49 3331 26170","old_slug":null,"official_id":"120108","name":"Einstein-Gymnasium","lon":13.99768,"lat":53.018433,"homepage_url":null,"federal_state_code":"BB","fax_number":"+49 3331 261725","email_address":null,"city":"Angermünde"},{"zip_code":"16278","street":"Puschkinallee 30a","school_type_entity":null,"school_type":"Oberschule","phone_number":"+49 3331 32504","old_slug":null,"official_id":"110449","name":"Ehm Welk - Oberschule integrativ-kooperative Ganztagsschule mit Förderklassen","lon":13.99562,"lat":53.011386,"homepage_url":null,"federal_state_code":"BB","fax_number":"+49 3331 299746","email_address":null,"city":"Angermünde"},{"zip_code":"15838","street":"Puschkinstraße 6","school_type_entity":null,"school_type":"Grundschule","phone_number":"+49 33703 77439","old_slug":null,"official_id":"100584","name":"Anne Frank-Grundschule","lon":13.358217,"lat":52.14102,"homepage_url":null,"federal_state_code":"BB","fax_number":"+49 33703 68775","email_address":null,"city":"Am Mellensee/OT Sperenberg"},{"zip_code":"15838","street":"Hauptstraße 16","school_type_entity":null,"school_type":"Grundschule","phone_number":"+49 3377 300697","old_slug":null,"official_id":"100560","name":"Grundschule am Mellensee","lon":13.414516,"lat":52.185299,"homepage_url":null,"federal_state_code":"BB","fax_number":"+49 3377 3300424","email_address":null,"city":"Am Mellensee"},{"zip_code":"15345","street":"Klosterstraße 3","school_type_entity":null,"school_type":"Oberschule mit Grundschule","phone_number":"+49 33438 60222","old_slug":null,"official_id":"110620","name":"Stadtschule Altlandsberg Oberschule mit Grundschulteil","lon":13.726359,"lat":52.563354,"homepage_url":null,"federal_state_code":"BB","fax_number":"+49 33438 67983","email_address":null,"city":"Altlandsberg"},{"zip_code":"03229","street":"Schulstraße 1","school_type_entity":null,"school_type":"Grundschule","phone_number":"+49 35434 346","old_slug":null,"official_id":"100183","name":"Lilien-Grundschule Altdöbern","lon":14.01935,"lat":51.650675,"homepage_url":null,"federal_state_code":"BB","fax_number":"+49 35434 664231","email_address":null,"city":"Altdöbern"},{"zip_code":"04924","street":"Heinrich-Heine-Straße 42","school_type_entity":null,"school_type":"Oberschule","phone_number":"+49 35341 2784","old_slug":null,"official_id":"130280","name":"Robert-Reiss-Oberschule Schule mit berufsfeldorientiertem Unterricht","lon":13.400666,"lat":51.527659,"homepage_url":null,"federal_state_code":"BB","fax_number":"+49 35341 493863","email_address":null,"city":"Bad Liebenwerda"},{"zip_code":"04924","street":"Riesaer Straße 5-7","school_type_entity":null,"school_type":"Grundschule","phone_number":"+49 35341 10032","old_slug":null,"official_id":"105788","name":"Grundschulzentrum Robert Reiss Bad Liebenwerda","lon":13.391744,"lat":51.508244,"homepage_url":null,"federal_state_code":"BB","fax_number":"+49 35341 26754","email_address":null,"city":"Bad Liebenwerda"},{"zip_code":"16259","street":"Oderberger Chaussee 11","school_type_entity":null,"school_type":"Grundschule","phone_number":"+49 33369 213","old_slug":null,"official_id":"100122","name":"Insel-Grundschule","lon":14.050646,"lat":52.838829,"homepage_url":null,"federal_state_code":"BB","fax_number":"+49 33369 213","email_address":null,"city":"Bad Freienwalde (Oder)/OT Neuenhagen"},{"zip_code":"16259","street":"Am Scheunenberg 1","school_type_entity":null,"school_type":"Gymnasium","phone_number":"+49 3344 3806","old_slug":"16259-gymnasium-bertolt-brecht","official_id":"120030","name":"Gymnasium \"Bertolt Brecht\"","lon":14.040226,"lat":52.78295,"homepage_url":"http://www.gymnasium-bad-freienwalde.de/","federal_state_code":"BB","fax_number":"+49 3344 332212","email_address":"gymnasium_bad_freienwalde@t-online.de","city":"Bad Freienwalde (Oder)"},{"zip_code":"15806","street":"Chausseestraße 6","school_type_entity":null,"school_type":"Oberschule","phone_number":"+49 33702 66411","old_slug":null,"official_id":"130060","name":"Oberschule Wünsdorf","lon":13.46614,"lat":52.161312,"homepage_url":null,"federal_state_code":"BB","fax_number":"+49 33702 66629","email_address":null,"city":"Zossen/OT Wünsdorf"},{"zip_code":"16269","street":"Freienwalder Straße 1","school_type_entity":null,"school_type":"Gymnasium","phone_number":"+49 33456 15090","old_slug":null,"official_id":"121241","name":"Evangelisches Johanniter-Gymnasium Wriezen - anerkannte Ersatzschule","lon":14.132941,"lat":52.721285,"homepage_url":null,"federal_state_code":"BB","fax_number":"+49 33456 150915","email_address":null,"city":"Wriezen"},{"zip_code":"16269","street":"Freienwalder Straße 1","school_type_entity":null,"school_type":"Grundschule","phone_number":"+49 33456 15090","old_slug":null,"official_id":"106744","name":"Ev. Johanniter - Grundschule Wriezen - genehmigte Ersatzschule -","lon":14.132941,"lat":52.721285,"homepage_url":null,"federal_state_code":"BB","fax_number":"+49 33456 150915","email_address":null,"city":"Wriezen"},{"zip_code":"15569","street":"Vogelsdorfer Str. 5-7","school_type_entity":null,"school_type":"Gesamtschule mit GOST","phone_number":"+49 3362 884556","old_slug":null,"official_id":"113414","name":"Gesamtschule mit gymnasialer Oberstufe Woltersdorf - staatlich anerkannte Ersatzschule -","lon":13.748884,"lat":52.459735,"homepage_url":null,"federal_state_code":"BB","fax_number":"+49 3362 884580","email_address":null,"city":"Woltersdorf"},{"zip_code":"15569","street":"Blumenstraße 13","school_type_entity":null,"school_type":"Grundschule","phone_number":"+49 3362 700973","old_slug":null,"official_id":"106562","name":"Freie Schule Woltersdorf reformpädagogisch orientierte Grundschule","lon":13.762141,"lat":52.450733,"homepage_url":null,"federal_state_code":"BB","fax_number":null,"email_address":null,"city":"Woltersdorf"},{"zip_code":"19322","street":"Horning 9c","school_type_entity":null,"school_type":"Oberschule","phone_number":null,"old_slug":null,"official_id":"180282","name":"IBiS-Oberschule \"Maria Montessori\" Wittenberge Staatlich genehmigte Ersatzschule in Trägerschaft der IBiS GmbH","lon":11.752205,"lat":53.005216,"homepage_url":null,"federal_state_code":"BB","fax_number":null,"email_address":null,"city":"Wittenberge"},{"zip_code":"19322","street":"Horning 9c","school_type_entity":null,"school_type":"Grundschule","phone_number":"+49 3877 9526717","old_slug":null,"official_id":"106161","name":"IBiS-Grundschule \"Maria Montessori\" Wittenberge anerkannte Ersatzschule","lon":11.752205,"lat":53.005216,"homepage_url":null,"federal_state_code":"BB","fax_number":"+49 3877 9526771","email_address":null,"city":"Wittenberge"},{"zip_code":"19322","street":"Perleberger Straße 165","school_type_entity":null,"school_type":"Berufliche Schule in freier Trägerschaft","phone_number":"+49 3877 949150","old_slug":null,"official_id":"200785","name":"Berufliche Schule der BBZ Berufsbildungszentrum Prignitz GmbH anerkannte Ersatzschule","lon":11.753849,"lat":52.996448,"homepage_url":null,"federal_state_code":"BB","fax_number":"+49 3877 561818","email_address":null,"city":"Wittenberge"},{"zip_code":"15745","street":"Eichstraße 1","school_type_entity":null,"school_type":"Gymnasium","phone_number":"+49 3375 216240","old_slug":"15745-gymnasium-villa-elisabeth","official_id":"121034","name":"Gymnasium Villa Elisabeth - anerkannte Ersatzschule - Schule mit internation. Ausrichtung","lon":13.629528,"lat":52.316214,"homepage_url":"http://www.privatschule-villa-elisabeth.de/start33.html","federal_state_code":"BB","fax_number":"+49 3375 216242","email_address":"buero-gve@privatschule-villa-elisabeth.de","city":"Wildau"},{"zip_code":"15745","street":"Kirchstraße 2","school_type_entity":null,"school_type":"Grundschule","phone_number":"+49 3375 5295025","old_slug":null,"official_id":"106641","name":"Grundschule Villa Elisabeth Pestalozzischule - genehmigte Ersatzschule -","lon":13.628047,"lat":52.315844,"homepage_url":null,"federal_state_code":"BB","fax_number":"+49 3375 5295026","email_address":null,"city":"Wildau"},{"zip_code":"14542","street":"Elsastraße 14/16","school_type_entity":null,"school_type":"Waldorfschule","phone_number":"+49 3327 45838","old_slug":null,"official_id":"700058","name":"Freie Waldorfschule Werder (Havel) Christian Morgenstern","lon":12.925352,"lat":52.396224,"homepage_url":null,"federal_state_code":"BB","fax_number":"+49 3327 45863","email_address":null,"city":"Werder (Havel)"},{"zip_code":"03253","street":"Schulstraße 17","school_type_entity":null,"school_type":"Grundschule","phone_number":"+49 35326 93877","old_slug":null,"official_id":"106197","name":"Evangelische Grundschule Tröbitz anerkannte Ersatzschule","lon":13.426388,"lat":51.594246,"homepage_url":null,"federal_state_code":"BB","fax_number":"+49 35326 939930","email_address":null,"city":"Tröbitz"},{"zip_code":"17268","street":"Röddeliner Straße 36","school_type_entity":null,"school_type":"Grundschule","phone_number":"+49 3987 2086210","old_slug":null,"official_id":"400919","name":"Waldhofschule Integrative Grundschule -Eine Schule für alle-","lon":13.480119,"lat":53.115889,"homepage_url":null,"federal_state_code":"BB","fax_number":"+49 3987 2086219","email_address":null,"city":"Templin"},{"zip_code":"17268","street":"Röddeliner Straße 1","school_type_entity":null,"school_type":"Gesamtschule mit GOST","phone_number":"+49 3987 54900","old_slug":null,"official_id":"113463","name":"Aktive Naturschule Templin Gesamtschule mit gymn. Oberstufe - genehmigte Ersatzschule -","lon":13.48523,"lat":53.119863,"homepage_url":null,"federal_state_code":"BB","fax_number":"+49 3987 200640","email_address":null,"city":"Templin"},{"zip_code":"17268","street":"Röddeliner Straße 1","school_type_entity":null,"school_type":"Grundschule","phone_number":"+49 3987 54900","old_slug":null,"official_id":"106379","name":"Aktive Naturschule mit Montessori- Orientierung Templin Grundschule","lon":13.48523,"lat":53.119863,"homepage_url":null,"federal_state_code":"BB","fax_number":"+49 3987 200640","email_address":null,"city":"Templin"},{"zip_code":"14513","street":"Lichterfelder Allee 45","school_type_entity":null,"school_type":"Schule mit dem sonderpäd. Förderschwerpunkt geistige Entwicklung","phone_number":"+49 3328 433534","old_slug":null,"official_id":"401109","name":"Hans-Christian-Andersen-Schule Schule mit dem sonderpädagogischen Förderschwerpunkt \"geistige Entwicklung\"","lon":13.278453,"lat":52.403624,"homepage_url":null,"federal_state_code":"BB","fax_number":"+49 3328 433533","email_address":null,"city":"Teltow"},{"zip_code":"14513","street":"Lichterfelder Allee 45","school_type_entity":null,"school_type":"Grundschule","phone_number":"+49 3328 433272","old_slug":null,"official_id":"106616","name":"Evangelische Ursula-Wölfel-Grundschule Teltow genehmigte Ersatzschule","lon":13.278453,"lat":52.403624,"homepage_url":null,"federal_state_code":"BB","fax_number":"+49 3328 433282","email_address":null,"city":"Teltow"},{"zip_code":"14513","street":"Potsdamer Straße 51","school_type_entity":null,"school_type":"Berufliche Schule in freier Trägerschaft","phone_number":"+49 3328 351519010","old_slug":null,"official_id":"330061","name":"Dietrich-Bonhoeffer-Schule Berufliche Schule des Evangelischen Diakonissenhauses Berlin-Teltow","lon":13.257113,"lat":52.401873,"homepage_url":null,"federal_state_code":"BB","fax_number":"+49 3328 351519019","email_address":null,"city":"Teltow"},{"zip_code":"14513","street":"Oderstraße 57","school_type_entity":null,"school_type":"Berufliche Schule in freier Trägerschaft","phone_number":"+49 3328 475120","old_slug":null,"official_id":"200876","name":"Berufliche Schule für Hotellerie und Gastronomie des Ausbildungsverbunds Teltow e.V.","lon":13.238361,"lat":52.399,"homepage_url":null,"federal_state_code":"BB","fax_number":"+49 3328 475119","email_address":null,"city":"Teltow"},{"zip_code":"16307","street":"Schulstraße 1","school_type_entity":null,"school_type":"Grundschule","phone_number":"+49 33333 31068","old_slug":null,"official_id":"106513","name":"Evangelische Salveytal-Grundschule Tantow","lon":14.350019,"lat":53.266727,"homepage_url":null,"federal_state_code":"BB","fax_number":"+49 33333 31093","email_address":null,"city":"Tantow"},{"zip_code":"15344","street":"Prötzeler Chaussee 7","school_type_entity":null,"school_type":"Gymnasium","phone_number":"+49 3341 311355","old_slug":null,"official_id":"121228","name":"Freie Schule Strausberg - Gymnasium anerkannte Ersatzschule","lon":13.903927,"lat":52.589786,"homepage_url":null,"federal_state_code":"BB","fax_number":"+49 3341 250066","email_address":null,"city":"Strausberg"},{"zip_code":"15344","street":"Prötzeler Chaussee 7","school_type_entity":null,"school_type":"Grundschule","phone_number":"+49 3341 311355","old_slug":null,"official_id":"106288","name":"Freie Schule Strausberg Grundschule anerkannte Ersatzschule","lon":13.903927,"lat":52.589786,"homepage_url":null,"federal_state_code":"BB","fax_number":"+49 3341 250066","email_address":null,"city":"Strausberg"},{"zip_code":"15859","street":"Dorfstraße 62","school_type_entity":null,"school_type":"Oberschule","phone_number":"+49 3362 8899914","old_slug":null,"official_id":"130904","name":"Oberschule Chance BugK/Grünheide genehmigte Ersatzschule","lon":13.93333,"lat":52.25,"homepage_url":null,"federal_state_code":"BB","fax_number":"+49 3362 8899911","email_address":null,"city":"Storkow (Mark)/OT Bugk"},{"zip_code":"03130","street":"Gartenstraße 18","school_type_entity":null,"school_type":"Grundschule","phone_number":"+49 3563 594820","old_slug":null,"official_id":"106380","name":"ASF-GRUNDSCHULE \"Lausitzer Haus des Lernens\" Spremberg anerkannte Ersatzschule","lon":14.371615,"lat":51.570648,"homepage_url":null,"federal_state_code":"BB","fax_number":"+49 3563 594346","email_address":null,"city":"Spremberg"},{"zip_code":"01968","street":"Platz des Friedens 5","school_type_entity":null,"school_type":"Grundschule","phone_number":"+49 3573 3675990","old_slug":null,"official_id":"106598","name":"Georg Heinsius von Mayenburg Grundschule genehmigte Ersatzschule","lon":13.974219,"lat":51.506819,"homepage_url":null,"federal_state_code":"BB","fax_number":"+49 3573 36759912","email_address":null,"city":"Senftenberg/OT Brieske"},{"zip_code":"14548","street":"Auf dem Franzensberg 2","school_type_entity":null,"school_type":"Oberschule","phone_number":"+49 3327 599916","old_slug":null,"official_id":"113384","name":"KARIBU-Oberschule Geltow anerkannte Ersatzschule","lon":12.970079,"lat":52.356971,"homepage_url":null,"federal_state_code":"BB","fax_number":"+49 3327 599999","email_address":null,"city":"Schwielowsee/OT Geltow"},{"zip_code":"14548","street":"Auf dem Franzensberg 2","school_type_entity":null,"school_type":"Schule mit dem sonderpäd. Förderschwerpunkt emotionale und soziale Entwicklung","phone_number":"+49 3327 599917","old_slug":null,"official_id":"401468","name":"Förderschule für Erziehungshilfe","lon":12.970079,"lat":52.356971,"homepage_url":null,"federal_state_code":"BB","fax_number":"+49 3327 599999","email_address":null,"city":"Schwielowsee/OT Geltow"},{"zip_code":"16303","street":"Schwedter Straße 4","school_type_entity":null,"school_type":"Oberschule mit Grundschule","phone_number":"+49 3332 269744","old_slug":null,"official_id":"401481","name":"Ev. Schulzentrum TABALUGA Oberschule mit koop.-integr. Förderklassen","lon":14.294737,"lat":53.093812,"homepage_url":null,"federal_state_code":"BB","fax_number":"+49 3332 269887","email_address":null,"city":"Schwedt/Oder/OT Vierraden"},{"zip_code":"16303","street":"Lindenallee 32","school_type_entity":null,"school_type":"Grundschule","phone_number":"+49 3332 834520","old_slug":null,"official_id":"106665","name":"Evangelische Grundschule Schwedt/Oder genehmigte Ersatzschule","lon":14.288067,"lat":53.059726,"homepage_url":null,"federal_state_code":"BB","fax_number":"+49 3332 834529","email_address":null,"city":"Schwedt/Oder"},{"zip_code":"12529","street":"Am Pfarracker 2","school_type_entity":null,"school_type":"Gymnasium","phone_number":"+49 3379 322770","old_slug":null,"official_id":"121319","name":"Evangelische Schule Schönefeld - Gymnasium - genehmigte Ersatzschule (anerkannt in der Sekundarstufe I)","lon":13.50472,"lat":52.38833,"homepage_url":null,"federal_state_code":"BB","fax_number":"+49 3379 3227725","email_address":null,"city":"Schönefeld"},{"zip_code":"04932","street":"Frauenhainer Weg 1","school_type_entity":null,"school_type":"Oberschule","phone_number":"+49 3533 8225","old_slug":null,"official_id":"130916","name":"Oberschule Prösen \"Aktive Entwicklungsschule\" - anerkannte Ersatzschule -","lon":13.48751,"lat":51.42566,"homepage_url":null,"federal_state_code":"BB","fax_number":"+49 3533 607969","email_address":null,"city":"Röderland/OT Prösen"},{"zip_code":"15518","street":"Schulstraße 3","school_type_entity":null,"school_type":"Grundschule","phone_number":"+49 3361 373717","old_slug":null,"official_id":"106501","name":"Pfarrer Bräuer Schule Evangelische Grundschule in Rauen genehmigte Ersatzschule","lon":14.028328,"lat":52.327752,"homepage_url":null,"federal_state_code":"BB","fax_number":"+49 3361 373787","email_address":null,"city":"Rauen"},{"zip_code":"15834","street":"Stauffenbergallee 6","school_type_entity":null,"school_type":"Oberschule","phone_number":"+49 33708 44947","old_slug":"15834-freies-gymnasium-seeschule-rangsdorf-internat-ganztagsschule","official_id":"180210","name":"Seeoberschule Rangsdorf anerkannte Ersatzschule","lon":13.417789,"lat":52.282144,"homepage_url":"http://www.seeschule.de","federal_state_code":"BB","fax_number":"+49 33708 44948","email_address":"info@seeschule.de","city":"Rangsdorf"},{"zip_code":"15834","street":"Stauffenbergallee 6","school_type_entity":null,"school_type":"Gymnasium","phone_number":"+49 33708 44947","old_slug":"15834-freies-gymnasium-seeschule-rangsdorf-internat-ganztagsschule","official_id":"121101","name":"Freies Gymnasium Rangsdorf Internationale Ganztagsschule mit Internat am See","lon":13.417789,"lat":52.282144,"homepage_url":"http://www.seeschule.de","federal_state_code":"BB","fax_number":"+49 33708 44948","email_address":"info@seeschule.de","city":"Rangsdorf"},{"zip_code":"16928","street":"An der Promenade 5","school_type_entity":null,"school_type":"Berufliche Schule in freier Trägerschaft","phone_number":"+49 3395 709287","old_slug":null,"official_id":"200840","name":"Private Berufsschule für Wirtschaft und Technik Prignitz in Pritzwalk Ersatzschule mit anerkannten und genehmigten Bildungsgängen der Berufsschule","lon":12.17987,"lat":53.151323,"homepage_url":null,"federal_state_code":"BB","fax_number":"+49 3395 764444","email_address":null,"city":"Pritzwalk"},{"zip_code":"17291","street":"Neustädter Damm 5","school_type_entity":null,"school_type":"Oberschule mit Grundschule","phone_number":"+49 3984 831928","old_slug":null,"official_id":"130874","name":"Aktive Naturschule Prenzlau Grund- und Oberschule Oberschule mit angegliedertem Grundschulteil -anerkannte Ersatzschule-","lon":13.846097,"lat":53.309223,"homepage_url":null,"federal_state_code":"BB","fax_number":"+49 3984 831928","email_address":null,"city":"Prenzlau"},{"zip_code":"14727","street":"Alte Hauptstraße 24","school_type_entity":null,"school_type":"Berufliche Schule in freier Trägerschaft","phone_number":"+49 3386 2125480","old_slug":null,"official_id":"330127","name":"Berufliche Schule für Sozialwesen FS Sozialwesen, FR:Soz.päd. und Heilerz.pfl., BFS Soziales anerkannte Ersatzschule","lon":12.329209,"lat":52.533514,"homepage_url":null,"federal_state_code":"BB","fax_number":"+49 3386 21254813","email_address":null,"city":"Premnitz"},{"zip_code":"14476","street":"Hauptstraße 22","school_type_entity":null,"school_type":"Grundschule","phone_number":"+49 33208 20187","old_slug":null,"official_id":"106460","name":"Neue Grundschule Marquardt anerkannte Ersatzschule","lon":12.963584,"lat":52.460876,"homepage_url":null,"federal_state_code":"BB","fax_number":"+49 33208 20188","email_address":null,"city":"Potsdam/OT Marquardt"},{"zip_code":"14478","street":"Erich-Weinert-Straße 5","school_type_entity":null,"school_type":"Waldorfschule","phone_number":"+49 331 972077","old_slug":null,"official_id":"700046","name":"Waldorfschule Potsdam","lon":13.099131,"lat":52.36509,"homepage_url":null,"federal_state_code":"BB","fax_number":"+49 331 87000380","email_address":null,"city":"Potsdam"},{"zip_code":"14480","street":"Fritz-Lang-Straße 15","school_type_entity":null,"school_type":"Gymnasium","phone_number":"+49 331 9513661","old_slug":"14480-schiller-grundschule-im-sternfeld","official_id":"121113","name":"Schiller-Gymnasium","lon":13.143599,"lat":52.367739,"homepage_url":"http://www.schiller.gs/modx/","federal_state_code":"BB","fax_number":"+49 331 9513662","email_address":"sternfeld@t-online.de","city":"Potsdam"},{"zip_code":"14480","street":"Sternstraße 68","school_type_entity":null,"school_type":"Grundschule","phone_number":"+49 331 6009301","old_slug":null,"official_id":"106306","name":"Schiller Grundschule im Sternfeld anerkannte Ersatzschule","lon":13.127897,"lat":52.364054,"homepage_url":null,"federal_state_code":"BB","fax_number":"+49 331 6009305","email_address":null,"city":"Potsdam"},{"zip_code":"14482","street":"Rudolf-Breitscheid-Straße 24","school_type_entity":null,"school_type":"Schule mit dem sonderpäd. Förderschwerpunkt körperliche und motorische Entwicklung","phone_number":"+49 331 7634891","old_slug":null,"official_id":"401092","name":"Oberlinschule - Schule mit dem sonderpädagogischen Förderschwerpunkt \"körperliche und motorische Entwicklung\"","lon":13.089904,"lat":52.39258,"homepage_url":null,"federal_state_code":"BB","fax_number":"+49 331 7634900","email_address":null,"city":"Potsdam"},{"zip_code":"14482","street":"Großbeerenstr. 189","school_type_entity":null,"school_type":"Gymnasium","phone_number":"+49 331 70455631","old_slug":null,"official_id":"121095","name":"Neues Gymnasium Potsdam (Babelsberger Filmgymnasium) anerkannte Ersatzschule","lon":13.12075,"lat":52.383222,"homepage_url":null,"federal_state_code":"BB","fax_number":"+49 331 70455639","email_address":null,"city":"Potsdam"},{"zip_code":"14480","street":"Flotowstraße 10","school_type_entity":null,"school_type":"Grundschule","phone_number":"+49 331 20029766","old_slug":null,"official_id":"106124","name":"Neue Grundschule Potsdam anerkannte Ersatzschule","lon":13.136734,"lat":52.382314,"homepage_url":null,"federal_state_code":"BB","fax_number":"+49 331 2011049","email_address":null,"city":"Potsdam"},{"zip_code":"14482","street":"Großbeerenstraße 189","school_type_entity":null,"school_type":"Gesamtschule mit GOST","phone_number":"+49 331 70455631","old_slug":null,"official_id":"113440","name":"Neue Gesamtschule Babelsberg der ASG - Anerkannte Ersatzschule in der Sekundarstufe I -","lon":13.12075,"lat":52.383222,"homepage_url":null,"federal_state_code":"BB","fax_number":"+49 331 70455639","email_address":null,"city":"Potsdam"},{"zip_code":"14482","street":"Großbeerenstraße 189","school_type_entity":null,"school_type":"Berufliche Schule in freier Trägerschaft","phone_number":"+49 331 70455651","old_slug":null,"official_id":"200803","name":"Medienschule Babelsberg, BFS für Medien und Kommunikation mit anerkannten Bildungsgängen, FOS - einjährig, anerkannte Ersatzschule in der FR Gestaltung","lon":13.12075,"lat":52.383222,"homepage_url":null,"federal_state_code":"BB","fax_number":"+49 331 70455639","email_address":null,"city":"Potsdam"},{"zip_code":"14482","street":"Espengrund 10","school_type_entity":null,"school_type":"Gymnasium","phone_number":"+49 331 60037130","old_slug":null,"official_id":"121265","name":"Katholische Marienschule Potsdam, Gymnasium anerkannte Ersatzschule","lon":13.114308,"lat":52.395952,"homepage_url":null,"federal_state_code":"BB","fax_number":"+49 331 60037139","email_address":null,"city":"Potsdam"},{"zip_code":"14482","street":"Espengrund 10","school_type_entity":null,"school_type":"Grundschule","phone_number":"+49 331 60037130","old_slug":null,"official_id":"106586","name":"Katholische Marienschule Potsdam Grundschule - anerkannte Ersatzschule -","lon":13.114308,"lat":52.395952,"homepage_url":null,"federal_state_code":"BB","fax_number":null,"email_address":null,"city":"Potsdam"},{"zip_code":"14478","street":"Ravensbergweg 30","school_type_entity":null,"school_type":"Grundschule","phone_number":"+49 331 8873550","old_slug":null,"official_id":"106446","name":"Internationale Grundschule Potsdam Primary School genehmigte Ersatzschule","lon":13.079388,"lat":52.372681,"homepage_url":null,"federal_state_code":"BB","fax_number":"+49 331 88739428","email_address":null,"city":"Potsdam"},{"zip_code":"14480","street":"Fritz-Lang-Straße 15","school_type_entity":null,"school_type":"Gesamtschule mit GOST","phone_number":"+49 331 9513364","old_slug":"14480-schiller-grundschule-im-sternfeld","official_id":"160015","name":"Gesamtschule Potsdam - Drewitzer Modellschule - genehmigte Ersatzschule -","lon":13.143599,"lat":52.367739,"homepage_url":"http://www.schiller.gs/modx/","federal_state_code":"BB","fax_number":"+49 331 9513662","email_address":"sternfeld@t-online.de","city":"Potsdam"},{"zip_code":"14478","street":"Bisamkiez 28","school_type_entity":null,"school_type":"Grundschule","phone_number":"+49 331 8714810","old_slug":"14478-freie-schule-potsdam","official_id":"106010","name":"Freie Schule Potsdam des Vereins Freie Schule Potsdam e.V.","lon":13.100796,"lat":52.376098,"homepage_url":"http://www.freie-schule-potsdam.de/","federal_state_code":"BB","fax_number":"+49 331 8714813","email_address":"hennings@kgw.tu-berlin.de","city":"Potsdam"},{"zip_code":"14480","street":"Röhrenstraße 6","school_type_entity":null,"school_type":"Fachschule","phone_number":"+49 331 73040719","old_slug":null,"official_id":"330255","name":"Fachschule Sozialwesen in der Fachrichtung Sozialpädagogik des AWO-Bezirksverb. Potsdam e.V. anerkannte Ersatzschule","lon":13.132014,"lat":52.380364,"homepage_url":null,"federal_state_code":"BB","fax_number":"+49 331 73040710","email_address":null,"city":"Potsdam"},{"zip_code":"14473","street":"Hermannswerder 18","school_type_entity":null,"school_type":"Gymnasium","phone_number":"+49 331 2313141","old_slug":"14473-evangelisches-gymnasium-d-hoffbauer-stiftung","official_id":"120832","name":"Evangelisches Gymnasium Hermannswerder - mit Internat -","lon":13.032116,"lat":52.382015,"homepage_url":"http://www.gymnasium-hermannswerder.de/","federal_state_code":"BB","fax_number":"+49 331 2313143","email_address":"ev.gymnasium@hoffbauer-stiftung.de","city":"Potsdam"},{"zip_code":"14482","street":"Rudolf-Breitscheid-Straße 21","school_type_entity":null,"school_type":"Grundschule","phone_number":"+49 331 7309314","old_slug":null,"official_id":"106471","name":"Evangelische Grundschule Potsdam-Babelsberg -anerkannte Ersatzschule-","lon":13.090328,"lat":52.392174,"homepage_url":null,"federal_state_code":"BB","fax_number":"+49 331 7309316","email_address":null,"city":"Potsdam"},{"zip_code":"14469","street":"Große Weinmeisterstraße 49","school_type_entity":null,"school_type":"Grundschule","phone_number":"+49 331 2803660","old_slug":"14469-evangelische-grundschule-potsdam","official_id":"106045","name":"Evangelische Grundschule Potsdam","lon":13.063331,"lat":52.415616,"homepage_url":"http://freie-schulen-brandenburg.de/index.php?id=264","federal_state_code":"BB","fax_number":"+49 331 2803666","email_address":"grundschule@hoffbauer-stiftung.de","city":"Potsdam"},{"zip_code":"14480","street":"Steinstraße 80-82-84","school_type_entity":null,"school_type":"Berufliche Schule in freier Trägerschaft","phone_number":"+49 331 6694310","old_slug":null,"official_id":"200440","name":"Berufliche Schule Theodor Hoppe in der Berufsbildungswerk im Oberlinhaus gGmbH","lon":13.139404,"lat":52.384906,"homepage_url":null,"federal_state_code":"BB","fax_number":"+49 331 6694355","email_address":null,"city":"Potsdam"},{"zip_code":"14473","street":"Hermannswerder 10","school_type_entity":null,"school_type":"Berufliche Schule in freier Trägerschaft","phone_number":"+49 331 2313151","old_slug":null,"official_id":"330073","name":"Berufliche Schule Potsdam der Hoffbauer gGmbH","lon":13.031381,"lat":52.382362,"homepage_url":null,"federal_state_code":"BB","fax_number":"+49 331 2313407","email_address":null,"city":"Potsdam"},{"zip_code":"14471","street":"Am Luftschiffhafen 1","school_type_entity":null,"school_type":"Berufliche Schule in freier Trägerschaft","phone_number":"+49 331 90757100","old_slug":null,"official_id":"200864","name":"Berufliche Schule für Sport und Gesundheit der Europäischen Sportakademie des Landes Brandenburg","lon":13.013669,"lat":52.374767,"homepage_url":null,"federal_state_code":"BB","fax_number":"+49 331 90757777","email_address":null,"city":"Potsdam"},{"zip_code":"14471","street":"Zeppelinstraße 152","school_type_entity":null,"school_type":"Berufliche Schule in freier Trägerschaft","phone_number":"+49 331 967220","old_slug":null,"official_id":"330152","name":"Berufliche Schule für Sozialwesen am Brandenburgischen Bildungswerk für Medizin und Soziales e.V.","lon":13.037991,"lat":52.393885,"homepage_url":null,"federal_state_code":"BB","fax_number":"+49 331 9672230","email_address":null,"city":"Potsdam"},{"zip_code":"14469","street":"Kaiser-Friedrich-Straße 32","school_type_entity":null,"school_type":"Grundschule","phone_number":"+49 171 8182464","old_slug":null,"official_id":"106732","name":"AWO Grundschule \"Marie Juchacz\" Potsdam - genehmigte Ersatzschule -","lon":12.988227,"lat":52.404877,"homepage_url":null,"federal_state_code":"BB","fax_number":"+49 331 7304071","email_address":null,"city":"Potsdam"},{"zip_code":"14478","street":"Ravensbergweg 30","school_type_entity":null,"school_type":"Gesamtschule mit GOST","phone_number":"+49 331 8873550","old_slug":null,"official_id":"113438","name":"Alfred-Nobel-Gesamtschule Potsdam - Anerkannte Ersatzschule in der Sekundarstufe I -","lon":13.079388,"lat":52.372681,"homepage_url":null,"federal_state_code":"BB","fax_number":"+49 331 88739428","email_address":null,"city":"Potsdam"},{"zip_code":"14478","street":"Liefeldsgrund 23-25","school_type_entity":null,"school_type":"Grundschule","phone_number":"+49 331 2733034","old_slug":null,"official_id":"106320","name":"Aktive Schule Potsdam Grundschule","lon":13.09365,"lat":52.35943,"homepage_url":null,"federal_state_code":"BB","fax_number":"+49 331 2733039","email_address":null,"city":"Potsdam"},{"zip_code":"14482","street":"Großbeerenstraße 189","school_type_entity":null,"school_type":"Berufliche Schule in freier Trägerschaft","phone_number":"+49 331 23735780","old_slug":null,"official_id":"330267","name":"AGUS/GADAT Berufl. Schule Potsdam FS für Sozialwesen, FR Sozialpädag. anerkannte Ersatzschule","lon":13.12075,"lat":52.383222,"homepage_url":null,"federal_state_code":"BB","fax_number":"+49 331 237357829","email_address":null,"city":"Potsdam"},{"zip_code":"19339","street":"Rambower Weg 3","school_type_entity":null,"school_type":"Schule mit dem sonderpäd. Förderschwerpunkt geistige Entwicklung","phone_number":"+49 33982 61020","old_slug":null,"official_id":"400701","name":"Förderschule im Jugenddorf Prignitz Schule mit dem sonderpädagogischen Förderschwerpunkt \"geistige Entwicklung\"","lon":12.058996,"lat":53.035312,"homepage_url":null,"federal_state_code":"BB","fax_number":"+49 33982 61019","email_address":null,"city":"Plattenburg/OT Hoppenrade"},{"zip_code":"15370","street":"Elbestraße 48","school_type_entity":null,"school_type":"Grundschule","phone_number":"+49 33439 78457","old_slug":null,"official_id":"106082","name":"Katholische Schule St. Hedwig Grundschule","lon":13.782388,"lat":52.530506,"homepage_url":null,"federal_state_code":"BB","fax_number":"+49 33439 53897","email_address":null,"city":"Petershagen/Eggersdorf"},{"zip_code":"15370","street":"Eggersdorfer Straße 91-95","school_type_entity":null,"school_type":"Gesamtschule mit GOST","phone_number":"+49 33439 540029","old_slug":null,"official_id":"113402","name":"Gesamtschule mit GOST Petershagen/Eggersdorf der FAW gGmbH anerkannte Ersatzschule","lon":13.791334,"lat":52.528151,"homepage_url":null,"federal_state_code":"BB","fax_number":"+49 33439 540031","email_address":null,"city":"Petershagen/Eggersdorf"},{"zip_code":"16341","street":"Spreestraße 2","school_type_entity":null,"school_type":"Gymnasium","phone_number":"+49 30 94418124","old_slug":"16341-gymnasium-panketal","official_id":"121083","name":"Gymnasium Panketal Freie Stadtrandschule im Grünen anerkannte Ersatzschule","lon":13.540071,"lat":52.658023,"homepage_url":"http://Freies-Gymnasium-Zepernick.de","federal_state_code":"BB","fax_number":"+49 30 94418696","email_address":"info@gymnasium-panketal.de","city":"Panketal/OT Zepernick"},{"zip_code":"16341","street":"Möserstraße 21","school_type_entity":null,"school_type":"Grundschule","phone_number":null,"old_slug":null,"official_id":"106690","name":"Grundschule an der Panke genehmigte Ersatzschule","lon":13.529801,"lat":52.652298,"homepage_url":null,"federal_state_code":"BB","fax_number":null,"email_address":null,"city":"Panketal/OT Zepernick"},{"zip_code":"16515","street":"Friedrichsthaler Chaussee 18","school_type_entity":null,"school_type":"Oberschule mit Grundschule","phone_number":"+49 3301 206183","old_slug":"16515-freie-adventschule-oberhavel","official_id":"180191","name":"Adventschule Oberhavel Oberschule mit  Grundschulteil","lon":13.27563,"lat":52.795518,"homepage_url":"http://freie-adventschule-oberhavel.de","federal_state_code":"BB","fax_number":"+49 3301 2029151","email_address":"sekretariat@adventschule-oberhavel.de","city":"Oranienburg/OT Friedrichsthal"},{"zip_code":"16515","street":"Struveweg 500","school_type_entity":null,"school_type":"Grundschule","phone_number":"+49 3301 204587","old_slug":"16515-kinderschule-oberhavel","official_id":"106264","name":"Kinderschule Oberhavel Grundschule anerkannte Ersatzschule","lon":13.20711,"lat":52.750086,"homepage_url":"http://www.kinderschule-oberhavel.de","federal_state_code":"BB","fax_number":"+49 3301 205490","email_address":"kinderschule-oberhavel@t-online.de","city":"Oranienburg/OT Eden"},{"zip_code":"16515","street":"Hildburghausener Straße 4","school_type_entity":null,"school_type":"Schule mit dem sonderpäd. Förderschwerpunkt geistige Entwicklung","phone_number":"+49 3301 538168","old_slug":null,"official_id":"401110","name":"Schule St. Johannesberg Schule mit dem sonderpädagogischen Förderschwerpunkt \"geistige Entwicklung\"","lon":13.236805,"lat":52.739792,"homepage_url":null,"federal_state_code":"BB","fax_number":"+49 3301 538169","email_address":null,"city":"Oranienburg"},{"zip_code":"16515","street":"Liebigstraße 34","school_type_entity":null,"school_type":"Oberschule","phone_number":null,"old_slug":null,"official_id":"180268","name":"Mosaik-Oberschule Oberhavel - genehmigte Ersatzschule","lon":13.245636,"lat":52.759025,"homepage_url":null,"federal_state_code":"BB","fax_number":null,"email_address":null,"city":"Oranienburg"},{"zip_code":"16515","street":"Liebigstraße 34","school_type_entity":null,"school_type":"Gymnasium","phone_number":"+49 3301 8390251","old_slug":null,"official_id":"121253","name":"Mosaik-Gymnasium Oberhavel - anerkannte Ersatzschule in freier Trägerschaft der Jugend- und Sozialwerk gGmbH Oranienburg Kreis Oberhavel","lon":13.245636,"lat":52.759025,"homepage_url":null,"federal_state_code":"BB","fax_number":"+49 3301 8390252","email_address":null,"city":"Oranienburg"},{"zip_code":"16515","street":"Rungestraße 17","school_type_entity":null,"school_type":"Grundschule","phone_number":"+49 3301 5777702","old_slug":null,"official_id":"106057","name":"Mosaik-Grundschule-Oranienburg anerkannte Ersatzschule","lon":13.243582,"lat":52.757721,"homepage_url":null,"federal_state_code":"BB","fax_number":"+49 3301 5777703","email_address":null,"city":"Oranienburg"},{"zip_code":"16515","street":"Bernauer Straße 146A","school_type_entity":null,"school_type":"Fachschule","phone_number":null,"old_slug":null,"official_id":"330279","name":"Mosaik-Fachschule für Sozialwesen - genehmigte Ersatzschule","lon":13.269161,"lat":52.762154,"homepage_url":null,"federal_state_code":"BB","fax_number":null,"email_address":null,"city":"Oranienburg"},{"zip_code":"15898","street":"Stiftsplatz 7","school_type_entity":null,"school_type":"Gymnasium","phone_number":"+49 33652 82580","old_slug":"15898-gymnasium-im-stift-neuzelle-dr-p-rahn-partner-schulen-in-freier-traegerschaft-gemeinnuetzige-schulgesellschaft-mbh","official_id":"121174","name":"Rahn Education - Freies Gymnasium im Stift Neuzelle, Staatlich anerkannte Ersatzschule","lon":14.651806,"lat":52.090701,"homepage_url":"http://www.rahn-schulen.de/gymnasium-nz/","federal_state_code":"BB","fax_number":"+49 33652 8258255","email_address":"gymnasium-nz@rahn-schulen.de","city":"Neuzelle"},{"zip_code":"15898","street":"Stiftsplatz 7a","school_type_entity":null,"school_type":"Oberschule","phone_number":"+49 33652 8258250","old_slug":null,"official_id":"180154","name":"Rahn Education - Freie Oberschule im Stift Neuzelle, Staatlich anerkannte Ersatzschule","lon":14.651806,"lat":52.090701,"homepage_url":null,"federal_state_code":"BB","fax_number":"+49 33652 8258255","email_address":null,"city":"Neuzelle"},{"zip_code":"15896","street":"Frankfurter Straße 3 a","school_type_entity":null,"school_type":"Grundschule","phone_number":"+49 33652 825890","old_slug":null,"official_id":"401134","name":"Integrative katholische Grundschule Neuzelle  mit vorübergehend  angegliederten Förderklassen für Schülerinnen und Schüler mit einer geistigen Behinderung - genehmigte Ersatzschule -","lon":14.648857,"lat":52.089592,"homepage_url":null,"federal_state_code":"BB","fax_number":"+49 33652 6147","email_address":null,"city":"Neuzelle"},{"zip_code":"16845","street":"Roddahner Dorfstraße 9","school_type_entity":null,"school_type":"Oberschule","phone_number":"+49 33973 809711","old_slug":null,"official_id":"130898","name":"Nachbarschaftsschule Freie Schule","lon":12.30741,"lat":52.830648,"homepage_url":null,"federal_state_code":"BB","fax_number":"+49 33973 52898","email_address":null,"city":"Neustadt (Dosse)/OT Roddahn"},{"zip_code":"16845","street":"Roddahner Dorfstraße 9","school_type_entity":null,"school_type":"Grundschule","phone_number":"+49 33973 809711","old_slug":null,"official_id":"106021","name":"Nachbarschaftsschule Freie Grundschule Roddahn des Vereins Tausendweg e.V.","lon":12.30741,"lat":52.830648,"homepage_url":null,"federal_state_code":"BB","fax_number":null,"email_address":null,"city":"Neustadt (Dosse)/OT Roddahn"},{"zip_code":"16816","street":"Wichmannstraße 9","school_type_entity":null,"school_type":"Oberschule","phone_number":null,"old_slug":null,"official_id":"180270","name":"Montessori-Oberschule Neuruppin - genehmigte Ersatzschule -","lon":12.805315,"lat":52.923855,"homepage_url":null,"federal_state_code":"BB","fax_number":null,"email_address":null,"city":"Neuruppin"},{"zip_code":"16816","street":"Wichmannstraße 17","school_type_entity":null,"school_type":"Grundschule","phone_number":"+49 3391 402818","old_slug":null,"official_id":"106173","name":"Montessori-Grundschule Neuruppin in freier Trägerschaft der IBiS Bildungsstätten GmbH staatlich anerkannte Ersatzschule","lon":12.806519,"lat":52.923573,"homepage_url":null,"federal_state_code":"BB","fax_number":"+49 3391 402819","email_address":null,"city":"Neuruppin"},{"zip_code":"16816","street":"Regattastraße 9","school_type_entity":null,"school_type":"Grundschule","phone_number":"+49 3391 505784","old_slug":"16816-evangelische-schule-neuruppin","official_id":"106331","name":"Evanglische Schule Neuruppin Grundschule anerkannte Ersatzschule","lon":12.807993,"lat":52.916943,"homepage_url":"http://www.gymnasium-neuruppin.de","federal_state_code":"BB","fax_number":"+49 3391 503536","email_address":"info@gymnasium-neuruppin.de","city":"Neuruppin"},{"zip_code":"16816","street":"Regattastraße 9","school_type_entity":null,"school_type":"Gymnasium","phone_number":"+49 3391 505784","old_slug":"16816-evangelische-schule-neuruppin","official_id":"121009","name":"Evangelische Schule Neuruppin Gymnasium","lon":12.807993,"lat":52.916943,"homepage_url":"http://www.gymnasium-neuruppin.de","federal_state_code":"BB","fax_number":"+49 3391 503536","email_address":"info@gymnasium-neuruppin.de","city":"Neuruppin"},{"zip_code":"16818","street":"Regattastraße 9","school_type_entity":null,"school_type":"Oberschule","phone_number":"+49 3391 505784","old_slug":null,"official_id":"180208","name":"Evangelische Schule Neuruppin Oberschule anerkannte Ersatzschule","lon":12.807993,"lat":52.916943,"homepage_url":null,"federal_state_code":"BB","fax_number":"+49 3391 503536","email_address":null,"city":"Neuruppin"},{"zip_code":"16816","street":"Artur-Becker-Straße 11","school_type_entity":null,"school_type":"Berufliche Schule in freier Trägerschaft","phone_number":"+49 3391 403065","old_slug":null,"official_id":"200761","name":"Berufsschule des Internationalen Bundes in Neuruppin anerkannte Ersatzschule","lon":12.796298,"lat":52.9148,"homepage_url":null,"federal_state_code":"BB","fax_number":"+49 3391 403126","email_address":null,"city":"Neuruppin"},{"zip_code":"16816","street":"Alt Ruppiner Allee 40","school_type_entity":null,"school_type":"Berufliche Schule in freier Trägerschaft","phone_number":"+49 3391 402700","old_slug":null,"official_id":"200633","name":"AGUS/GADAT Berufliche Schule Neuruppin","lon":12.826533,"lat":52.949754,"homepage_url":null,"federal_state_code":"BB","fax_number":"+49 3391 402709","email_address":null,"city":"Neuruppin"},{"zip_code":"15366","street":"Puschkinweg 3-5","school_type_entity":null,"school_type":"Oberschule","phone_number":"+49 3342 697","old_slug":null,"official_id":"180014","name":"Oberschule Neuenhagen bei Berlin mit berufsorientierendem Profil anerkannte Ersatzschule","lon":13.71013,"lat":52.514588,"homepage_url":null,"federal_state_code":"BB","fax_number":"+49 3342 212300","email_address":null,"city":"Neuenhagen bei Berlin"},{"zip_code":"15366","street":"Ziegelstraße 16","school_type_entity":null,"school_type":"Berufliche Schule in freier Trägerschaft","phone_number":"+49 3342 253810","old_slug":null,"official_id":"200566","name":"Berufliche Schule Neuenhagen Ersatzschule mit anerkannten Bildungsgängen der Berufsschule","lon":13.710734,"lat":52.523083,"homepage_url":null,"federal_state_code":"BB","fax_number":"+49 3342 253815","email_address":null,"city":"Neuenhagen bei Berlin"},{"zip_code":"03159","street":"Dorfstraße 22","school_type_entity":null,"school_type":"Grundschule","phone_number":"+49 35600 6216","old_slug":null,"official_id":"106290","name":"Evangelische Grundschule Groß Kölzig genehmigte Ersatzschule","lon":14.597377,"lat":51.638263,"homepage_url":null,"federal_state_code":"BB","fax_number":"+49 35600 23497","email_address":null,"city":"Neiße-Malxetal/OT Groß Kölzig"},{"zip_code":"14641","street":"Alfred-Nobel-Straße 10","school_type_entity":null,"school_type":"Gymnasium","phone_number":"+49 3321 7487820","old_slug":null,"official_id":"121060","name":"Leonardo da Vinci-Campus Internationales Ganztagsgymnasium","lon":12.889065,"lat":52.596368,"homepage_url":null,"federal_state_code":"BB","fax_number":"+49 3321 7487850","email_address":null,"city":"Nauen"},{"zip_code":"14641","street":"Alfred-Nobel-Straße 10","school_type_entity":null,"school_type":"Grundschule","phone_number":"+49 3321 7487821","old_slug":null,"official_id":"106276","name":"LEONARDO DA VINCI CAMPUS  Kreativitäts- und Ganztagsgrundschule Nauen - anerkannte Ersatzschule -","lon":12.889065,"lat":52.596368,"homepage_url":null,"federal_state_code":"BB","fax_number":"+49 3321 7487850","email_address":null,"city":"Nauen"},{"zip_code":"14641","street":"Alfred-Nobel-Straße 10","school_type_entity":null,"school_type":"Gesamtschule mit GOST","phone_number":"+49 3321 7487822","old_slug":null,"official_id":"180117","name":"Kreativitäts- u. Ganztagsgesamtschule auf dem Leonardo-da-Vinci-Campus Nauen -genehmigte Ersatzschule-","lon":12.889065,"lat":52.596368,"homepage_url":null,"federal_state_code":"BB","fax_number":"+49 3321 7487850","email_address":null,"city":"Nauen"},{"zip_code":"14641","street":"Zu den Luchbergen 25","school_type_entity":null,"school_type":"Berufliche Schule in freier Trägerschaft","phone_number":"+49 3321 48080","old_slug":null,"official_id":"200499","name":"Berufliche Schule für Wirtschaft Nauen","lon":12.888472,"lat":52.600115,"homepage_url":null,"federal_state_code":"BB","fax_number":"+49 3321 455351","email_address":null,"city":"Nauen"},{"zip_code":"14552","street":"Langerwischer Straße 27","school_type_entity":null,"school_type":"Schule mit dem sonderpäd. Förderschwerpunkt geistige Entwicklung","phone_number":"+49 33205 245851","old_slug":null,"official_id":"401122","name":"Schule am Norberthaus gGmbH Schule mit dem sonderpädagogischenFörderschwerpunkt \"geistige Entwicklung\" anerkannte Ersatzschule","lon":13.034302,"lat":52.312594,"homepage_url":null,"federal_state_code":"BB","fax_number":"+49 33205 245852","email_address":null,"city":"Michendorf"},{"zip_code":"03222","street":"Alexander-von-Humboldt-Straße 43","school_type_entity":null,"school_type":"Berufliche Schule in freier Trägerschaft","phone_number":"+49 3542 889712","old_slug":null,"official_id":"330164","name":"Berufliche Schule der Arbeiterwohlfahrt Regionalverband Brandenburg Süd e.V","lon":13.943653,"lat":51.862441,"homepage_url":null,"federal_state_code":"BB","fax_number":"+49 3542 889719","email_address":null,"city":"Lübbenau/Spreewald"},{"zip_code":"15907","street":"Berliner Straße 21","school_type_entity":null,"school_type":"Grundschule","phone_number":"+49 3546 226503","old_slug":null,"official_id":"106392","name":"Evangelische Grundschule Lübben -anerkannte Ersatzschule-","lon":13.89099,"lat":51.94408,"homepage_url":null,"federal_state_code":"BB","fax_number":"+49 3546 226745","email_address":null,"city":"Lübben"},{"zip_code":"16835","street":"Granseer Straße 10","school_type_entity":null,"school_type":"Berufliche Schule in freier Trägerschaft","phone_number":"+49 33933 90238","old_slug":null,"official_id":"200670","name":"Berufliche Schule für Sport und Soziales Lindow der ESAB gGmbH, BFS anerk. Berufsabschluss Sportassistent FS Sozialw.-FR Sozialpäd. anerkannt","lon":13.006813,"lat":52.977977,"homepage_url":null,"federal_state_code":"BB","fax_number":"+49 33933 90240","email_address":null,"city":"Lindow (Mark)"},{"zip_code":"01979","street":"Hüttenstraße 1c","school_type_entity":null,"school_type":"Berufliche Schule in freier Trägerschaft","phone_number":"+49 3574 4646990","old_slug":null,"official_id":"330218","name":"Berufl. Schule f. Sozialwesen der HEC Lauchhammer FS f. Sozialwesen mit den anerk. FR Heilerz.pfl. und Sozialpäd. anerk. BFS f. Soziales","lon":13.79865,"lat":51.5031,"homepage_url":null,"federal_state_code":"BB","fax_number":"+49 3574 4646991","email_address":null,"city":"Lauchhammer"},{"zip_code":"15713","street":"Schulstraße 03","school_type_entity":null,"school_type":"Grundschule","phone_number":"+49 33762 207462","old_slug":null,"official_id":"106630","name":"Montessori Grundschule Königs Wusterhausen der FAW gGmbH genehmigte Ersatzschule","lon":13.664308,"lat":52.342939,"homepage_url":null,"federal_state_code":"BB","fax_number":"+49 33762 220088","email_address":null,"city":"Königs Wusterhausen"},{"zip_code":"15713","street":"Schulstraße 3","school_type_entity":null,"school_type":"Gesamtschule mit GOST","phone_number":"+49 33762 889860","old_slug":null,"official_id":"113499","name":"Gesamtschule mit gymn. Oberstufe Königs Wusterhausen der FAW gGmbH - genehmigte Ersatzschule -","lon":13.669171,"lat":52.340581,"homepage_url":null,"federal_state_code":"BB","fax_number":"+49 33762 889861","email_address":null,"city":"Königs Wusterhausen"},{"zip_code":"14532","street":"Am Hochwald 30","school_type_entity":null,"school_type":"Waldorfschule","phone_number":"+49 33203 70021","old_slug":"14532-berlin-brandenburg-international-school","official_id":"700034","name":"Freie Waldorfschule Kleinmachnow","lon":13.214086,"lat":52.399804,"homepage_url":"http://www.bbis.de","federal_state_code":"BB","fax_number":"+49 33203 70022","email_address":"office@bbis.de","city":"Kleinmachnow"},{"zip_code":"14532","street":"Schwarzer Weg 7","school_type_entity":null,"school_type":"Gymnasium","phone_number":"+49 3328 351790","old_slug":null,"official_id":"121277","name":"Evangelisches Gymnasium Kleinmachnow anerkannte Ersatzschule","lon":13.234883,"lat":52.39456,"homepage_url":null,"federal_state_code":"BB","fax_number":"+49 3328 3517928","email_address":null,"city":"Kleinmachnow"},{"zip_code":"14532","street":"Schwarzer Weg 1","school_type_entity":null,"school_type":"Grundschule","phone_number":"+49 33203 879980","old_slug":null,"official_id":"106343","name":"Evangelische Grundschule Kleinmachnow anerkannte Ersatzschule","lon":13.23189,"lat":52.395812,"homepage_url":null,"federal_state_code":"BB","fax_number":"+49 33203 879988","email_address":null,"city":"Kleinmachnow"},{"zip_code":"14532","street":"Schopfheimer Allee 10","school_type_entity":null,"school_type":"Oberschule mit Grundschule","phone_number":"+49 33203 80360","old_slug":null,"official_id":"105673","name":"Berlin Brandenburg International School GmbH (BBIS)","lon":13.2198894,"lat":52.4021784,"homepage_url":null,"federal_state_code":"BB","fax_number":"+49 33203 803621","email_address":null,"city":"Kleinmachnow"},{"zip_code":"14913","street":"Am Dammtor 16","school_type_entity":null,"school_type":"Grundschule","phone_number":"+49 3372 443453","old_slug":null,"official_id":"106409","name":"Evangelische Grundschule Jüterbog  - anerkannte Ersatzschule","lon":13.073508,"lat":51.990666,"homepage_url":null,"federal_state_code":"BB","fax_number":"+49 3372 443456","email_address":null,"city":"Jüterbog"},{"zip_code":"16247","street":"Brunoldstraße 16A","school_type_entity":null,"school_type":"Gymnasium","phone_number":"+49 33361 72811","old_slug":null,"official_id":"121198","name":"Freies Joachimsthaler Gymnasium anerkannte Ersatzschule","lon":13.74987,"lat":52.973359,"homepage_url":null,"federal_state_code":"BB","fax_number":"+49 33361 72813","email_address":null,"city":"Joachimsthal"},{"zip_code":"16540","street":"Berliner Straße 60","school_type_entity":null,"school_type":"Grundschule","phone_number":"+49 3303 218022","old_slug":null,"official_id":"106483","name":"Mosaik-Grundschule Oberhavel anerkannte Ersatzschule","lon":13.275088,"lat":52.706642,"homepage_url":null,"federal_state_code":"BB","fax_number":"+49 3303 218023","email_address":null,"city":"Hohen Neuendorf"},{"zip_code":"16909","street":"Stiftsgelände (Stifthauptmannshaus 17) 1","school_type_entity":null,"school_type":"Oberschule mit Grundschule","phone_number":"+49 33962 129988","old_slug":null,"official_id":"180063","name":"Gemeinschaftsschule im Kloster Stift zum Heiligengrabe Oberschule m. angegliederten Grundschulteil, anerkannte Ersatzschule für die Oberschule","lon":12.35,"lat":53.15,"homepage_url":null,"federal_state_code":"BB","fax_number":null,"email_address":null,"city":"Heiligengrabe"},{"zip_code":"15754","street":"Blossiner Weg 3","school_type_entity":null,"school_type":"Oberschule","phone_number":"+49 33767 89015","old_slug":null,"official_id":"180142","name":"Jean-Itard-Ersatzschule Integrative Oberschule  -genehmigte Ersatzschule -","lon":13.822995,"lat":52.273166,"homepage_url":null,"federal_state_code":"BB","fax_number":"+49 33767 30948","email_address":null,"city":"Heidesee/OT Wolzig"},{"zip_code":"15537","street":"Große Waldstraße 19","school_type_entity":null,"school_type":"Oberschule","phone_number":"+49 33632 59923","old_slug":null,"official_id":"180105","name":"Freie Montessori Oberschule Hangelsberg der FAW gGmbH -anerkannte Ersatzschule-","lon":13.927335,"lat":52.395385,"homepage_url":null,"federal_state_code":"BB","fax_number":"+49 33632 59301","email_address":null,"city":"Grünheide (Mark)/OT Hangelsberg"},{"zip_code":"15537","street":"Große Waldstraße 19","school_type_entity":null,"school_type":"Grundschule","phone_number":"+49 33632 59068","old_slug":null,"official_id":"106240","name":"Freie Montessori Grundschule Hangelsberg anerkannte Ersatzschule","lon":13.927335,"lat":52.395385,"homepage_url":null,"federal_state_code":"BB","fax_number":"+49 33632 59301","email_address":null,"city":"Grünheide (Mark)/OT Hangelsberg"},{"zip_code":"15537","street":"An der Löcknitz 10","school_type_entity":null,"school_type":"Gymnasium","phone_number":"+49 3362 299583","old_slug":null,"official_id":"121204","name":"Philipp-Melanchthon-Gymnasium Humanistisches Privatgymnasium anerkannte Ersatzschule","lon":13.82381,"lat":52.414034,"homepage_url":null,"federal_state_code":"BB","fax_number":"+49 3362 299584","email_address":null,"city":"Grünheide (Mark)"},{"zip_code":"15537","street":"An der Löcknitz 10","school_type_entity":null,"school_type":"Oberschule","phone_number":"+49 3362 299583","old_slug":null,"official_id":"180040","name":"Bettina-von-Arnim-Schule Private Oberschule anerkannte Ersatzschule","lon":13.82381,"lat":52.414034,"homepage_url":null,"federal_state_code":"BB","fax_number":"+49 3362 299584","email_address":null,"city":"Grünheide (Mark)"},{"zip_code":"04932","street":"Denkmalplatz 4","school_type_entity":null,"school_type":"Grundschule","phone_number":"+49 35343 78850","old_slug":null,"official_id":"106094","name":"Evangelische Schraden-Grundschule","lon":13.675976,"lat":51.381728,"homepage_url":null,"federal_state_code":"BB","fax_number":null,"email_address":null,"city":"Großthiemig"},{"zip_code":"16928","street":"Baeker Hauptstraße 5 a","school_type_entity":null,"school_type":"Grundschule","phone_number":"+49 38782 41073","old_slug":null,"official_id":"106203","name":"Landweg- Freie Schule Baek Grundschule","lon":11.910186,"lat":53.162787,"homepage_url":null,"federal_state_code":"BB","fax_number":"+49 38782 41906","email_address":null,"city":"Groß Pankow (Prignitz"},{"zip_code":"16775","street":"Buchholzer Weg 1","school_type_entity":null,"school_type":"Oberschule","phone_number":"+49 33085 70227","old_slug":null,"official_id":"130886","name":"Oberschule \"An der Polz\" der Balance gGmbH","lon":13.138806,"lat":53.08548,"homepage_url":null,"federal_state_code":"BB","fax_number":"+49 33085 70691","email_address":null,"city":"Gransee/OT Seilershof"},{"zip_code":"16775","street":"Buchholzer Weg 1","school_type_entity":null,"school_type":"Berufliche Schule in freier Trägerschaft","phone_number":"+49 33085 70227","old_slug":null,"official_id":"200542","name":"Berufliche Schule für gastronomische Berufe","lon":13.138806,"lat":53.08548,"homepage_url":null,"federal_state_code":"BB","fax_number":"+49 33085 70691","email_address":null,"city":"Gransee/OT Seilershof"},{"zip_code":"15537","street":"Berliner Straße 35","school_type_entity":null,"school_type":"Oberschule","phone_number":"+49 3362 889510","old_slug":null,"official_id":"180075","name":"Johannes-Gutenberg-Oberschule -anerkannte Ersatzschule-","lon":13.736045,"lat":52.390938,"homepage_url":null,"federal_state_code":"BB","fax_number":"+49 3362 889511","email_address":null,"city":"Gosen-Neu Zittau"},{"zip_code":"15537","street":"Berliner Straße 35-36","school_type_entity":null,"school_type":"Gymnasium","phone_number":"+49 3362 889510","old_slug":null,"official_id":"121332","name":"Friedrich-Gedike-Gymnasium Humanistisches Privatgymnasium - genehmigte Ersatzschule -","lon":13.71278,"lat":52.39333,"homepage_url":null,"federal_state_code":"BB","fax_number":"+49 3362 889511","email_address":null,"city":"Gosen-Neu Zittau"},{"zip_code":"15537","street":"Berliner Straße 35-36","school_type_entity":null,"school_type":"Berufliche Schule in freier Trägerschaft","phone_number":null,"old_slug":null,"official_id":"200888","name":"Bertha-von-Suttner-Fachoberschule, Private Fachober- schule - anerkannte Ersatzschule in den Fachrichtungen Sozialwesen u. Wirtschaft und Verw.","lon":13.71278,"lat":52.39333,"homepage_url":null,"federal_state_code":"BB","fax_number":null,"email_address":null,"city":"Gosen-Neu Zittau"},{"zip_code":"16548","street":"Schönfließer Straße 16-24","school_type_entity":null,"school_type":"Gymnasium","phone_number":"+49 33056 231901","old_slug":null,"official_id":"121230","name":"Neues Gymnasium Glienicke anerkannte Ersatzschule","lon":13.3145182,"lat":52.6356455,"homepage_url":null,"federal_state_code":"BB","fax_number":"+49 33056 248894","email_address":null,"city":"Glienicke/Nordbahn"},{"zip_code":"15517","street":"Goetheplatz 15 a","school_type_entity":null,"school_type":"Berufliche Schule in freier Trägerschaft","phone_number":"+49 3361 7767920","old_slug":null,"official_id":"200517","name":"Rahn Education - Freie Fachoberschule Fürstenwalde, Staatlich anerkannte Ersatzschule","lon":14.058783,"lat":52.358794,"homepage_url":null,"federal_state_code":"BB","fax_number":"+49 3361 7767922","email_address":null,"city":"Fürstenwalde/Spree"},{"zip_code":"15517","street":"Eisenbahnstraße 19","school_type_entity":null,"school_type":"Grundschule","phone_number":"+49 3361 7767350","old_slug":"15517-freie-grundschule-fuerstenwalde-dr-p-rahn-partner-schulen-in-freier-traegerschaft-gemeinnuetzige-schulgesellschaft-mbh","official_id":"106367","name":"Rahn Education - Freie Grundschule Fürstenwalde, Staatlich genehmigte Ersatzschule","lon":14.061855,"lat":52.361062,"homepage_url":"http://www.rahndittrich.de/gs-fw","federal_state_code":"BB","fax_number":"+49 3361 7767355","email_address":"grundschule-fw@rahn-schulen.de","city":"Fürstenwalde/Spree"},{"zip_code":"15517","street":"Goetheplatz 15 a","school_type_entity":null,"school_type":"Oberschule","phone_number":"+49 3361 7767920","old_slug":null,"official_id":"180099","name":"Rahn Education - Freie Oberschule Fürstenwalde, Staatlich anerkannte Ersatzschule","lon":14.058783,"lat":52.358794,"homepage_url":null,"federal_state_code":"BB","fax_number":"+49 3361 7767922","email_address":null,"city":"Fürstenwalde/Spree"},{"zip_code":"15517","street":"Langewahler Straße 70","school_type_entity":null,"school_type":"Berufliche Schule in freier Trägerschaft","phone_number":"+49 3361 567310","old_slug":null,"official_id":"330050","name":"Korczak-Schule Berufliche Schule für Sozialwesen Samariteranstalten Fürstenwalde","lon":14.069923,"lat":52.35209,"homepage_url":null,"federal_state_code":"BB","fax_number":"+49 3361 567333","email_address":null,"city":"Fürstenwalde/Spree"},{"zip_code":"15517","street":"Trebuser Straße 45","school_type_entity":null,"school_type":"Gymnasium","phone_number":"+49 3361 340350","old_slug":null,"official_id":"120420","name":"Katholische Schule Bernhardinum Gymnasium anerkannte Ersatzschule","lon":14.054734,"lat":52.376572,"homepage_url":null,"federal_state_code":"BB","fax_number":"+49 3361 372265","email_address":null,"city":"Fürstenwalde/Spree"},{"zip_code":"15517","street":"Trebuser Straße 45","school_type_entity":null,"school_type":"Oberschule","phone_number":"+49 3361 340350","old_slug":null,"official_id":"130850","name":"Katholische Schule Bernhardinum Oberschule","lon":14.054734,"lat":52.376572,"homepage_url":null,"federal_state_code":"BB","fax_number":"+49 3361 372265","email_address":null,"city":"Fürstenwalde/Spree"},{"zip_code":"15517","street":"Trebuser Straße 45","school_type_entity":null,"school_type":"Grundschule","phone_number":"+49 3361 340350","old_slug":null,"official_id":"105946","name":"Katholische Schule Bernhardinum Grundschule","lon":14.054734,"lat":52.376572,"homepage_url":null,"federal_state_code":"BB","fax_number":"+49 3361 372265","email_address":null,"city":"Fürstenwalde/Spree"},{"zip_code":"15517","street":"August-Bebel-Straße 1-4","school_type_entity":null,"school_type":"Schule mit dem sonderpäd. Förderschwerpunkt geistige Entwicklung","phone_number":"+49 3361 567330","old_slug":null,"official_id":"401080","name":"Burgdorf-Schule Schule mit dem sonderpäd. Förderschwerpunkt geistige Entwicklung","lon":14.068958,"lat":52.349698,"homepage_url":null,"federal_state_code":"BB","fax_number":"+49 3361 567397","email_address":null,"city":"Fürstenwalde/Spree"},{"zip_code":"15517","street":"Julius-Pintsch-Ring 25","school_type_entity":null,"school_type":"Berufliche Schule in freier Trägerschaft","phone_number":"+49 3361 735829","old_slug":null,"official_id":"200621","name":"Berufliche Schule der FAW gGmbH Berufsfachschule und Fachschule für Sozialwesen mit staatlich anerk. Bildungsgängen","lon":14.056082,"lat":52.370779,"homepage_url":null,"federal_state_code":"BB","fax_number":"+49 3361 358402","email_address":null,"city":"Fürstenwalde"},{"zip_code":"15236","street":"Weinbergweg 30","school_type_entity":null,"school_type":"Waldorfschule","phone_number":"+49 335 4013583","old_slug":null,"official_id":"700022","name":"Freie Waldorfschule Frankfurt (Oder)","lon":14.52697,"lat":52.336104,"homepage_url":null,"federal_state_code":"BB","fax_number":"+49 335 4013584","email_address":null,"city":"Frankfurt (Oder)"},{"zip_code":"15230","street":"Luisenstraße 25 d","school_type_entity":null,"school_type":"Grundschule","phone_number":"+49 335 4011510","old_slug":null,"official_id":"106185","name":"Evangelische Grundschule Frankfurt (Oder) anerkannte Ersatzschule","lon":14.532465,"lat":52.348061,"homepage_url":null,"federal_state_code":"BB","fax_number":"+49 335 4011511","email_address":null,"city":"Frankfurt (Oder)"},{"zip_code":"03149","street":"Wiesenstraße 18","school_type_entity":null,"school_type":"Schule mit dem sonderpäd. Förderschwerpunkt geistige Entwicklung","phone_number":"+49 3562 8258","old_slug":null,"official_id":"401420","name":"Wichernschule Schule mit dem sonderpädagogischen Förderschwerpunkt \"geistige Entwicklung\"","lon":14.633029,"lat":51.736292,"homepage_url":null,"federal_state_code":"BB","fax_number":"+49 3562 9599027","email_address":null,"city":"Forst (Lausitz)"},{"zip_code":"03149","street":"Cottbuser Straße 151","school_type_entity":null,"school_type":"Grundschule","phone_number":"+49 3562 697841","old_slug":null,"official_id":"106434","name":"Evangelische Grundschule Forst anerkannte Ersatzschule","lon":14.625831,"lat":51.748397,"homepage_url":null,"federal_state_code":"BB","fax_number":"+49 3562 697849","email_address":null,"city":"Forst (Lausitz)"},{"zip_code":"03149","street":"Pestalozzistraße 4","school_type_entity":null,"school_type":"Grundschule","phone_number":"+49 3562 9269993","old_slug":null,"official_id":"106707","name":"Archimedes Grundschule Forst, -genehmigte Ersatzschule-","lon":14.617878,"lat":51.723972,"homepage_url":null,"federal_state_code":"BB","fax_number":"+49 3562 9269995","email_address":null,"city":"Forst (Lausitz)"},{"zip_code":"03238","street":"W.-Liebknecht-Straße 25","school_type_entity":null,"school_type":"Grundschule","phone_number":"+49 3531 718061","old_slug":null,"official_id":"106318","name":"Evangelische Grundschule Finsterwalde anerkannte Ersatzschule","lon":13.71667,"lat":51.63306,"homepage_url":null,"federal_state_code":"BB","fax_number":"+49 3531 718079","email_address":null,"city":"Finsterwalde"},{"zip_code":"15732","street":"Uhlandallee 28-30","school_type_entity":null,"school_type":"Oberschule","phone_number":"+49 30 6755262","old_slug":null,"official_id":"180129","name":"Freie Oberschule Villa Elisabeth Eichwalde - anerkannte Ersatzschule -","lon":13.622094,"lat":52.378768,"homepage_url":null,"federal_state_code":"BB","fax_number":"+49 30 6755261","email_address":null,"city":"Eichwalde"},{"zip_code":"16225","street":"Alfred-Dengler-Straße 9","school_type_entity":null,"school_type":"Berufliche Schule in fr. Trägerschaft mit Beruflichem Gymnasium","phone_number":"+49 3334 2022116","old_slug":null,"official_id":"200530","name":"Oberbarnim-Schule Berufliche Schule d. Berufsbildungs- vereins Eberswalde e.V.","lon":13.802518,"lat":52.829823,"homepage_url":null,"federal_state_code":"BB","fax_number":"+49 3334 2022188","email_address":null,"city":"Eberswalde"},{"zip_code":"16225","street":"Alfred-Dengler-Straße 9","school_type_entity":null,"school_type":"Oberschule","phone_number":"+49 3334 2022116","old_slug":null,"official_id":"180130","name":"Oberbarnim-Oberschule anerkannte Ersatzschule","lon":13.802518,"lat":52.829823,"homepage_url":null,"federal_state_code":"BB","fax_number":"+49 3334 2022188","email_address":null,"city":"Eberswalde"},{"zip_code":"16225","street":"Kupferhammerweg 34","school_type_entity":null,"school_type":"Grundschule","phone_number":"+49 3334 38666011","old_slug":null,"official_id":"106070","name":"Kinderakademie Evangelische Grundschule","lon":13.791523,"lat":52.83809,"homepage_url":null,"federal_state_code":"BB","fax_number":"+49 3334 38666029","email_address":null,"city":"Eberswalde"},{"zip_code":"16225","street":"Alfred-Dengler-Straße 9","school_type_entity":null,"school_type":"Gymnasium","phone_number":"+49 3334 2022116","old_slug":null,"official_id":"121149","name":"Jugendakademie Evangelisches Gymnasium anerkannte Ersatzschule","lon":13.802518,"lat":52.829823,"homepage_url":null,"federal_state_code":"BB","fax_number":"+49 3334 2022188","email_address":null,"city":"Eberswalde"},{"zip_code":"16225","street":"Friedrich-Engels-Straße 6","school_type_entity":null,"school_type":"Grundschule","phone_number":"+49 3334 288548","old_slug":null,"official_id":"106033","name":"Freie Montessorischule Barnim Grundschule","lon":13.805914,"lat":52.832689,"homepage_url":null,"federal_state_code":"BB","fax_number":"+49 3334 288548","email_address":null,"city":"Eberswalde"},{"zip_code":"16227","street":"Eberswalder Straße 30 a","school_type_entity":null,"school_type":"Gesamtschule mit GOST","phone_number":"+49 3334 383491","old_slug":null,"official_id":"180178","name":"Freie Gesamtschule Finow - genehmigte Ersatzschule -","lon":13.761709,"lat":52.839751,"homepage_url":null,"federal_state_code":"BB","fax_number":"+49 3334 383481","email_address":null,"city":"Eberswalde"},{"zip_code":"16227","street":"Spreewaldstraße 20/22","school_type_entity":null,"school_type":"Berufliche Schule in freier Trägerschaft","phone_number":"+49 3334 383544","old_slug":null,"official_id":"200591","name":"Berufliche Schule Buckow Ersatzschule mit anerkannten Bildungsgängen der Berufsschule","lon":13.764645,"lat":52.829673,"homepage_url":null,"federal_state_code":"BB","fax_number":"+49 3334 383545","email_address":null,"city":"Eberswalde"},{"zip_code":"03253","street":"Dorfstraße 74a","school_type_entity":null,"school_type":"Grundschule","phone_number":"+49 35322 519938","old_slug":null,"official_id":"106525","name":"Evangelische Grundschule Trebbus","lon":13.588211,"lat":51.659519,"homepage_url":null,"federal_state_code":"BB","fax_number":"+49 35322 519940","email_address":null,"city":"Doberlug-Kirchhain/OT Trebbus"},{"zip_code":"03253","street":"Straße der Jugend 11","school_type_entity":null,"school_type":"Gymnasium","phone_number":"+49 35322 18859","old_slug":null,"official_id":"121186","name":"Evangelisches Gymnasium Doberlug-Kirchhain anerkannte Ersatzschule","lon":13.560563,"lat":51.638483,"homepage_url":null,"federal_state_code":"BB","fax_number":"+49 35322 51241","email_address":null,"city":"Doberlug-Kirchhain"},{"zip_code":"03253","street":"Karl-Marx-Straße 32","school_type_entity":null,"school_type":"Oberschule","phone_number":"+49 35322 181139","old_slug":null,"official_id":"180051","name":"Evangelische Oberschule Doberlug-Kirchhain anerkannte Ersatzschule","lon":13.551936,"lat":51.608745,"homepage_url":null,"federal_state_code":"BB","fax_number":"+49 35322 187860","email_address":null,"city":"Doberlug-Kirchhain"},{"zip_code":"03048","street":"Leipziger Straße 14","school_type_entity":null,"school_type":"Waldorfschule","phone_number":"+49 355 473242","old_slug":null,"official_id":"700010","name":"Freie Waldorfschule Cottbus","lon":14.312681,"lat":51.743405,"homepage_url":null,"federal_state_code":"BB","fax_number":"+49 355 4838025","email_address":null,"city":"Cottbus"},{"zip_code":"03042","street":"Elisabeth-Wolf-Straße 31 a","school_type_entity":null,"school_type":"Gymnasium","phone_number":"+49 355 7536800","old_slug":null,"official_id":"121320","name":"Evangelische Schule Cottbus Gymnasium staatlich genehmigte Ersatzschule","lon":14.350956,"lat":51.765829,"homepage_url":null,"federal_state_code":"BB","fax_number":"+49 355 75368029","email_address":null,"city":"Cottbus"},{"zip_code":"03046","street":"Ströbitzer Schulstraße 42","school_type_entity":null,"school_type":"Grundschule","phone_number":"+49 355 3555910","old_slug":null,"official_id":"106100","name":"Evangelische Gottfried-Forck-Grundschule anerkannte Ersatzschule","lon":14.29881,"lat":51.751954,"homepage_url":null,"federal_state_code":"BB","fax_number":"+49 355 35559115","email_address":null,"city":"Cottbus"},{"zip_code":"03050","street":"Straße der Jugend 75","school_type_entity":null,"school_type":"Grundschule","phone_number":"+49 355 724051","old_slug":null,"official_id":"106550","name":"Bewegte Grundschule Cottbus -genehmigte Ersatzschule-","lon":14.331453,"lat":51.747275,"homepage_url":null,"federal_state_code":"BB","fax_number":"+49 355 48644877","email_address":null,"city":"Cottbus"},{"zip_code":"03046","street":"Berliner Straße 56","school_type_entity":null,"school_type":"Berufliche Schule in freier Trägerschaft","phone_number":"+49 355 35554100","old_slug":null,"official_id":"200839","name":"Berufsschule des Gemeinnützigen Berufsbildungsvereins Guben e.V. Ersatzschule mit anerkannten Bildungsgängen der Berufsschule","lon":14.313776,"lat":51.75819,"homepage_url":null,"federal_state_code":"BB","fax_number":"+49 355 35554130","email_address":null,"city":"Cottbus"},{"zip_code":"03046","street":"Parzellenstraße 10","school_type_entity":null,"school_type":"Berufliche Schule in freier Trägerschaft","phone_number":"+49 355 35541790","old_slug":null,"official_id":"330190","name":"Berufliche Schule für Sozialwesen der DEB in Brandenburg gemeinnützige Schulträger-GmbH - anerkannte Ersatzschule -","lon":14.348734,"lat":51.713394,"homepage_url":null,"federal_state_code":"BB","fax_number":"+49 355 35541799","email_address":null,"city":"Cottbus"},{"zip_code":"17291","street":"Wallmow 6","school_type_entity":null,"school_type":"Grundschule","phone_number":"+49 39862 35040","old_slug":null,"official_id":"106069","name":"Dorfschule Wallmow genehmigte Ersatzschule","lon":14.091435,"lat":53.342384,"homepage_url":null,"federal_state_code":"BB","fax_number":"+49 39862 64777","email_address":null,"city":"Carmzow-Wallmow"},{"zip_code":"15518","street":"Frankfurter Str. 74","school_type_entity":null,"school_type":"Oberschule","phone_number":"+49 33607 591425","old_slug":null,"official_id":"180166","name":"Oberschule Briesen der FAW gGmbH anerkannte Ersatzschule","lon":14.280893,"lat":52.348062,"homepage_url":null,"federal_state_code":"BB","fax_number":"+49 33607 591426","email_address":null,"city":"Briesen (Mark)"},{"zip_code":"14776","street":"Maerckerstraße 11","school_type_entity":null,"school_type":"Grundschule","phone_number":"+49 3381 79830931","old_slug":null,"official_id":"106574","name":"WIR-Grundschule -anerkannte Ersatzschule-","lon":12.543426,"lat":52.39715,"homepage_url":null,"federal_state_code":"BB","fax_number":"+49 3381 79830939","email_address":null,"city":"Brandenburg an der Havel"},{"zip_code":"14776","street":"Kirchhofstraße 3-7","school_type_entity":null,"school_type":"Fachschule","phone_number":"+49 3381 702456","old_slug":null,"official_id":"330206","name":"Fachschule für Sozialwesen im Europäischen Bildungswerk für Beruf und Gesellschaft gGmbH","lon":12.562997,"lat":52.404613,"homepage_url":null,"federal_state_code":"BB","fax_number":"+49 3381 702798","email_address":null,"city":"Brandenburg an der Havel"},{"zip_code":"14776","street":"Domkietz 5","school_type_entity":null,"school_type":"Gymnasium","phone_number":"+49 3381 20876012","old_slug":null,"official_id":"121216","name":"Evangelisches Gymnasium am Dom zu Brandenburg anerkannte Ersatzschule","lon":12.564137,"lat":52.413108,"homepage_url":null,"federal_state_code":"BB","fax_number":"+49 3381 20876029","email_address":null,"city":"Brandenburg an der Havel"},{"zip_code":"14776","street":"Domlinden 25","school_type_entity":null,"school_type":"Grundschule","phone_number":"+49 3381 211990","old_slug":null,"official_id":"106112","name":"Evangelische Grundschule Brandenburg an der Havel","lon":12.568241,"lat":52.416098,"homepage_url":null,"federal_state_code":"BB","fax_number":"+49 3381 211993","email_address":null,"city":"Brandenburg an der Havel"},{"zip_code":"15831","street":"Berliner Straße 26","school_type_entity":null,"school_type":"Grundschule","phone_number":"+49 3379 207500","old_slug":null,"official_id":"106537","name":"Evangelische Grundschule Mahlow","lon":13.400446,"lat":52.365725,"homepage_url":null,"federal_state_code":"BB","fax_number":"+49 3379 207550","email_address":null,"city":"Blankenfelde-Mahlow/OT Mahlow"},{"zip_code":"15741","street":"Eichhornstraße 4-5","school_type_entity":null,"school_type":"Gesamtschule mit GOST","phone_number":"+49 33763 227750","old_slug":null,"official_id":"180245","name":"Gesamtschule Villa Elisabeth mit gymnasialer Oberstufe - Schule in freier Trägerschaft","lon":13.65,"lat":52.25,"homepage_url":null,"federal_state_code":"BB","fax_number":"+49 33763 226737","email_address":null,"city":"Bestensee"},{"zip_code":"16321","street":"Bonhoefferweg 1","school_type_entity":null,"school_type":"Berufliche Schule in freier Trägerschaft","phone_number":"+49 3338 66251","old_slug":null,"official_id":"330097","name":"Berufliche Schule der Hoffnungstaler Stiftung Lobetal Fachschule Sozialwesen, Berufsfachschule Soziales anerkannte Ersatzschule","lon":13.595704,"lat":52.72636,"homepage_url":null,"federal_state_code":"BB","fax_number":"+49 3338 66261","email_address":null,"city":"Bernau bei Berlin/OT Lobetal"},{"zip_code":"16321","street":"Niederbarnimallee 75","school_type_entity":null,"school_type":"Oberschule","phone_number":"+49 33397 28762","old_slug":null,"official_id":"130928","name":"Montessorischule Niederbarnim Oberschule anerkannte Ersatzschule","lon":13.492964,"lat":52.72648,"homepage_url":null,"federal_state_code":"BB","fax_number":"+49 33397 29514","email_address":null,"city":"Bernau bei Berlin"},{"zip_code":"16321","street":"Niederbarnimallee 75","school_type_entity":null,"school_type":"Grundschule","phone_number":"+49 33397 28762","old_slug":null,"official_id":"106150","name":"Montessorischule Niederbarnim Grundschule anerkannte Ersatzschule","lon":13.492964,"lat":52.72648,"homepage_url":null,"federal_state_code":"BB","fax_number":"+49 33397 29514","email_address":null,"city":"Bernau bei Berlin"},{"zip_code":"16321","street":"Ladeburger Chaussee 69","school_type_entity":null,"school_type":"Grundschule","phone_number":"+49 3338 704329","old_slug":null,"official_id":"106604","name":"Evangelische Grundschule Bernau Staatlich anerkannte Ersatzschule","lon":13.586073,"lat":52.684831,"homepage_url":null,"federal_state_code":"BB","fax_number":"+49 3338 704337","email_address":null,"city":"Bernau bei Berlin"},{"zip_code":"16321","street":"Niederbarnimallee 75","school_type_entity":null,"school_type":"Gesamtschule mit GOST","phone_number":"+49 33397 28762","old_slug":null,"official_id":"113475","name":"Aristoteles-Gesamtschule Bernau Reformpädagogische Gesamtschule m. GOST - genehmigte Ersatzschule -","lon":13.492964,"lat":52.72648,"homepage_url":null,"federal_state_code":"BB","fax_number":"+49 33397 29514","email_address":null,"city":"Bernau bei Berlin"},{"zip_code":"14547","street":"Straße nach Fichtenwalde 16","school_type_entity":null,"school_type":"Berufliche Schule in freier Trägerschaft","phone_number":"+49 33204 21450","old_slug":null,"official_id":"330188","name":"Berufliche Schule für Sozialwesen, Fachschule für Sozialwesen mit den anerk. FR Heilerz.pflege u. Sozialpäd. anerk. Berufsfachschule f. Soziales","lon":12.931035,"lat":52.255277,"homepage_url":null,"federal_state_code":"BB","fax_number":"+49 33204 21455","email_address":null,"city":"Beelitz"},{"zip_code":"15837","street":"Waldweg 1","school_type_entity":null,"school_type":"Oberschule","phone_number":"+49 33704 67264","old_slug":"15837-freie-oberschule-baruth","official_id":"180038","name":"Freie Oberschule Baruth anerkannte Ersatzschule","lon":13.512781,"lat":52.042283,"homepage_url":"http://www.freie-oberschule-baruth.de/","federal_state_code":"BB","fax_number":"+49 33704 67620","email_address":"gesamtschule-baruth@t-online.de","city":"Baruth/Mark"},{"zip_code":"16259","street":"Johannisstraße 1","school_type_entity":null,"school_type":"Schule mit dem sonderpäd. Förderschwerpunkt geistige Entwicklung","phone_number":"+49 3344 301775","old_slug":null,"official_id":"400038","name":"Laurentiusschule, Schule mit dem sonderpädagogischen Förderschwerpunkt \"geistige Entwicklung\" - anerkannte Ersatzschule -","lon":14.027799,"lat":52.786289,"homepage_url":null,"federal_state_code":"BB","fax_number":"+49 3344 301778","email_address":null,"city":"Bad Freienwalde"},{"zip_code":"14806","street":"Ernst-Thälmann-Straße 10","school_type_entity":null,"school_type":"Grundschule","phone_number":"+49 33841 441143","old_slug":null,"official_id":"106252","name":"Freie Schule Fläming Ganzheitliche Naturschule nach Maria Montessori","lon":12.583629,"lat":52.143733,"homepage_url":null,"federal_state_code":"BB","fax_number":"+49 33841 454266","email_address":null,"city":"Bad Belzig"},{"zip_code":"16278","street":"Kirchgasse 2","school_type_entity":null,"school_type":"Grundschule","phone_number":"+49 3331 298055","old_slug":"16278-freie-schule-angermuende","official_id":"106215","name":"Freie Schule Angermünde Grundschule","lon":14.002016,"lat":53.018876,"homepage_url":"http://www.lerntpolnisch.de","federal_state_code":"BB","fax_number":"+49 3331 298056","email_address":"schule@lerntpolnisch.de","city":"Angermünde"},{"zip_code":"16278","street":"Kirchgasse 2","school_type_entity":null,"school_type":"Oberschule","phone_number":"+49 3331 298055","old_slug":"16278-freie-schule-angermuende","official_id":"180180","name":"Freie Schule Angermünde Oberschule anerkannte Ersatzschule","lon":14.002016,"lat":53.018876,"homepage_url":"http://www.lerntpolnisch.de","federal_state_code":"BB","fax_number":"+49 3331 298056","email_address":"schule@lerntpolnisch.de","city":"Angermünde"},{"zip_code":"16278","street":"Puschkinallee 12","school_type_entity":null,"school_type":"Berufliche Schule in freier Trägerschaft","phone_number":"+49 3331 26050","old_slug":null,"official_id":"200578","name":"Berufliche Schule Angermünde","lon":13.990073,"lat":53.008957,"homepage_url":null,"federal_state_code":"BB","fax_number":"+49 3331 260577","email_address":null,"city":"Angermünde"},{"zip_code":"16356","street":"Schloßstraße 7a","school_type_entity":null,"school_type":"Oberschule","phone_number":null,"old_slug":null,"official_id":"180257","name":"Private Oberschule Blumberg - genehmigte Ersatzschule -","lon":13.6208,"lat":52.602838,"homepage_url":null,"federal_state_code":"BB","fax_number":null,"email_address":null,"city":"Ahrensfelde/OT Blumberg"},{"zip_code":"16356","street":"Schloßstraße 7a","school_type_entity":null,"school_type":"Gymnasium","phone_number":null,"old_slug":null,"official_id":"121344","name":"Humanistisches Privatgymnasium Blumberg - genehmigte Ersatzschule -","lon":13.6208,"lat":52.602838,"homepage_url":null,"federal_state_code":"BB","fax_number":null,"email_address":null,"city":"Ahrensfelde/OT Blumberg"},{"zip_code":"15806","street":"Friedrich-Raue-Straße 1","school_type_entity":null,"school_type":"Grundschule","phone_number":"+49 33702 66657","old_slug":null,"official_id":"100596","name":"Erich Kästner Grundschule Wünsdorf/OT Waldstadt","lon":13.465569,"lat":52.18565,"homepage_url":null,"federal_state_code":"BB","fax_number":"+49 33702 66657","email_address":null,"city":"Zossen/OT Wünsdorf"},{"zip_code":"15806","street":"Am Sportplatz 8","school_type_entity":null,"school_type":"Grundschule","phone_number":"+49 3377 2052020","old_slug":null,"official_id":"100456","name":"Grundschule Glienick","lon":13.379284,"lat":52.255131,"homepage_url":null,"federal_state_code":"BB","fax_number":"+49 3377 2052028","email_address":null,"city":"Zossen/OT Glienick"},{"zip_code":"15806","street":"Triftstraße 1","school_type_entity":null,"school_type":"Grundschule","phone_number":"+49 3377 334517","old_slug":"15806-grundschule-dabendorf","official_id":"100341","name":"Grundschule Zossen/Dabendorf","lon":13.432305,"lat":52.240633,"homepage_url":"http://www.grundschule-dabendorf.de","federal_state_code":"BB","fax_number":"+49 3377 330467","email_address":"grundschule-dabendorf@t-online.de","city":"Zossen"},{"zip_code":"15806","street":"Gerichtstraße 39","school_type_entity":null,"school_type":"Grundschule","phone_number":"+49 3377 302689","old_slug":null,"official_id":"110383","name":"Goetheschule Zossen Grundschule","lon":13.468189,"lat":52.217608,"homepage_url":null,"federal_state_code":"BB","fax_number":"+49 3377 202691","email_address":null,"city":"Zossen"},{"zip_code":"15806","street":"Triftstraße 3","school_type_entity":null,"school_type":"Gesamtschule mit GOST","phone_number":"+49 3377 334324","old_slug":"15806-geschwister-scholl-schule-zossen","official_id":"110395","name":"Geschwister-Scholl-Schule Gesamtschule mit GOST Zossen OT Dabendorf","lon":13.431664,"lat":52.242004,"homepage_url":"http://www.Scholl-Schule-Zossen.de","federal_state_code":"BB","fax_number":"+49 3377 303368","email_address":"scholl-schule-zossen@t-online.de","city":"Zossen"},{"zip_code":"15295","street":"Gubener Straße 33","school_type_entity":null,"school_type":"Grundschule","phone_number":"+49 33653 217","old_slug":null,"official_id":"102556","name":"Grundschule Ziltendorfer Niederung","lon":14.628363,"lat":52.202424,"homepage_url":null,"federal_state_code":"BB","fax_number":"+49 33653 46365","email_address":null,"city":"Ziltendorf"},{"zip_code":"14793","street":"Schulstraße 11","school_type_entity":null,"school_type":"Oberschule mit Grundschule","phone_number":"+49 33830 258","old_slug":null,"official_id":"110498","name":"Thomas-Müntzer-Oberschule mit Grundschule","lon":12.290316,"lat":52.268657,"homepage_url":null,"federal_state_code":"BB","fax_number":"+49 33830 12323","email_address":null,"city":"Ziesar"},{"zip_code":"15738","street":"Schulstraße 4","school_type_entity":null,"school_type":"Gesamtschule mit GOST","phone_number":"+49 33762 71987","old_slug":"15738-gesamtschule-paul-dessau","official_id":"112630","name":"Musikbetonte Gesamtschule Paul Dessau Zeuthen","lon":13.627465,"lat":52.352878,"homepage_url":"http://www.gesamtschule-zeuthen.de/","federal_state_code":"BB","fax_number":"+49 33762 92294","email_address":"paul_dessau_gs_zeuthen@t-online.de","city":"Zeuthen"},{"zip_code":"15738","street":"Forstallee 66","school_type_entity":null,"school_type":"Grundschule","phone_number":"+49 33762 8400","old_slug":"15738-grundschule-am-wald","official_id":"104784","name":"Grundschule am Wald Zeuthen","lon":13.618695,"lat":52.345599,"homepage_url":"http://www.primolo.de/home/gawzeuthen","federal_state_code":"BB","fax_number":"+49 33762 84027","email_address":"gawzeuthen@primolo.de","city":"Zeuthen"},{"zip_code":"15326","street":"Gartenweg 11","school_type_entity":null,"school_type":"Grundschule","phone_number":"+49 33602 229","old_slug":null,"official_id":"104462","name":"\"Schule im Grünen\" Verlässliche Halbtagsgrundschule Alt Zeschdorf","lon":14.442521,"lat":52.423474,"homepage_url":null,"federal_state_code":"BB","fax_number":"+49 33602 45045","email_address":null,"city":"Zeschdorf/OT Alt Zeschdorf"},{"zip_code":"16792","street":"Ribbecker Straße 1","school_type_entity":null,"school_type":"Grundschule","phone_number":"+49 3307 2203","old_slug":null,"official_id":"102945","name":"Mildenberger Grundschule \"Am Ziegeleipark\"","lon":13.283546,"lat":53.013868,"homepage_url":null,"federal_state_code":"BB","fax_number":"+49 3307 3029635","email_address":null,"city":"Zehdenick/OT Mildenberg"},{"zip_code":"16792","street":"Dammhaststraße 8","school_type_entity":null,"school_type":"Grundschule","phone_number":"+49 3307 310265","old_slug":null,"official_id":"102933","name":"Linden-Grundschule Zehdenick","lon":13.340226,"lat":52.983867,"homepage_url":null,"federal_state_code":"BB","fax_number":"+49 3307 312912","email_address":null,"city":"Zehdenick"},{"zip_code":"16792","street":"Hospitalstraße 1","school_type_entity":null,"school_type":"Grundschule","phone_number":"+49 3307 310237","old_slug":null,"official_id":"102921","name":"Havelland-Grundschule Zehdenick","lon":13.332819,"lat":52.977614,"homepage_url":null,"federal_state_code":"BB","fax_number":"+49 3307 301371","email_address":null,"city":"Zehdenick"},{"zip_code":"16792","street":"Wesendorfer Weg 39","school_type_entity":null,"school_type":"OSZ mit beruflichem Gymnasium","phone_number":"+49 3307 46760","old_slug":null,"official_id":"200244","name":"Georg-Mendheim-Oberstufenzentrum Oberhavel","lon":13.354419,"lat":52.982892,"homepage_url":null,"federal_state_code":"BB","fax_number":"+49 3307 467660","email_address":null,"city":"Zehdenick"},{"zip_code":"16792","street":"Marianne-Grunthal-Straße 2","school_type_entity":null,"school_type":"Oberschule","phone_number":"+49 3307 2774","old_slug":"16792-exin-oberschule-zehdenick","official_id":"111818","name":"Exin-Oberschule Zehdenick","lon":13.330348,"lat":52.971694,"homepage_url":"http://www.exin-oberschule.de","federal_state_code":"BB","fax_number":"+49 3307 312567","email_address":"gesamtschule-zehdenick@t-online.de","city":"Zehdenick"},{"zip_code":"16792","street":"Marianne-Grunthal-Straße 1 b","school_type_entity":null,"school_type":"Schule mit dem sonderpäd. Förderschwerpunkt geistige Entwicklung","phone_number":"+49 3307 2328","old_slug":null,"official_id":"400737","name":"EXIN-Förderschule Zehdenick Schule mit dem sonderpädagogischen Förderschwerpunkt \"geistige Entwicklung\"","lon":13.330987,"lat":52.973871,"homepage_url":null,"federal_state_code":"BB","fax_number":"+49 3307 302569","email_address":null,"city":"Zehdenick"},{"zip_code":"14789","street":"Ernst-Thälmann-Straße 58","school_type_entity":null,"school_type":"Grundschule","phone_number":"+49 33839 253","old_slug":null,"official_id":"100766","name":"Wilhelm-Götze-Schule","lon":12.379669,"lat":52.376054,"homepage_url":null,"federal_state_code":"BB","fax_number":"+49 33839 254","email_address":null,"city":"Wusterwitz"},{"zip_code":"14641","street":"Schulstraße 16","school_type_entity":null,"school_type":"Oberschule","phone_number":"+49 33234 86767","old_slug":null,"official_id":"112161","name":"Heinz Sielmann Oberschule Elstal","lon":12.985297,"lat":52.542434,"homepage_url":null,"federal_state_code":"BB","fax_number":"+49 33234 86768","email_address":null,"city":"Wustermark/OT Elstal"},{"zip_code":"14641","street":"Hamburger Straße 8","school_type_entity":null,"school_type":"Grundschule","phone_number":"+49 33234 60242","old_slug":null,"official_id":"103597","name":"Grundschule \"Otto Lilienthal\" Wustermark","lon":12.941017,"lat":52.547634,"homepage_url":null,"federal_state_code":"BB","fax_number":"+49 33234 86774","email_address":null,"city":"Wustermark"},{"zip_code":"16868","street":"Schulstraße 1","school_type_entity":null,"school_type":"Grundschule","phone_number":"+49 33979 14233","old_slug":null,"official_id":"102891","name":"Astrid- Lindgren- Grundschule  Wusterhausen","lon":12.577948,"lat":52.821583,"homepage_url":null,"federal_state_code":"BB","fax_number":"+49 33979 14246","email_address":null,"city":"Wusterhausen/Dosse"},{"zip_code":"16269","street":"Hospitalstraße 36 a","school_type_entity":null,"school_type":"Oberschule mit Grundschule","phone_number":"+49 33456 2104","old_slug":null,"official_id":"110097","name":"Grund- und Oberschule \"Salvador Allende\" Wriezen","lon":14.134004,"lat":52.71524,"homepage_url":null,"federal_state_code":"BB","fax_number":"+49 33456 2105","email_address":null,"city":"Wriezen"},{"zip_code":"15569","street":"Weinbergstraße 27","school_type_entity":null,"school_type":"Grundschule","phone_number":"+49 3362 5127","old_slug":null,"official_id":"111521","name":"Grundschule am Weinberg","lon":13.753867,"lat":52.454605,"homepage_url":null,"federal_state_code":"BB","fax_number":"+49 3362 887858","email_address":null,"city":"Woltersdorf"},{"zip_code":"14778","street":"Dr.-Sorge-Straße 4/5","school_type_entity":null,"school_type":"Grundschule","phone_number":"+49 33833 70216","old_slug":null,"official_id":"100687","name":"Grundschule Wollin","lon":12.462086,"lat":52.277145,"homepage_url":null,"federal_state_code":"BB","fax_number":"+49 33833 71869","email_address":null,"city":"Wollin"},{"zip_code":"16909","street":"Waldring 27","school_type_entity":null,"school_type":"Grundschule","phone_number":"+49 3394 4007117","old_slug":null,"official_id":"101618","name":"Waldring-Grundschule Wittstock","lon":12.503019,"lat":53.172842,"homepage_url":null,"federal_state_code":"BB","fax_number":"+49 3394 448161","email_address":null,"city":"Wittstock/Dosse"},{"zip_code":"16909","street":"Meyenburger Chaussee 2","school_type_entity":null,"school_type":"Gymnasium","phone_number":"+49 3394 433559","old_slug":"16909-gymnasium-wittstock","official_id":"120303","name":"Städtisches Gymnasium Wittstock/Dosse","lon":12.484735,"lat":53.166888,"homepage_url":"http://www.gymnasium-wittstock-dosse.de/cms/","federal_state_code":"BB","fax_number":"+49 3394 448203","email_address":"home@gymwk.de","city":"Wittstock/Dosse"},{"zip_code":"16909","street":"Rheinsberger Straße 3","school_type_entity":null,"school_type":"Schule mit dem sonderpäd. Schwerpunkt Lernen","phone_number":"+49 3394 444448","old_slug":null,"official_id":"400403","name":"Schule mit dem sonderpädagogischen Förderschwerpunkt \"Lernen\" Wittstock","lon":12.494374,"lat":53.163182,"homepage_url":null,"federal_state_code":"BB","fax_number":"+49 3394 448142","email_address":null,"city":"Wittstock/Dosse"},{"zip_code":"16909","street":"Lietzenweg 2a","school_type_entity":null,"school_type":"Schule mit dem sonderpäd. Förderschwerpunkt geistige Entwicklung","phone_number":"+49 3394 471120","old_slug":null,"official_id":"400415","name":"Mosaik-Schule Schule mit dem sonderpädagogischen Förderschwerpunkt \"geistige Entwicklung\" Wittstock","lon":12.492279,"lat":53.16673,"homepage_url":null,"federal_state_code":"BB","fax_number":"+49 3394 471121","email_address":null,"city":"Wittstock/Dosse"},{"zip_code":"16909","street":"Polthierstraße 19","school_type_entity":null,"school_type":"Oberschule","phone_number":"+49 3394 712229","old_slug":null,"official_id":"110917","name":"Dr.-Wilhelm-Polthier-Oberschule Wittstock","lon":12.480074,"lat":53.153228,"homepage_url":null,"federal_state_code":"BB","fax_number":"+49 3394 448910","email_address":null,"city":"Wittstock/Dosse"},{"zip_code":"16909","street":"Auf der Freiheit 3","school_type_entity":null,"school_type":"Grundschule","phone_number":"+49 3394 403480","old_slug":null,"official_id":"101606","name":"Diesterweg-Grundschule Wittstock","lon":12.485569,"lat":53.160486,"homepage_url":null,"federal_state_code":"BB","fax_number":"+49 3394 403481","email_address":null,"city":"Wittstock/Dosse"},{"zip_code":"19322","street":"Hartwigstraße 1","school_type_entity":null,"school_type":"Schule mit dem sonderpäd. Schwerpunkt Lernen","phone_number":"+49 3877 403856","old_slug":null,"official_id":"400968","name":"Schule mit dem sonderpädagogischen Förderschwerpunkt \"Lernen\" Wittenberge","lon":11.760683,"lat":53.007896,"homepage_url":null,"federal_state_code":"BB","fax_number":"+49 3877 564247","email_address":null,"city":"Wittenberge"},{"zip_code":"19322","street":"Bad Wilsnacker Straße 48","school_type_entity":null,"school_type":"OSZ mit beruflichem Gymnasium","phone_number":"+49 3877 92470","old_slug":null,"official_id":"200232","name":"Oberstufenzentrum Prignitz","lon":11.76529,"lat":52.991296,"homepage_url":null,"federal_state_code":"BB","fax_number":"+49 3877 924730","email_address":null,"city":"Wittenberge"},{"zip_code":"19322","street":"Scheunenstraße 13","school_type_entity":null,"school_type":"Oberschule","phone_number":"+49 3877 403832","old_slug":null,"official_id":"800132","name":"Oberschule Wittenberge","lon":11.753764,"lat":52.99355,"homepage_url":null,"federal_state_code":"BB","fax_number":"+49 3877 77082","email_address":null,"city":"Wittenberge"},{"zip_code":"19322","street":"Ernst-Thälmann-Straße 2","school_type_entity":null,"school_type":"Gymnasium","phone_number":"+49 3877 565560","old_slug":null,"official_id":"800120","name":"Marie-Curie-Gymnasium Wittenberge","lon":11.751666,"lat":52.999988,"homepage_url":null,"federal_state_code":"BB","fax_number":"+49 3877 405637","email_address":null,"city":"Wittenberge"},{"zip_code":"19322","street":"J.-Runge-Straße 40","school_type_entity":null,"school_type":"Grundschule","phone_number":"+49 3877 403979","old_slug":null,"official_id":"113293","name":"Grundschule \"Friedrich-Ludwig-Jahn\" mit offenem Ganztagsangebot","lon":11.75,"lat":53,"homepage_url":null,"federal_state_code":"BB","fax_number":"+49 3877 563177","email_address":null,"city":"Wittenberge"},{"zip_code":"19322","street":"Dr.-Salvador-Allende-Straße 62","school_type_entity":null,"school_type":"Grundschule","phone_number":"+49 3877 902084","old_slug":null,"official_id":"104000","name":"Grundschule Elblandgrundschule Wittenberge","lon":11.751508,"lat":53.007685,"homepage_url":null,"federal_state_code":"BB","fax_number":"+49 3877 565982","email_address":null,"city":"Wittenberge"},{"zip_code":"19322","street":"Prof.-Hilgenfeldt-Straße 19 a","school_type_entity":null,"school_type":"Schule mit dem sonderpäd. Förderschwerpunkt geistige Entwicklung","phone_number":"+49 3877 923811","old_slug":null,"official_id":"400970","name":"Albert-Schweitzer-Schule Wittenberge Schule mit dem sonderpädagogischen Förderschwerpunkt \"geistige Entwicklung\"","lon":11.75,"lat":53,"homepage_url":null,"federal_state_code":"BB","fax_number":"+49 3877 923821","email_address":null,"city":"Wittenberge"},{"zip_code":"15745","street":"Karl-Marx-Straße 108","school_type_entity":null,"school_type":"Oberschule","phone_number":"+49 3375 503331","old_slug":null,"official_id":"130679","name":"Ludwig Witthöft Oberschule Wildau","lon":13.636287,"lat":52.321732,"homepage_url":null,"federal_state_code":"BB","fax_number":"+49 3375 503439","email_address":null,"city":"Wildau"},{"zip_code":"15745","street":"Fichtestraße 90","school_type_entity":null,"school_type":"Grundschule","phone_number":"+49 3375 468090","old_slug":null,"official_id":"104759","name":"Grundschule Wildau","lon":13.623465,"lat":52.322638,"homepage_url":null,"federal_state_code":"BB","fax_number":"+49 3375 4680926","email_address":null,"city":"Wildau"},{"zip_code":"14827","street":"Parkstraße 4","school_type_entity":null,"school_type":"Grundschule","phone_number":"+49 33849 50338","old_slug":null,"official_id":"101333","name":"Grundschule \"Am Schlosspark\" Wiesenburg","lon":12.446244,"lat":52.110126,"homepage_url":null,"federal_state_code":"BB","fax_number":"+49 33849 90649","email_address":null,"city":"Wiesenburg/Mark"},{"zip_code":"16356","street":"Kleeallee 1","school_type_entity":null,"school_type":"Grundschule","phone_number":"+49 33398 8890","old_slug":null,"official_id":"102398","name":"Grundschule im Rosenpark","lon":13.761292,"lat":52.625196,"homepage_url":null,"federal_state_code":"BB","fax_number":"+49 33398 88918","email_address":null,"city":"Werneuchen"},{"zip_code":"16356","street":"Thälmannstraße 63a","school_type_entity":null,"school_type":"Oberschule","phone_number":"+49 33398 7271","old_slug":"16356-europaschule","official_id":"111338","name":"Europaschule Werneuchen","lon":13.750598,"lat":52.622549,"homepage_url":"http://www.schule-werneuchen.de","federal_state_code":"BB","fax_number":"+49 33398 87848","email_address":"leistung@schule-werneuchen.de","city":"Werneuchen"},{"zip_code":"14542","street":"Töplitz Hasselberg 11","school_type_entity":null,"school_type":"Grundschule","phone_number":"+49 33202 60234","old_slug":null,"official_id":"103445","name":"Inselschule Töplitz","lon":12.907192,"lat":52.4334,"homepage_url":null,"federal_state_code":"BB","fax_number":"+49 33202 700249","email_address":null,"city":"Werder (Havel)/OT Töplitz"},{"zip_code":"14542","street":"Glindower Dorfstraße 1","school_type_entity":null,"school_type":"Grundschule","phone_number":"+49 3327 45907","old_slug":null,"official_id":"103494","name":"Grundschule Glindow","lon":12.909301,"lat":52.364923,"homepage_url":null,"federal_state_code":"BB","fax_number":"+49 3327 669462","email_address":null,"city":"Werder (Havel)/OT Glindow"},{"zip_code":"14542","street":"Kemmnitzer Chaussee 75","school_type_entity":null,"school_type":"Schule mit dem sonderpäd. Schwerpunkt Lernen","phone_number":"+49 3327 668990","old_slug":null,"official_id":"400828","name":"Schule am Plessower See - Schule mit dem sonderpädagogischen Förderschwerpunkt \"Lernen\"","lon":12.892234,"lat":52.421433,"homepage_url":null,"federal_state_code":"BB","fax_number":"+49 3327 6689930","email_address":null,"city":"Werder (Havel)"},{"zip_code":"14542","street":"Altenkirch-Weg 6-8","school_type_entity":null,"school_type":"OSZ mit beruflichem Gymnasium","phone_number":"+49 3327 66870","old_slug":null,"official_id":"200323","name":"Oberstufenzentrum Werder des Landkreises Potsdam-Mittelmark","lon":12.928491,"lat":52.380768,"homepage_url":null,"federal_state_code":"BB","fax_number":"+49 3327 668760","email_address":null,"city":"Werder (Havel)"},