[{"zip_code":"65931","street":"Herbert-von-Meister-Straße 5","school_type_entity":"Grundschule","school_type":"Grundschule","phone_number":"+49 69 37560745","old_slug":null,"official_id":"3100","name":"Meisterschule","lon":8.514288,"lat":50.079077,"homepage_url":null,"federal_state_code":"HE","fax_number":"+49 69 371299","email_address":null,"city":"Frankfurt am Main"},{"zip_code":"65931","street":"Herbert-von-Meister-Straße 5","school_type_entity":"Hauptschule","school_type":"Hauptschule","phone_number":"+49 69 37560745","old_slug":null,"official_id":"3100","name":"Meisterschule","lon":8.514288,"lat":50.079077,"homepage_url":null,"federal_state_code":"HE","fax_number":"+49 69 371299","email_address":null,"city":"Frankfurt am Main"},{"zip_code":"60529","street":"Hans-Pfitzner-Straße 18","school_type_entity":"Grundschule","school_type":"Grundschule","phone_number":"+49 69 359505","old_slug":null,"official_id":"3101","name":"Minna-Specht-Schule","lon":8.586983,"lat":50.085558,"homepage_url":null,"federal_state_code":"HE","fax_number":"+49 69 357443","email_address":null,"city":"Frankfurt am Main"},{"zip_code":"60435","street":"Engelthaler Straße 34","school_type_entity":"Grundschule","school_type":"Grundschule","phone_number":"+49 69 21238756","old_slug":null,"official_id":"3102","name":"Münzenbergerschule","lon":8.684519,"lat":50.150051,"homepage_url":null,"federal_state_code":"HE","fax_number":"+49 69 21238582","email_address":null,"city":"Frankfurt am Main"},{"zip_code":"65934","street":"Oeserstraße 2","school_type_entity":"Grundschule","school_type":"Grundschule","phone_number":"+49 69 21245557","old_slug":null,"official_id":"3103","name":"Niddaschule","lon":8.566469,"lat":50.101455,"homepage_url":null,"federal_state_code":"HE","fax_number":"+49 69 21245691","email_address":null,"city":"Frankfurt am Main"},{"zip_code":"60386","street":"Vatterstraße 1","school_type_entity":"Grundschule","school_type":"Grundschule","phone_number":"+49 69 21248685","old_slug":null,"official_id":"3104","name":"Pestalozzischule","lon":8.732773,"lat":50.132438,"homepage_url":null,"federal_state_code":"HE","fax_number":"+49 69 21248356","email_address":null,"city":"Frankfurt am Main"},{"zip_code":"60596","street":"Riedhofweg 15-19","school_type_entity":"Grundschule","school_type":"Grundschule","phone_number":"+49 69 21235264","old_slug":null,"official_id":"3105","name":"Riedhofschule","lon":8.674358,"lat":50.091957,"homepage_url":null,"federal_state_code":"HE","fax_number":"+49 69 21234393","email_address":null,"city":"Frankfurt am Main"},{"zip_code":"65929","street":"Gerlachstraße 1","school_type_entity":"Grundschule","school_type":"Grundschule","phone_number":"+49 69 21245558","old_slug":"65929-robert-blum-schule","official_id":"3106","name":"Robert-Blum-Schule","lon":8.549509,"lat":50.107662,"homepage_url":"http://www.schulserver.hessen.de/frankfurt/robert-blum","federal_state_code":"HE","fax_number":"+49 69 21245618","email_address":"robert-blum-schule@gmx.de","city":"Frankfurt am Main"},{"zip_code":"60439","street":"Heddernheimer Kirchstraße 13","school_type_entity":"Grundschule","school_type":"Grundschule","phone_number":"+49 69 21238734","old_slug":null,"official_id":"3107","name":"Robert-Schumann-Schule","lon":8.645856,"lat":50.158473,"homepage_url":null,"federal_state_code":"HE","fax_number":"+49 69 21232099","email_address":null,"city":"Frankfurt am Main"},{"zip_code":"60487","street":"Falkstraße 60","school_type_entity":"Hauptschule","school_type":"Hauptschule","phone_number":"+49 69 21235283","old_slug":null,"official_id":"3108","name":"Sophienschule","lon":8.646267,"lat":50.124458,"homepage_url":null,"federal_state_code":"HE","fax_number":"+49 69 21239094","email_address":null,"city":"Frankfurt am Main"},{"zip_code":"65929","street":"Sossenheimer Weg 50-54","school_type_entity":"Grundschule","school_type":"Grundschule","phone_number":"+49 69 21245478","old_slug":null,"official_id":"3109","name":"Walter-Kolb-Schule","lon":8.546961,"lat":50.114813,"homepage_url":null,"federal_state_code":"HE","fax_number":"+49 69 21233640","email_address":null,"city":"Frankfurt am Main"},{"zip_code":"65929","street":"Sossenheimer Weg 50-54","school_type_entity":"Hauptschule","school_type":"Hauptschule","phone_number":"+49 69 21245478","old_slug":null,"official_id":"3109","name":"Walter-Kolb-Schule","lon":8.546961,"lat":50.114813,"homepage_url":null,"federal_state_code":"HE","fax_number":"+49 69 21233640","email_address":null,"city":"Frankfurt am Main"},{"zip_code":"65929","street":"Sossenheimer Weg 50-54","school_type_entity":"Realschule","school_type":"Realschule","phone_number":"+49 69 21245478","old_slug":null,"official_id":"3109","name":"Walter-Kolb-Schule","lon":8.546961,"lat":50.114813,"homepage_url":null,"federal_state_code":"HE","fax_number":"+49 69 21233640","email_address":null,"city":"Frankfurt am Main"},{"zip_code":"60599","street":"Wiener Straße 13","school_type_entity":"Grundschule","school_type":"Grundschule","phone_number":"+49 69 21235294","old_slug":null,"official_id":"3111","name":"Gruneliusschule","lon":8.725896,"lat":50.097534,"homepage_url":null,"federal_state_code":"HE","fax_number":"+49 69 651079","email_address":null,"city":"Frankfurt am Main"},{"zip_code":"60439","street":"Niederurseler Landstr. 58-60","school_type_entity":"Grundschule","school_type":"Grundschule","phone_number":"+49 69 21234287","old_slug":null,"official_id":"3112","name":"Heinrich-Kromer-Schule","lon":8.630087,"lat":50.164315,"homepage_url":null,"federal_state_code":"HE","fax_number":"+49 69 21232752","email_address":null,"city":"Frankfurt am Main"},{"zip_code":"60323","street":"Bremer Straße 25","school_type_entity":"Grundschule","school_type":"Grundschule","phone_number":"+49 69 21235256","old_slug":null,"official_id":"3113","name":"Holzhausenschule","lon":8.672219,"lat":50.128043,"homepage_url":null,"federal_state_code":"HE","fax_number":"+49 69 21233447","email_address":null,"city":"Frankfurt am Main"},{"zip_code":"65929","street":"Hostatostraße 38","school_type_entity":"Grundschule","school_type":"Grundschule","phone_number":"+49 69 21245553","old_slug":null,"official_id":"3114","name":"Hostatoschule","lon":8.541089,"lat":50.099855,"homepage_url":null,"federal_state_code":"HE","fax_number":"+49 69 21245791","email_address":null,"city":"Frankfurt am Main"},{"zip_code":"65929","street":"Hostatostraße 38","school_type_entity":"Hauptschule","school_type":"Hauptschule","phone_number":"+49 69 21245553","old_slug":null,"official_id":"3114","name":"Hostatoschule","lon":8.541089,"lat":50.099855,"homepage_url":null,"federal_state_code":"HE","fax_number":"+49 69 21245791","email_address":null,"city":"Frankfurt am Main"},{"zip_code":"65931","street":"West-Höchster-Straße 103","school_type_entity":"Grundschule","school_type":"Grundschule","phone_number":"+49 69 30066887","old_slug":null,"official_id":"3115","name":"Käthe-Kollwitz-Schule","lon":8.495615,"lat":50.093942,"homepage_url":null,"federal_state_code":"HE","fax_number":"+49 69 361068","email_address":null,"city":"Frankfurt am Main"},{"zip_code":"65929","street":"Schmalkaldener Straße 8","school_type_entity":"Grundschule","school_type":"Grundschule","phone_number":"+49 69 306080","old_slug":null,"official_id":"3116","name":"Karl-von-Ibell-Schule","lon":8.527061,"lat":50.109521,"homepage_url":null,"federal_state_code":"HE","fax_number":"+49 69 30850397","email_address":null,"city":"Frankfurt am Main"},{"zip_code":"60329","street":"Moselstraße 11","school_type_entity":"Grundschule","school_type":"Grundschule","phone_number":"+49 69 21235338","old_slug":"60329-karmeliterschule","official_id":"3117","name":"Karmeliterschule","lon":8.667387,"lat":50.106321,"homepage_url":"http://www.karmeliterschule.de/","federal_state_code":"HE","fax_number":"+49 69 21235215","email_address":"schulleitung@karmeliterschule.de","city":"Frankfurt am Main"},{"zip_code":"60488","street":"Am Spritzenhaus 2","school_type_entity":"Grundschule","school_type":"Grundschule","phone_number":"+49 69 74749950","old_slug":null,"official_id":"3118","name":"Kerschensteinerschule","lon":8.62237,"lat":50.132247,"homepage_url":null,"federal_state_code":"HE","fax_number":"+49 69 747499525","email_address":null,"city":"Frankfurt am Main"},{"zip_code":"60433","street":"Hinter den Ulmen 10","school_type_entity":"Grundschule","school_type":"Grundschule","phone_number":"+49 69 21233942","old_slug":null,"official_id":"3120","name":"Ludwig-Richter-Schule","lon":8.66149,"lat":50.153762,"homepage_url":null,"federal_state_code":"HE","fax_number":"+49 69 21232746","email_address":null,"city":"Frankfurt am Main"},{"zip_code":"60433","street":"Hinter den Ulmen 10","school_type_entity":"Hauptschule","school_type":"Hauptschule","phone_number":"+49 69 21233942","old_slug":null,"official_id":"3120","name":"Ludwig-Richter-Schule","lon":8.66149,"lat":50.153762,"homepage_url":null,"federal_state_code":"HE","fax_number":"+49 69 21232746","email_address":null,"city":"Frankfurt am Main"},{"zip_code":"60326","street":"Hufnagelstraße 25","school_type_entity":"Grundschule","school_type":"Grundschule","phone_number":"+49 69 21233086","old_slug":null,"official_id":"3121","name":"Günderrode-Schule","lon":8.642655,"lat":50.104169,"homepage_url":null,"federal_state_code":"HE","fax_number":"+49 69 21239092","email_address":null,"city":"Frankfurt am Main"},{"zip_code":"60529","street":"Am Wiesenhof 109","school_type_entity":"Grundschule","school_type":"Grundschule","phone_number":"+49 69 21232991","old_slug":null,"official_id":"3122","name":"Goldsteinschule","lon":8.607667,"lat":50.080538,"homepage_url":null,"federal_state_code":"HE","fax_number":"+49 69 21232872","email_address":null,"city":"Frankfurt am Main"},{"zip_code":"60326","street":"Ackermannstraße 37","school_type_entity":"Grundschule","school_type":"Grundschule","phone_number":"+49 69 21235549","old_slug":null,"official_id":"3123","name":"Ackermannschule","lon":8.625725,"lat":50.099436,"homepage_url":null,"federal_state_code":"HE","fax_number":"+49 69 21242071","email_address":null,"city":"Frankfurt am Main"},{"zip_code":"65931","street":"Lenzenbergstraße 70","school_type_entity":"Grundschule","school_type":"Grundschule","phone_number":"+49 69 300387911","old_slug":null,"official_id":"3124","name":"Adolf-Reichwein-Schule","lon":8.502458,"lat":50.101297,"homepage_url":null,"federal_state_code":"HE","fax_number":"+49 69 300387926","email_address":null,"city":"Frankfurt am Main"},{"zip_code":"60433","street":"Berkersheimer Weg 26","school_type_entity":"Grundschule","school_type":"Grundschule","phone_number":"+49 69 95425213","old_slug":null,"official_id":"3125","name":"Albert-Schweitzer-Schule","lon":8.675718,"lat":50.167074,"homepage_url":null,"federal_state_code":"HE","fax_number":"+49 69 95425220","email_address":null,"city":"Frankfurt am Main"},{"zip_code":"60529","street":"Gerolsteiner Straße 2","school_type_entity":"Grundschule","school_type":"Grundschule","phone_number":"+49 69 355544","old_slug":null,"official_id":"3127","name":"August-Gräser-Schule","lon":8.577202,"lat":50.08799,"homepage_url":null,"federal_state_code":"HE","fax_number":"+49 69 93540453","email_address":null,"city":"Frankfurt am Main"},{"zip_code":"60437","street":"Harheimer Weg 16","school_type_entity":"Grundschule","school_type":"Grundschule","phone_number":"+49 69 501594","old_slug":null,"official_id":"3128","name":"August-Jaspert-Schule","lon":8.667664,"lat":50.183096,"homepage_url":null,"federal_state_code":"HE","fax_number":"+49 69 50930744","email_address":null,"city":"Frankfurt am Main"},{"zip_code":"65933","street":"Kiefernstraße 18 a","school_type_entity":"Grundschule","school_type":"Grundschule","phone_number":"+49 69 21233901","old_slug":null,"official_id":"3129","name":"Berthold-Otto-Schule","lon":8.608219,"lat":50.097774,"homepage_url":null,"federal_state_code":"HE","fax_number":"+49 69 21242626","email_address":null,"city":"Frankfurt am Main"},{"zip_code":"60325","street":"Lindenstraße 2","school_type_entity":"Grundschule","school_type":"Grundschule","phone_number":"+49 69 21235266","old_slug":null,"official_id":"3130","name":"Elsa-Brändström-Schule","lon":8.660888,"lat":50.115025,"homepage_url":null,"federal_state_code":"HE","fax_number":"+49 69 21237772","email_address":null,"city":"Frankfurt am Main"},{"zip_code":"60322","street":"Wolfsgangstraße 106","school_type_entity":"Grundschule","school_type":"Grundschule","phone_number":"+49 69 21235137","old_slug":null,"official_id":"3131","name":"Engelbert-Humperdinck-Schule","lon":8.670601,"lat":50.123724,"homepage_url":null,"federal_state_code":"HE","fax_number":"+49 69 21238214","email_address":null,"city":"Frankfurt am Main"},{"zip_code":"60487","street":"Falkstraße 71","school_type_entity":"Grundschule","school_type":"Grundschule","phone_number":"+49 69 21235282","old_slug":null,"official_id":"3132","name":"Franckeschule","lon":8.645295,"lat":50.124702,"homepage_url":null,"federal_state_code":"HE","fax_number":"+49 69 21234480","email_address":null,"city":"Frankfurt am Main"},{"zip_code":"60528","street":"Else-Alken-Straße 3","school_type_entity":"Grundschule","school_type":"Grundschule","phone_number":"+49 69 6662736","old_slug":null,"official_id":"3133","name":"Friedrich-Fröbel-Schule","lon":8.642914,"lat":50.079082,"homepage_url":null,"federal_state_code":"HE","fax_number":"+49 69 66163140","email_address":null,"city":"Frankfurt am Main"},{"zip_code":"65934","street":"Heusingerstraße 14","school_type_entity":"Grundschule","school_type":"Grundschule","phone_number":"+49 69 38010022","old_slug":null,"official_id":"3134","name":"Friedrich-List-Schule","lon":8.580704,"lat":50.107823,"homepage_url":null,"federal_state_code":"HE","fax_number":"+49 69 382075","email_address":null,"city":"Frankfurt am Main"},{"zip_code":"60385","street":"Luxemburgerallee 24","school_type_entity":"Grundschule","school_type":"Grundschule","phone_number":"+49 69 21235278","old_slug":null,"official_id":"3135","name":"Dahlmannschule","lon":8.712655,"lat":50.119093,"homepage_url":null,"federal_state_code":"HE","fax_number":"+49 69 21231190","email_address":null,"city":"Frankfurt am Main"},{"zip_code":"60431","street":"Am Mühlgarten 5-7","school_type_entity":"Grundschule","school_type":"Grundschule","phone_number":"+49 69 524526","old_slug":null,"official_id":"3136","name":"Diesterwegschule","lon":8.650727,"lat":50.146636,"homepage_url":null,"federal_state_code":"HE","fax_number":"+49 69 510050","email_address":null,"city":"Frankfurt am Main"},{"zip_code":"60488","street":"Praunheimer Hohl 4","school_type_entity":"Grundschule","school_type":"Grundschule","phone_number":"+49 69 21235598","old_slug":null,"official_id":"3137","name":"Ebelfeldschule","lon":8.614087,"lat":50.140708,"homepage_url":null,"federal_state_code":"HE","fax_number":"+49 69 21230195","email_address":null,"city":"Frankfurt am Main"},{"zip_code":"65933","street":"Waldschulstraße 83","school_type_entity":"Grundschule","school_type":"Grundschule","phone_number":"+49 69 394816","old_slug":null,"official_id":"3138","name":"Eichendorffschule","lon":8.602279,"lat":50.103396,"homepage_url":null,"federal_state_code":"HE","fax_number":"+49 69 381490","email_address":null,"city":"Frankfurt am Main"},{"zip_code":"60528","street":"Schwanheimer Straße 23","school_type_entity":"Hauptschule","school_type":"Hauptschule","phone_number":"+49 69 67725435","old_slug":"60528-salzmannschule","official_id":"3142","name":"Salzmannschule","lon":8.644544,"lat":50.088049,"homepage_url":"http://region-frankfurt.bildung.hessen.de/schule/suche_schul_db.html?show_school=3142","federal_state_code":"HE","fax_number":"+49 69 671038","email_address":"salzmann@aol.com","city":"Frankfurt am Main"},{"zip_code":"60596","street":"Schwanthaler Straße 63","school_type_entity":"Hauptschule","school_type":"Hauptschule","phone_number":"+49 69 21235250","old_slug":null,"official_id":"3143","name":"Schwanthalerschule","lon":8.678815,"lat":50.099853,"homepage_url":null,"federal_state_code":"HE","fax_number":"+49 69 21236560","email_address":null,"city":"Frankfurt am Main"},{"zip_code":"60599","street":"Lettigkautweg 8","school_type_entity":"Grundschule","school_type":"Grundschule","phone_number":"+49 69 60605333","old_slug":null,"official_id":"3148","name":"Mühlbergschule","lon":8.702688,"lat":50.099284,"homepage_url":null,"federal_state_code":"HE","fax_number":"+49 69 626632","email_address":null,"city":"Frankfurt am Main"},{"zip_code":"60439","street":"In der Römerstadt 120 e","school_type_entity":"Grundschule","school_type":"Grundschule","phone_number":"+49 69 21234978","old_slug":null,"official_id":"3149","name":"Römerstadtschule","lon":8.632342,"lat":50.152899,"homepage_url":null,"federal_state_code":"HE","fax_number":"+49 69 21232009","email_address":null,"city":"Frankfurt am Main"},{"zip_code":"60318","street":"Lenaustraße 81","school_type_entity":"Grundschule","school_type":"Grundschule","phone_number":"+49 69 21233940","old_slug":null,"official_id":"3150","name":"Schwarzburgschule","lon":8.689267,"lat":50.127284,"homepage_url":null,"federal_state_code":"HE","fax_number":"+49 69 21230750","email_address":null,"city":"Frankfurt am Main"},{"zip_code":"60596","street":"Textorstraße 104","school_type_entity":"Grundschule","school_type":"Grundschule","phone_number":"+49 69 21235255","old_slug":null,"official_id":"3151","name":"Textorschule","lon":8.679373,"lat":50.099308,"homepage_url":null,"federal_state_code":"HE","fax_number":"+49 69 21235495","email_address":null,"city":"Frankfurt am Main"},{"zip_code":"60435","street":"Theobald-Ziegler-Straße 10","school_type_entity":"Grundschule","school_type":"Grundschule","phone_number":"+49 69 21238755","old_slug":null,"official_id":"3152","name":"Theobald-Ziegler-Schule","lon":8.690603,"lat":50.148099,"homepage_url":null,"federal_state_code":"HE","fax_number":"+49 69 21230706","email_address":null,"city":"Frankfurt am Main"},{"zip_code":"60594","street":"Willemerstraße 12","school_type_entity":"Grundschule","school_type":"Grundschule","phone_number":"+49 69 21233529","old_slug":null,"official_id":"3153","name":"Willemerschule","lon":8.693287,"lat":50.103973,"homepage_url":null,"federal_state_code":"HE","fax_number":"+49 69 21238523","email_address":null,"city":"Frankfurt am Main"},{"zip_code":"60389","street":"Wilhelmshöher Straße 124","school_type_entity":"Grundschule","school_type":"Grundschule","phone_number":"+49 69 904736020","old_slug":"60389-zentgrafenschule","official_id":"3154","name":"Zentgrafenschule","lon":8.72622,"lat":50.143163,"homepage_url":"http://www.zentgrafenschule.de","federal_state_code":"HE","fax_number":"+49 69 904736019","email_address":"schulleitung@zgsffm.de","city":"Frankfurt am Main"},{"zip_code":"60439","street":"Praunheimer Weg 44","school_type_entity":"Grundschule","school_type":"Grundschule","phone_number":"+49 69 21234515","old_slug":"60439-integrative-schule-frankfurt","official_id":"3155","name":"Erich Kästner Schule","lon":8.62132,"lat":50.161146,"homepage_url":"http://www.schulserver.hessen.de/frankfurt/integrative-schule/","federal_state_code":"HE","fax_number":"+49 69 21232744","email_address":"isfrankfurt@t-online.de","city":"Frankfurt am Main"},{"zip_code":"60489","street":"Biedenkopfer Weg 33","school_type_entity":"Grundschule","school_type":"Grundschule","phone_number":"+49 69 785106","old_slug":null,"official_id":"3156","name":"Brentanoschule","lon":8.603814,"lat":50.120257,"homepage_url":null,"federal_state_code":"HE","fax_number":"+49 69 78801458","email_address":null,"city":"Frankfurt am Main"},{"zip_code":"65931","street":"Paul-Kirchhof-Platz 13","school_type_entity":"Grundschule","school_type":"Grundschule","phone_number":"+49 69 371105","old_slug":null,"official_id":"3158","name":"Ludwig-Weber-Schule","lon":8.50464,"lat":50.087504,"homepage_url":null,"federal_state_code":"HE","fax_number":"+49 69 37562046","email_address":null,"city":"Frankfurt am Main"},{"zip_code":"60320","street":"Mierendorffstraße 8","school_type_entity":"Grundschule","school_type":"Grundschule","phone_number":"+49 69 21235332","old_slug":null,"official_id":"3159","name":"Heinrich-Seliger-Schule","lon":8.67326,"lat":50.142115,"homepage_url":null,"federal_state_code":"HE","fax_number":"+49 69 21232733","email_address":null,"city":"Frankfurt am Main"},{"zip_code":"60326","street":"Idsteiner Straße 47","school_type_entity":"Grundschule","school_type":"Grundschule","phone_number":"+49 69 21235301","old_slug":null,"official_id":"3160","name":"Hellerhofschule","lon":8.637477,"lat":50.105918,"homepage_url":null,"federal_state_code":"HE","fax_number":"+49 69 21235211","email_address":null,"city":"Frankfurt am Main"},{"zip_code":"60385","street":"Berger Straße 268","school_type_entity":"Grundschule","school_type":"Grundschule","phone_number":"+49 69 21235293","old_slug":null,"official_id":"3161","name":"Kirchnerschule","lon":8.711789,"lat":50.128372,"homepage_url":null,"federal_state_code":"HE","fax_number":"+49 69 21237603","email_address":null,"city":"Frankfurt am Main"},{"zip_code":"60313","street":"Schäfergasse 23","school_type_entity":"Grundschule","school_type":"Grundschule","phone_number":"+49 69 21235162","old_slug":null,"official_id":"3162","name":"Liebfrauenschule","lon":8.684891,"lat":50.116719,"homepage_url":null,"federal_state_code":"HE","fax_number":"+49 69 21231441","email_address":null,"city":"Frankfurt am Main"},{"zip_code":"60385","street":"Linnestraße 18-20","school_type_entity":"Grundschule","school_type":"Grundschule","phone_number":"+49 69 21235275","old_slug":null,"official_id":"3163","name":"Linnéschule","lon":8.711563,"lat":50.131052,"homepage_url":null,"federal_state_code":"HE","fax_number":"+49 69 21230390","email_address":null,"city":"Frankfurt am Main"},{"zip_code":"60316","street":"Burgstraße 21","school_type_entity":"Grundschule","school_type":"Grundschule","phone_number":"+49 69 21234479","old_slug":null,"official_id":"3164","name":"Merianschule","lon":8.696249,"lat":50.123493,"homepage_url":null,"federal_state_code":"HE","fax_number":"+49 69 21239851","email_address":null,"city":"Frankfurt am Main"},{"zip_code":"65936","street":"Sossenheimer Riedstraße 13","school_type_entity":"Grundschule","school_type":"Grundschule","phone_number":"+49 69 93493830","old_slug":null,"official_id":"3165","name":"Albrecht-Dürer-Schule","lon":8.569854,"lat":50.121077,"homepage_url":null,"federal_state_code":"HE","fax_number":"+49 69 934938324","email_address":null,"city":"Frankfurt am Main"},{"zip_code":"60435","street":"Berkersheimer Untergasse 18","school_type_entity":"Grundschule","school_type":"Grundschule","phone_number":"+49 69 543508","old_slug":null,"official_id":"3166","name":"Berkersheimer Grundschule","lon":8.696017,"lat":50.173943,"homepage_url":null,"federal_state_code":"HE","fax_number":"+49 69 54890087","email_address":null,"city":"Frankfurt am Main"},{"zip_code":"65933","street":"Jungmannstraße 3-5","school_type_entity":"Grundschule","school_type":"Grundschule","phone_number":"+49 69 381540","old_slug":null,"official_id":"3167","name":"Boehleschule","lon":8.605351,"lat":50.093751,"homepage_url":null,"federal_state_code":"HE","fax_number":"+49 69 38998376","email_address":null,"city":"Frankfurt am Main"},{"zip_code":"60486","street":"Hamburger Allee 43","school_type_entity":"Grundschule","school_type":"Grundschule","phone_number":"+49 69 21233527","old_slug":null,"official_id":"3168","name":"Bonifatiusschule","lon":8.645235,"lat":50.116007,"homepage_url":null,"federal_state_code":"HE","fax_number":"+49 69 21235486","email_address":null,"city":"Frankfurt am Main"},{"zip_code":"60433","street":"Im Uhrig 17","school_type_entity":"Grundschule","school_type":"Grundschule","phone_number":"+49 69 21238754","old_slug":null,"official_id":"3169","name":"Fried-Lübbecke-Schule","lon":8.654677,"lat":50.163645,"homepage_url":null,"federal_state_code":"HE","fax_number":"+49 69 21238338","email_address":null,"city":"Frankfurt am Main"},{"zip_code":"60528","street":"Niederräder Landstraße 60-62","school_type_entity":"Grundschule","school_type":"Grundschule","phone_number":"+49 69 21233059","old_slug":null,"official_id":"3170","name":"Frauenhofschule","lon":8.651433,"lat":50.088456,"homepage_url":null,"federal_state_code":"HE","fax_number":"+49 69 21232711","email_address":null,"city":"Frankfurt am Main"},{"zip_code":"60386","street":"Fachfeldstraße 32","school_type_entity":"Grundschule","school_type":"Grundschule","phone_number":"+49 69 21248888","old_slug":null,"official_id":"3171","name":"Freiligrathschule","lon":8.768753,"lat":50.120232,"homepage_url":null,"federal_state_code":"HE","fax_number":"+49 69 21249111","email_address":null,"city":"Frankfurt am Main"},{"zip_code":"65934","street":"Dürkheimer Straße 47","school_type_entity":"Grundschule","school_type":"Grundschule","phone_number":"+49 69 21245504","old_slug":null,"official_id":"3172","name":"Fridtjof-Nansen-Schule","lon":8.578535,"lat":50.098224,"homepage_url":null,"federal_state_code":"HE","fax_number":"+49 69 21242905","email_address":null,"city":"Frankfurt am Main"},{"zip_code":"60389","street":"Burgstraße 59","school_type_entity":"Grundschule","school_type":"Grundschule","phone_number":"+49 69 21233484","old_slug":null,"official_id":"3173","name":"Comeniusschule","lon":8.700545,"lat":50.126513,"homepage_url":null,"federal_state_code":"HE","fax_number":"+49 69 21236612","email_address":null,"city":"Frankfurt am Main"},{"zip_code":"60314","street":"Ostendstraße 35","school_type_entity":"Grundschule","school_type":"Grundschule","phone_number":"+49 69 21233530","old_slug":null,"official_id":"3174","name":"Uhlandschule","lon":8.697903,"lat":50.111833,"homepage_url":null,"federal_state_code":"HE","fax_number":"+49 69 21231652","email_address":null,"city":"Frankfurt am Main"},{"zip_code":"35398","street":"Hüttenbergstraße 23","school_type_entity":"Grundschule","school_type":"Grundschule","phone_number":"+49 6403 71376","old_slug":null,"official_id":"3176","name":"Kleebachschule","lon":8.618075,"lat":50.548725,"homepage_url":null,"federal_state_code":"HE","fax_number":"+49 6403 775848","email_address":null,"city":"Gießen"},{"zip_code":"35394","street":"Großen-Busecker-Straße 20","school_type_entity":"Grundschule","school_type":"Grundschule","phone_number":"+49  0641","old_slug":null,"official_id":"3177","name":"Hedwig-Burgheim-Schule","lon":8.753202,"lat":50.602572,"homepage_url":null,"federal_state_code":"HE","fax_number":"+49  0641","email_address":null,"city":"Gießen"},{"zip_code":"60318","street":"Hebelstraße 15-19","school_type_entity":"Gymnasium","school_type":"Gymnasium ohne gymnasiale Oberstufe","phone_number":"+49 69 427289800","old_slug":null,"official_id":"3178","name":"Isaak-Emil-Lichtigfeld-Schule","lon":8.692714,"lat":50.130152,"homepage_url":null,"federal_state_code":"HE","fax_number":"+49 69 427289899","email_address":null,"city":"Frankfurt am Main"},{"zip_code":"60386","street":"Lauterbacher Straße 2","school_type_entity":"Grundschule","school_type":"Grundschule","phone_number":"+49 69 413900","old_slug":"60386-konrad-haenisch-schule","official_id":"3179","name":"Konrad-Haenisch-Schule","lon":8.751766,"lat":50.134387,"homepage_url":"http://www.konrad-haenisch-schule.com","federal_state_code":"HE","fax_number":"+49 69 4288002","email_address":"orgass@konrad-haenisch-schule.com","city":"Frankfurt am Main"},{"zip_code":"60386","street":"Lauterbacher Straße 2","school_type_entity":"Hauptschule","school_type":"Hauptschule","phone_number":"+49 69 413900","old_slug":"60386-konrad-haenisch-schule","official_id":"3179","name":"Konrad-Haenisch-Schule","lon":8.751766,"lat":50.134387,"homepage_url":"http://www.konrad-haenisch-schule.com","federal_state_code":"HE","fax_number":"+49 69 4288002","email_address":"orgass@konrad-haenisch-schule.com","city":"Frankfurt am Main"},{"zip_code":"60386","street":"Lauterbacher Straße 2","school_type_entity":"Realschule","school_type":"Realschule","phone_number":"+49 69 413900","old_slug":"60386-konrad-haenisch-schule","official_id":"3179","name":"Konrad-Haenisch-Schule","lon":8.751766,"lat":50.134387,"homepage_url":"http://www.konrad-haenisch-schule.com","federal_state_code":"HE","fax_number":"+49 69 4288002","email_address":"orgass@konrad-haenisch-schule.com","city":"Frankfurt am Main"},{"zip_code":"65936","street":"Schaumburger Straße 66-68","school_type_entity":"Hauptschule","school_type":"Hauptschule","phone_number":"+49 69 30069899","old_slug":null,"official_id":"3180","name":"Eduard-Spranger-Schule","lon":8.562633,"lat":50.119058,"homepage_url":null,"federal_state_code":"HE","fax_number":"+49 69 345004","email_address":null,"city":"Frankfurt am Main"},{"zip_code":"65936","street":"Schaumburger Straße 66-68","school_type_entity":"Realschule","school_type":"Realschule","phone_number":"+49 69 30069899","old_slug":null,"official_id":"3180","name":"Eduard-Spranger-Schule","lon":8.562633,"lat":50.119058,"homepage_url":null,"federal_state_code":"HE","fax_number":"+49 69 345004","email_address":null,"city":"Frankfurt am Main"},{"zip_code":"60435","street":"Gravensteiner Platz 2","school_type_entity":"Integrierte Gesamtschule","school_type":"schulformübergreifende (integrierte) Gesamtschule","phone_number":"+49 69 21241910","old_slug":null,"official_id":"3181","name":"Carlo-Mierendorff-Schule","lon":8.698644,"lat":50.155563,"homepage_url":null,"federal_state_code":"HE","fax_number":"+49 69 21241940","email_address":null,"city":"Frankfurt am Main"},{"zip_code":"65343","street":"Adolfstraße 22","school_type_entity":"Grundschule","school_type":"Grundschule","phone_number":"+49 6123 5154","old_slug":null,"official_id":"3184","name":"Freiherr-vom-Stein-Schule","lon":8.113114,"lat":50.028731,"homepage_url":null,"federal_state_code":"HE","fax_number":"+49 6123 902794","email_address":null,"city":"Eltville am Rhein"},{"zip_code":"65346","street":"Ringstraße 25","school_type_entity":"Grundschule","school_type":"Grundschule","phone_number":"+49 6123 62111","old_slug":null,"official_id":"3185","name":"Sonnenblumen-Schule","lon":8.091608,"lat":50.022883,"homepage_url":null,"federal_state_code":"HE","fax_number":"+49 6123 902781","email_address":null,"city":"Eltville am Rhein"},{"zip_code":"65366","street":"Winkeler Straße 87","school_type_entity":"Grundschule","school_type":"Grundschule","phone_number":"+49 6722 997100","old_slug":null,"official_id":"3186","name":"Emely-Salzig-Schule","lon":7.970977,"lat":49.9854,"homepage_url":null,"federal_state_code":"HE","fax_number":"+49 6722 9971014","email_address":null,"city":"Geisenheim"},{"zip_code":"65399","street":"Neue Heimat 15","school_type_entity":"Grundschule","school_type":"Grundschule","phone_number":"+49 6123 3922","old_slug":null,"official_id":"3187","name":"John-Sutton-Schule","lon":8.079628,"lat":50.038128,"homepage_url":null,"federal_state_code":"HE","fax_number":"+49 6123 902791","email_address":null,"city":"Kiedrich"},{"zip_code":"65391","street":"Schauerweg 2 a","school_type_entity":"Grundschule","school_type":"Grundschule","phone_number":"+49 6726 2011","old_slug":null,"official_id":"3188","name":"Wisperschule","lon":7.804789,"lat":50.048572,"homepage_url":null,"federal_state_code":"HE","fax_number":"+49 6726 8120909","email_address":null,"city":"Lorch"},{"zip_code":"65396","street":"Hohlweg 45","school_type_entity":"Grundschule","school_type":"Grundschule","phone_number":"+49 6123 72965","old_slug":null,"official_id":"3189","name":"Walluftalschule","lon":8.154799,"lat":50.041456,"homepage_url":null,"federal_state_code":"HE","fax_number":"+49 6123 74804","email_address":null,"city":"Walluf"},{"zip_code":"65375","street":"Schulstraße 17","school_type_entity":"Hauptschule","school_type":"Hauptschule","phone_number":"+49 6723 913790","old_slug":null,"official_id":"3190","name":"Reformschule Rheingau","lon":8.019775,"lat":50.007974,"homepage_url":null,"federal_state_code":"HE","fax_number":"+49 6723 9137999","email_address":null,"city":"Oestrich-Winkel"},{"zip_code":"65345","street":"Hauptstraße 27","school_type_entity":"Grundschule","school_type":"Grundschule","phone_number":"+49 6123 71580","old_slug":null,"official_id":"3191","name":"Otfried Preußler-Schule","lon":8.11005,"lat":50.059529,"homepage_url":null,"federal_state_code":"HE","fax_number":"+49 6123 71580","email_address":null,"city":"Eltville am Rhein"},{"zip_code":"65385","street":"Breslauer Straße 53","school_type_entity":"Realschule","school_type":"Realschule","phone_number":"+49 6722 3620","old_slug":null,"official_id":"3192","name":"Hildegardisschule","lon":7.935218,"lat":49.985411,"homepage_url":null,"federal_state_code":"HE","fax_number":"+49 6722 48001","email_address":null,"city":"Rüdesheim am Rhein"},{"zip_code":"65375","street":"Vom-Stein-Straße 2","school_type_entity":"Grundschule","school_type":"Grundschule","phone_number":"+49 6723 2388","old_slug":null,"official_id":"3193","name":"Pfingstbachschule","lon":8.001236,"lat":49.999212,"homepage_url":null,"federal_state_code":"HE","fax_number":"+49 6723 87231","email_address":null,"city":"Oestrich-Winkel"},{"zip_code":"65375","street":"Rosentalstraße 35","school_type_entity":"Grundschule","school_type":"Grundschule","phone_number":"+49 6723 3252","old_slug":null,"official_id":"3195","name":"Grundschule Hallgarten","lon":8.027661,"lat":50.032771,"homepage_url":null,"federal_state_code":"HE","fax_number":"+49 6723 602826","email_address":null,"city":"Oestrich-Winkel"},{"zip_code":"65347","street":"Hallgartener Straße 2","school_type_entity":"Grundschule","school_type":"Grundschule","phone_number":"+49 6723 2741","old_slug":null,"official_id":"3196","name":"Waldbachschule","lon":8.054758,"lat":50.01605,"homepage_url":null,"federal_state_code":"HE","fax_number":"+49 6723 1244","email_address":null,"city":"Eltville am Rhein"},{"zip_code":"65366","street":"Niklas-Vogt-Straße 3","school_type_entity":"Grundschule","school_type":"Grundschule","phone_number":"+49 6722 8355","old_slug":null,"official_id":"3197","name":"Johannes-de-Laspée-Schule","lon":7.96556,"lat":49.98313,"homepage_url":null,"federal_state_code":"HE","fax_number":"+49 6722 972420","email_address":null,"city":"Geisenheim"},{"zip_code":"64297","street":"Brandenburgerstraße 74","school_type_entity":"Grundschule","school_type":"Grundschule","phone_number":"+49 6151 51415","old_slug":null,"official_id":"3201","name":"Andersenschule","lon":8.63678,"lat":49.822396,"homepage_url":null,"federal_state_code":"HE","fax_number":"+49 6151 537570","email_address":null,"city":"Darmstadt"},{"zip_code":"64289","street":"Vogelsbergstraße 50","school_type_entity":"Grundschule","school_type":"Grundschule","phone_number":"+49 6151 132540","old_slug":null,"official_id":"3202","name":"Christian-Morgenstern-Schule","lon":8.663254,"lat":49.883323,"homepage_url":null,"federal_state_code":"HE","fax_number":"+49 6151 133401","email_address":null,"city":"Darmstadt"},{"zip_code":"64285","street":"Ludwigshöhstraße 10","school_type_entity":"Grundschule","school_type":"Grundschule","phone_number":"+49 6151 132541","old_slug":null,"official_id":"3204","name":"Bessunger Schule","lon":8.651428,"lat":49.857324,"homepage_url":null,"federal_state_code":"HE","fax_number":"+49 6151 133869","email_address":null,"city":"Darmstadt"},{"zip_code":"64291","street":"Stadtweg 1","school_type_entity":"Grundschule","school_type":"Grundschule","phone_number":"+49 6151 133426","old_slug":null,"official_id":"3205","name":"Astrid-Lindgren-Schule","lon":8.660403,"lat":49.910131,"homepage_url":null,"federal_state_code":"HE","fax_number":"+49 6151 132816","email_address":null,"city":"Darmstadt"},{"zip_code":"64287","street":"Kohlbergweg 1","school_type_entity":"Grundschule","school_type":"Grundschule","phone_number":"+49 6151 43017","old_slug":null,"official_id":"3209","name":"Elly-Heuss-Knapp-Schule","lon":8.67136,"lat":49.86544,"homepage_url":null,"federal_state_code":"HE","fax_number":"+49 6151 41523","email_address":null,"city":"Darmstadt"},{"zip_code":"64289","street":"Bartningstraße 33","school_type_entity":"Integrierte Gesamtschule","school_type":"schulformübergreifende (integrierte) Gesamtschule","phone_number":"+49 6151 790980","old_slug":null,"official_id":"3210","name":"Erich Kästner-Schule","lon":8.683529,"lat":49.900641,"homepage_url":null,"federal_state_code":"HE","fax_number":"+49 6151 7909821","email_address":null,"city":"Darmstadt"},{"zip_code":"64297","street":"Heinrich-Delp-Straße 187","school_type_entity":"Grundschule","school_type":"Grundschule","phone_number":"+49 6151 132896","old_slug":null,"official_id":"3211","name":"Frankensteinschule","lon":8.650424,"lat":49.831014,"homepage_url":null,"federal_state_code":"HE","fax_number":"+49 6151 133403","email_address":null,"city":"Darmstadt"},{"zip_code":"64295","street":"Pulverhäuserweg 31","school_type_entity":"Grundschule","school_type":"Grundschule","phone_number":"+49 6151 132547","old_slug":null,"official_id":"3212","name":"Friedrich-Ebert-Schule","lon":8.627611,"lat":49.85091,"homepage_url":null,"federal_state_code":"HE","fax_number":"+49 6151 133404","email_address":null,"city":"Darmstadt"},{"zip_code":"64293","street":"Viktoriastraße 31","school_type_entity":"Grundschule","school_type":"Grundschule","phone_number":"+49 6151 132548","old_slug":null,"official_id":"3213","name":"Goetheschule","lon":8.648806,"lat":49.877893,"homepage_url":null,"federal_state_code":"HE","fax_number":"+49 6151 133405","email_address":null,"city":"Darmstadt"},{"zip_code":"64297","street":"Gabelsbergerstraße 4-8","school_type_entity":"Kooperative Gesamtschule","school_type":"schulformbezogene (kooperative) Gesamtschule","phone_number":"+49 6151 9698440","old_slug":null,"official_id":"3214","name":"Gutenbergschule","lon":8.64175,"lat":49.818317,"homepage_url":null,"federal_state_code":"HE","fax_number":"+49 6151 96984444","email_address":null,"city":"Darmstadt"},{"zip_code":"64295","street":"Moltkestraße 18 a","school_type_entity":"Grundschule","school_type":"Grundschule","phone_number":"+49 6151 132549","old_slug":null,"official_id":"3215","name":"Heinrich-Heine-Schule","lon":8.641522,"lat":49.857211,"homepage_url":null,"federal_state_code":"HE","fax_number":"+49 6151 133406","email_address":null,"city":"Darmstadt"},{"zip_code":"64283","street":"Heinrichstraße 78","school_type_entity":"Grundschule","school_type":"Grundschule","phone_number":"+49 6151 132722","old_slug":null,"official_id":"3216","name":"Heinrich-Hoffmann-Schule","lon":8.660296,"lat":49.867211,"homepage_url":null,"federal_state_code":"HE","fax_number":"+49 6151 133407","email_address":null,"city":"Darmstadt"},{"zip_code":"64293","street":"Koblenzer Straße 8","school_type_entity":"Grundschule","school_type":"Grundschule","phone_number":"+49 6151 896435","old_slug":null,"official_id":"3217","name":"Käthe-Kollwitz-Schule","lon":8.615794,"lat":49.87941,"homepage_url":null,"federal_state_code":"HE","fax_number":"+49 6151 824022","email_address":null,"city":"Darmstadt"},{"zip_code":"64297","street":"Nußbaumallee 6","school_type_entity":"Grundschule","school_type":"Grundschule","phone_number":"+49 6151 132844","old_slug":null,"official_id":"3219","name":"Ludwig-Schwamb-Schule","lon":8.642847,"lat":49.810818,"homepage_url":null,"federal_state_code":"HE","fax_number":"+49 6151 133408","email_address":null,"city":"Darmstadt"},{"zip_code":"64289","street":"Müllerstraße 11-13","school_type_entity":"Grundschule","school_type":"Grundschule","phone_number":"+49 6151 9673390","old_slug":null,"official_id":"3221","name":"Schillerschule","lon":8.660437,"lat":49.879359,"homepage_url":null,"federal_state_code":"HE","fax_number":"+49 6151 96733933","email_address":null,"city":"Darmstadt"},{"zip_code":"64291","street":"Wilhelm-Busch-Weg 6","school_type_entity":"Grundschule","school_type":"Grundschule","phone_number":"+49 6151 371435","old_slug":"64291-wilhelm-busch-schule","official_id":"3223","name":"Wilhelm-Busch-Schule","lon":8.652193,"lat":49.916239,"homepage_url":"http://www.wbs-darmstadt.de","federal_state_code":"HE","fax_number":"+49 6151 351006","email_address":"info@wbs-darmstadt.de","city":"Darmstadt"},{"zip_code":"64297","street":"Stresemannstraße 5","school_type_entity":"Grundschule","school_type":"Grundschule","phone_number":"+49 6151 278662","old_slug":null,"official_id":"3224","name":"Wilhelm-Hauff-Schule","lon":8.643496,"lat":49.805679,"homepage_url":null,"federal_state_code":"HE","fax_number":"+49 6151 596478","email_address":null,"city":"Darmstadt"},{"zip_code":"64295","street":"Bessunger Straße 195","school_type_entity":"Hauptschule","school_type":"Hauptschule","phone_number":"+49 6151 132555","old_slug":null,"official_id":"3225","name":"Wilhelm-Leuschner-Schule","lon":8.636495,"lat":49.858844,"homepage_url":null,"federal_state_code":"HE","fax_number":"+49 6151 133409","email_address":null,"city":"Darmstadt"},{"zip_code":"64295","street":"Bessunger Straße 195","school_type_entity":"Realschule","school_type":"Realschule","phone_number":"+49 6151 132555","old_slug":null,"official_id":"3225","name":"Wilhelm-Leuschner-Schule","lon":8.636495,"lat":49.858844,"homepage_url":null,"federal_state_code":"HE","fax_number":"+49 6151 133409","email_address":null,"city":"Darmstadt"},{"zip_code":"35396","street":"Egerländer Straße 5","school_type_entity":"Grundschule","school_type":"Grundschule","phone_number":"+49  0641","old_slug":null,"official_id":"3227","name":"Georg-Büchner-Schule","lon":8.676905,"lat":50.5963,"homepage_url":null,"federal_state_code":"HE","fax_number":"+49  0641","email_address":null,"city":"Gießen"},{"zip_code":"35390","street":"Westanlage 43","school_type_entity":"Grundschule","school_type":"Grundschule","phone_number":"+49  0641","old_slug":null,"official_id":"3228","name":"Goetheschule Gießen","lon":8.668004,"lat":50.584238,"homepage_url":null,"federal_state_code":"HE","fax_number":"+49  0641","email_address":null,"city":"Gießen"},{"zip_code":"35398","street":"Paul-Schneider-Straße 87","school_type_entity":"Grundschule","school_type":"Grundschule","phone_number":"+49  0641","old_slug":null,"official_id":"3229","name":"Grundschule Gießen-West","lon":8.661512,"lat":50.600756,"homepage_url":null,"federal_state_code":"HE","fax_number":"+49  0641","email_address":null,"city":"Gießen"},{"zip_code":"35396","street":"Mildred-Harnack-Weg 37","school_type_entity":"Grundschule","school_type":"Grundschule","phone_number":"+49  0641","old_slug":null,"official_id":"3230","name":"Sandfeldschule","lon":8.675206,"lat":50.604575,"homepage_url":null,"federal_state_code":"HE","fax_number":"+49  0641","email_address":null,"city":"Gießen"},{"zip_code":"35396","street":"Spitzwegring 131","school_type_entity":"Grundschule","school_type":"Grundschule","phone_number":"+49  0641","old_slug":"35396-kaethe-kollwitz-schule","official_id":"3231","name":"Käthe-Kollwitz-Schule","lon":8.691937,"lat":50.600627,"homepage_url":"http://www.kks-giessen.de","federal_state_code":"HE","fax_number":"+49  0641","email_address":"kksgi@web.de","city":"Gießen"},{"zip_code":"35392","street":"Aulweg 120","school_type_entity":"Grundschule","school_type":"Grundschule","phone_number":"+49  0641","old_slug":null,"official_id":"3232","name":"Ludwig-Uhland-Schule","lon":8.668382,"lat":50.572413,"homepage_url":null,"federal_state_code":"HE","fax_number":"+49  0641","email_address":null,"city":"Gießen"},{"zip_code":"35394","street":"Pestalozzistraße 40","school_type_entity":"Grundschule","school_type":"Grundschule","phone_number":"+49  0641","old_slug":null,"official_id":"3233","name":"Pestalozzischule Gießen","lon":8.688518,"lat":50.58613,"homepage_url":null,"federal_state_code":"HE","fax_number":"+49  0641","email_address":null,"city":"Gießen"},{"zip_code":"35394","street":"Pestalozzistraße 40","school_type_entity":"Hauptschule","school_type":"Hauptschule mit Förderstufe","phone_number":"+49  0641","old_slug":null,"official_id":"3233","name":"Pestalozzischule Gießen","lon":8.688518,"lat":50.58613,"homepage_url":null,"federal_state_code":"HE","fax_number":"+49  0641","email_address":null,"city":"Gießen"},{"zip_code":"35394","street":"Pestalozzistraße 40","school_type_entity":"Realschule","school_type":"Realschule","phone_number":"+49  0641","old_slug":null,"official_id":"3233","name":"Pestalozzischule Gießen","lon":8.688518,"lat":50.58613,"homepage_url":null,"federal_state_code":"HE","fax_number":"+49  0641","email_address":null,"city":"Gießen"},{"zip_code":"63450","street":"Freigerichtstraße 41-47","school_type_entity":"Grundschule","school_type":"Grundschule","phone_number":"+49 6181 31864","old_slug":null,"official_id":"3235","name":"Anne-Frank-Schule","lon":8.93876,"lat":50.124949,"homepage_url":null,"federal_state_code":"HE","fax_number":"+49 6181 379396","email_address":null,"city":"Hanau"},{"zip_code":"63450","street":"Stresemannstraße 10","school_type_entity":"Grundschule","school_type":"Grundschule","phone_number":"+49 6181 28660","old_slug":null,"official_id":"3236","name":"Brüder-Grimm-Schule","lon":8.919388,"lat":50.129428,"homepage_url":null,"federal_state_code":"HE","fax_number":"+49 6181 28264","email_address":null,"city":"Hanau"},{"zip_code":"63452","street":"Friedrich-Engels-Straße 19","school_type_entity":"Grundschule","school_type":"Grundschule","phone_number":"+49 6181 13605","old_slug":null,"official_id":"3237","name":"Gebeschusschule","lon":8.929859,"lat":50.142818,"homepage_url":null,"federal_state_code":"HE","fax_number":"+49 6181 16839","email_address":null,"city":"Hanau"},{"zip_code":"63450","street":"Ramsaystraße 12","school_type_entity":"Grundschule","school_type":"Grundschule","phone_number":"+49 6181 20244","old_slug":null,"official_id":"3239","name":"Pestalozzischule","lon":8.916201,"lat":50.137937,"homepage_url":null,"federal_state_code":"HE","fax_number":"+49 6181 20201","email_address":null,"city":"Hanau"},{"zip_code":"63452","street":"Akazienweg 1","school_type_entity":"Grundschule","school_type":"Grundschule","phone_number":"+49 6181 13613","old_slug":null,"official_id":"3240","name":"Tümpelgarten-Schule","lon":8.937739,"lat":50.137642,"homepage_url":null,"federal_state_code":"HE","fax_number":"+49 6181 13695","email_address":null,"city":"Hanau"},{"zip_code":"63452","street":"Akazienweg 1","school_type_entity":"Hauptschule","school_type":"Hauptschule mit Förderstufe","phone_number":"+49 6181 13613","old_slug":null,"official_id":"3240","name":"Tümpelgarten-Schule","lon":8.937739,"lat":50.137642,"homepage_url":null,"federal_state_code":"HE","fax_number":"+49 6181 13695","email_address":null,"city":"Hanau"},{"zip_code":"63452","street":"Akazienweg 1","school_type_entity":"Realschule","school_type":"Realschule","phone_number":"+49 6181 13613","old_slug":null,"official_id":"3240","name":"Tümpelgarten-Schule","lon":8.937739,"lat":50.137642,"homepage_url":null,"federal_state_code":"HE","fax_number":"+49 6181 13695","email_address":null,"city":"Hanau"},{"zip_code":"63454","street":"Kleinfellerstraße 2","school_type_entity":"Grundschule","school_type":"Grundschule","phone_number":"+49 6181 28690","old_slug":null,"official_id":"3241","name":"Wilhelm-Geibel-Schule","lon":8.892599,"lat":50.135016,"homepage_url":null,"federal_state_code":"HE","fax_number":"+49 6181 257581","email_address":null,"city":"Hanau"},{"zip_code":"63069","street":"Eberhard-von-Rochow-Str. 43","school_type_entity":"Grundschule","school_type":"Grundschule","phone_number":"+49 69 80652225","old_slug":null,"official_id":"3242","name":"Anne-Frank-Schule","lon":8.766958,"lat":50.08387,"homepage_url":null,"federal_state_code":"HE","fax_number":"+49 69 80653139","email_address":null,"city":"Offenbach am Main"},{"zip_code":"63071","street":"Goerdelerstraße 131","school_type_entity":"Grundschule","school_type":"Grundschule","phone_number":"+49 69 80652877","old_slug":null,"official_id":"3243","name":"Grundschule Buchhügel","lon":8.785589,"lat":50.092217,"homepage_url":null,"federal_state_code":"HE","fax_number":"+49 69 80652884","email_address":null,"city":"Offenbach am Main"},{"zip_code":"63071","street":"Friedensstraße 81","school_type_entity":"Hauptschule","school_type":"Hauptschule mit Förderstufe","phone_number":"+49 69 80652425","old_slug":null,"official_id":"3244","name":"Bachschule","lon":8.774288,"lat":50.098808,"homepage_url":null,"federal_state_code":"HE","fax_number":"+49 69 80653212","email_address":null,"city":"Offenbach am Main"},{"zip_code":"63071","street":"Friedensstraße 81","school_type_entity":"Realschule","school_type":"Realschule","phone_number":"+49 69 80652425","old_slug":null,"official_id":"3244","name":"Bachschule","lon":8.774288,"lat":50.098808,"homepage_url":null,"federal_state_code":"HE","fax_number":"+49 69 80653212","email_address":null,"city":"Offenbach am Main"},{"zip_code":"63069","street":"Beethovenstraße 39","school_type_entity":"Grundschule","school_type":"Grundschule","phone_number":"+49 69 8383970","old_slug":null,"official_id":"3245","name":"Beethovenschule","lon":8.756766,"lat":50.092323,"homepage_url":null,"federal_state_code":"HE","fax_number":"+49 69 83839715","email_address":null,"city":"Offenbach am Main"},{"zip_code":"63065","street":"Bleichstraße 8","school_type_entity":"Grundschule","school_type":"Grundschule","phone_number":"+49 69 80652625","old_slug":"63065-eichendorffschule-offenbach","official_id":"3246","name":"Eichendorffschule","lon":8.763752,"lat":50.102525,"homepage_url":"http://www.eis.schulen-offenbach.de","federal_state_code":"HE","fax_number":"+49 69 80653472","email_address":"eichendorffschule@eis.schulen-offenbach.de","city":"Offenbach am Main"},{"zip_code":"63075","street":"Bürgeler Straße 60","school_type_entity":"Grundschule","school_type":"Grundschule","phone_number":"+49 69 80654550","old_slug":null,"official_id":"3247","name":"Ernst-Reuter-Schule","lon":8.796591,"lat":50.126027,"homepage_url":null,"federal_state_code":"HE","fax_number":"+49 69 80654551","email_address":null,"city":"Offenbach am Main"},{"zip_code":"63075","street":"Bürgeler Straße 60","school_type_entity":"Hauptschule","school_type":"Hauptschule mit Förderstufe","phone_number":"+49 69 80654550","old_slug":null,"official_id":"3247","name":"Ernst-Reuter-Schule","lon":8.796591,"lat":50.126027,"homepage_url":null,"federal_state_code":"HE","fax_number":"+49 69 80654551","email_address":null,"city":"Offenbach am Main"},{"zip_code":"63075","street":"Bürgeler Straße 60","school_type_entity":"Realschule","school_type":"Realschule","phone_number":"+49 69 80654550","old_slug":null,"official_id":"3247","name":"Ernst-Reuter-Schule","lon":8.796591,"lat":50.126027,"homepage_url":null,"federal_state_code":"HE","fax_number":"+49 69 80654551","email_address":null,"city":"Offenbach am Main"},{"zip_code":"63075","street":"Am Wiesengrund 43","school_type_entity":"Grundschule","school_type":"Grundschule","phone_number":"+49 69 80652735","old_slug":null,"official_id":"3248","name":"Friedrich-Ebert-Schule","lon":8.805585,"lat":50.114689,"homepage_url":null,"federal_state_code":"HE","fax_number":"+49 69 80652168","email_address":null,"city":"Offenbach am Main"},{"zip_code":"63073","street":"Erich-Ollenhauer-Straße 1","school_type_entity":"Integrierte Gesamtschule","school_type":"schulformübergreifende (integrierte) Gesamtschule","phone_number":"+49 69 80654610","old_slug":null,"official_id":"3249","name":"Geschwister-Scholl-Schule","lon":8.798296,"lat":50.087507,"homepage_url":null,"federal_state_code":"HE","fax_number":"+49 69 80654622","email_address":null,"city":"Offenbach am Main"},{"zip_code":"63067","street":"Bernardstraße 68-72","school_type_entity":"Grundschule","school_type":"Grundschule","phone_number":"+49 69 80652935","old_slug":null,"official_id":"3250","name":"Goetheschule","lon":8.759906,"lat":50.101184,"homepage_url":null,"federal_state_code":"HE","fax_number":"+49 69 80653489","email_address":null,"city":"Offenbach am Main"},{"zip_code":"63069","street":"Humboldtstraße 30","school_type_entity":"Grundschule","school_type":"Grundschule","phone_number":"+49 69 80652355","old_slug":null,"official_id":"3251","name":"Humboldtschule","lon":8.768227,"lat":50.091539,"homepage_url":null,"federal_state_code":"HE","fax_number":"+49 69 80652385","email_address":null,"city":"Offenbach am Main"},{"zip_code":"63065","street":"Mathildenstraße 30","school_type_entity":"Grundschule","school_type":"Grundschule","phone_number":"+49 69 80652145","old_slug":null,"official_id":"3253","name":"Mathildenschule","lon":8.774049,"lat":50.104494,"homepage_url":null,"federal_state_code":"HE","fax_number":"+49 69 80653429","email_address":null,"city":"Offenbach am Main"},{"zip_code":"63065","street":"Mathildenstraße 30","school_type_entity":"Hauptschule","school_type":"Hauptschule mit Förderstufe","phone_number":"+49 69 80652145","old_slug":null,"official_id":"3253","name":"Mathildenschule","lon":8.774049,"lat":50.104494,"homepage_url":null,"federal_state_code":"HE","fax_number":"+49 69 80653429","email_address":null,"city":"Offenbach am Main"},{"zip_code":"63065","street":"Mathildenstraße 30","school_type_entity":"Realschule","school_type":"Realschule","phone_number":"+49 69 80652145","old_slug":null,"official_id":"3253","name":"Mathildenschule","lon":8.774049,"lat":50.104494,"homepage_url":null,"federal_state_code":"HE","fax_number":"+49 69 80653429","email_address":null,"city":"Offenbach am Main"},{"zip_code":"63073","street":"Mauerfeldstraße 4","school_type_entity":"Grundschule","school_type":"Grundschule","phone_number":"+49 69 80652445","old_slug":null,"official_id":"3255","name":"Schule Bieber","lon":8.804539,"lat":50.088259,"homepage_url":null,"federal_state_code":"HE","fax_number":"+49 69 80653579","email_address":null,"city":"Offenbach am Main"},{"zip_code":"63075","street":"Stiftstraße 25","school_type_entity":"Grundschule","school_type":"Grundschule","phone_number":"+49 69 83006690","old_slug":null,"official_id":"3256","name":"Uhlandschule","lon":8.783776,"lat":50.119877,"homepage_url":null,"federal_state_code":"HE","fax_number":"+49 69 830066919","email_address":null,"city":"Offenbach am Main"},{"zip_code":"63071","street":"Brunnenweg 105","school_type_entity":"Grundschule","school_type":"Grundschule","phone_number":"+49 69 8570730","old_slug":null,"official_id":"3257","name":"Waldschule Tempelsee","lon":8.792097,"lat":50.084753,"homepage_url":null,"federal_state_code":"HE","fax_number":"+49 69 85707319","email_address":null,"city":"Offenbach am Main"},{"zip_code":"65189","street":"Brunhildenstraße 2","school_type_entity":"Grundschule","school_type":"Grundschule","phone_number":"+49 611 312235","old_slug":null,"official_id":"3259","name":"Adalbert-Stifter-Schule","lon":8.261298,"lat":50.060142,"homepage_url":null,"federal_state_code":"HE","fax_number":"+49 611 314963","email_address":null,"city":"Wiesbaden"},{"zip_code":"65183","street":"Lehrstraße 10","school_type_entity":"Grundschule","school_type":"Grundschule","phone_number":"+49 611 312228","old_slug":null,"official_id":"3262","name":"Anton-Gruner-Schule","lon":8.238927,"lat":50.087481,"homepage_url":null,"federal_state_code":"HE","fax_number":"+49 611 5990220","email_address":null,"city":"Wiesbaden"},{"zip_code":"65195","street":"Blücherplatz 1","school_type_entity":"Grundschule","school_type":"Grundschule","phone_number":"+49 611 312220","old_slug":"65195-bluecherschule","official_id":"3263","name":"Blücherschule","lon":8.226776,"lat":50.080967,"homepage_url":"http://www.bluecherschule.de/","federal_state_code":"HE","fax_number":"+49 611 314983","email_address":"bluecherschule.wiesbaden@t-online.de","city":"Wiesbaden"},{"zip_code":"55246","street":"Schiersteiner Straße 34","school_type_entity":"Grundschule","school_type":"Grundschule","phone_number":"+49 6134 210600","old_slug":null,"official_id":"3264","name":"Brüder-Grimm-Schule","lon":8.30556,"lat":50.00278,"homepage_url":null,"federal_state_code":"HE","fax_number":"+49 6134 2106019","email_address":null,"city":"Mainz-Kostheim"},{"zip_code":"55246","street":"Herrenstraße 70","school_type_entity":"Grundschule","school_type":"Grundschule","phone_number":"+49 6134 603455","old_slug":null,"official_id":"3265","name":"Carlo-Mierendorff-Schule","lon":8.30743,"lat":50.00328,"homepage_url":null,"federal_state_code":"HE","fax_number":"+49 6134 603403","email_address":null,"city":"Mainz-Kostheim"},{"zip_code":"65187","street":"Waldstraße 52","school_type_entity":"Grundschule","school_type":"Grundschule","phone_number":"+49 611 312223","old_slug":null,"official_id":"3266","name":"Diesterwegschule","lon":8.229212,"lat":50.063037,"homepage_url":null,"federal_state_code":"HE","fax_number":"+49 611 314984","email_address":null,"city":"Wiesbaden"},{"zip_code":"65201","street":"Zehntenhofstraße 20","school_type_entity":"Hauptschule","school_type":"Hauptschule","phone_number":"+49 611 318471","old_slug":null,"official_id":"3267","name":"Erich-Kästner-Schule","lon":8.192253,"lat":50.042993,"homepage_url":null,"federal_state_code":"HE","fax_number":"+49 611 314922","email_address":null,"city":"Wiesbaden"},{"zip_code":"65201","street":"Zehntenhofstraße 20","school_type_entity":"Realschule","school_type":"Realschule","phone_number":"+49 611 318471","old_slug":null,"official_id":"3267","name":"Erich-Kästner-Schule","lon":8.192253,"lat":50.042993,"homepage_url":null,"federal_state_code":"HE","fax_number":"+49 611 314922","email_address":null,"city":"Wiesbaden"},{"zip_code":"65207","street":"Heßlocher Straße 29","school_type_entity":"Grundschule","school_type":"Grundschule","phone_number":"+49 611 501420","old_slug":null,"official_id":"3268","name":"Ernst-Göbel-Schule","lon":8.303667,"lat":50.096397,"homepage_url":null,"federal_state_code":"HE","fax_number":"+49 611 9505361","email_address":null,"city":"Wiesbaden"},{"zip_code":"65203","street":"Wilhelm-Tropp-Straße 26","school_type_entity":"Grundschule","school_type":"Grundschule","phone_number":"+49 611 317536","old_slug":null,"official_id":"3269","name":"Freiherr-vom-Stein-Schule","lon":8.240787,"lat":50.041417,"homepage_url":null,"federal_state_code":"HE","fax_number":"+49 611 314995","email_address":null,"city":"Wiesbaden"},{"zip_code":"65185","street":"Karlstraße 21-25","school_type_entity":"Grundschule","school_type":"Grundschule","phone_number":"+49 611 312226","old_slug":null,"official_id":"3270","name":"Friedrich-Ludwig-Jahn-Schule","lon":8.235635,"lat":50.074602,"homepage_url":null,"federal_state_code":"HE","fax_number":"+49 611 314989","email_address":null,"city":"Wiesbaden"},{"zip_code":"65197","street":"Lorcher Straße 10","school_type_entity":"Grundschule","school_type":"Grundschule","phone_number":"+49 611 312230","old_slug":null,"official_id":"3271","name":"Friedrich-von-Schiller-Schule","lon":8.219981,"lat":50.074184,"homepage_url":null,"federal_state_code":"HE","fax_number":"+49 611 314958","email_address":null,"city":"Wiesbaden"},{"zip_code":"65189","street":"Bierstadter Straße 11","school_type_entity":"Grundschule","school_type":"Grundschule","phone_number":"+49 611 312219","old_slug":null,"official_id":"3272","name":"Fritz-Gansberg-Schule","lon":8.249648,"lat":50.08022,"homepage_url":null,"federal_state_code":"HE","fax_number":"+49 611 379916","email_address":null,"city":"Wiesbaden"},{"zip_code":"65203","street":"Goethestraße 6-8","school_type_entity":"Grundschule","school_type":"Grundschule","phone_number":"+49 611 317543","old_slug":null,"official_id":"3274","name":"Goetheschule","lon":8.242378,"lat":50.037553,"homepage_url":null,"federal_state_code":"HE","fax_number":"+49 611 314990","email_address":null,"city":"Wiesbaden"},{"zip_code":"55252","street":"Ludwigsplatz 14","school_type_entity":"Grundschule","school_type":"Grundschule","phone_number":"+49 6134 564360","old_slug":null,"official_id":"3275","name":"Gustav-Stresemann-Schule","lon":8.280776,"lat":50.012111,"homepage_url":null,"federal_state_code":"HE","fax_number":"+49 6134 5643619","email_address":null,"city":"Mainz-Kastel"},{"zip_code":"65201","street":"Zehntenhofstraße 6","school_type_entity":"Grundschule","school_type":"Grundschule","phone_number":"+49 611 318473","old_slug":null,"official_id":"3276","name":"Hafenschule","lon":8.194898,"lat":50.043614,"homepage_url":null,"federal_state_code":"HE","fax_number":"+49 611 9200788","email_address":null,"city":"Wiesbaden"},{"zip_code":"65187","street":"Raabestraße 2","school_type_entity":"Grundschule","school_type":"Grundschule","phone_number":"+49 611 312225","old_slug":"65187-wolfram-von-eschenbach-schule","official_id":"3277","name":"Hebbelschule","lon":8.231261,"lat":50.070676,"homepage_url":"http://www.wiesbaden.de/datenbanken/schulen/schulen/hauptschulen/Wolfram-von-Eschenbach-Schule.php","federal_state_code":"HE","fax_number":"+49 611 315939","email_address":"eschenbach-schule@t-online.de","city":"Wiesbaden"},{"zip_code":"65197","street":"Lorcher Straße 12","school_type_entity":"Hauptschule","school_type":"Hauptschule","phone_number":"+49 611 312229","old_slug":null,"official_id":"3278","name":"Heinrich-von-Kleist-Schule","lon":8.220293,"lat":50.073624,"homepage_url":null,"federal_state_code":"HE","fax_number":"+49 611 314927","email_address":null,"city":"Wiesbaden"},{"zip_code":"65197","street":"Lorcher Straße 12","school_type_entity":"Realschule","school_type":"Realschule","phone_number":"+49 611 312229","old_slug":null,"official_id":"3278","name":"Heinrich-von-Kleist-Schule","lon":8.220293,"lat":50.073624,"homepage_url":null,"federal_state_code":"HE","fax_number":"+49 611 314927","email_address":null,"city":"Wiesbaden"},{"zip_code":"65205","street":"Tempelhofer Straße 57","school_type_entity":"Integrierte Gesamtschule","school_type":"schulformübergreifende (integrierte) Gesamtschule","phone_number":"+49 611 97890","old_slug":null,"official_id":"3279","name":"Hermann-Ehlers-Schule","lon":8.296273,"lat":50.061563,"homepage_url":null,"federal_state_code":"HE","fax_number":"+49 611 97897887","email_address":null,"city":"Wiesbaden"},{"zip_code":"65191","street":"Poststraße 37","school_type_entity":"Grundschule","school_type":"Grundschule","phone_number":"+49 611 317255","old_slug":null,"official_id":"3280","name":"Grundschule Bierstadt","lon":8.27951,"lat":50.082952,"homepage_url":null,"federal_state_code":"HE","fax_number":"+49 611 314987","email_address":null,"city":"Wiesbaden"},{"zip_code":"65193","street":"Johannes-Maaß-Straße 1","school_type_entity":"Grundschule","school_type":"Grundschule","phone_number":"+49 611 312231","old_slug":null,"official_id":"3281","name":"Johannes-Maaß-Schule","lon":8.232203,"lat":50.091013,"homepage_url":null,"federal_state_code":"HE","fax_number":"+49 611 314960","email_address":null,"city":"Wiesbaden"},{"zip_code":"65201","street":"Otto-Reutter-Straße 5","school_type_entity":"Grundschule","school_type":"Grundschule","phone_number":"+49 611 318745","old_slug":null,"official_id":"3282","name":"Joseph-von-Eichendorff-Schule","lon":8.196922,"lat":50.05923,"homepage_url":null,"federal_state_code":"HE","fax_number":"+49 611 314924","email_address":null,"city":"Wiesbaden"},{"zip_code":"65205","street":"Lilienthalstraße 11","school_type_entity":"Grundschule","school_type":"Grundschule","phone_number":"+49 611 317820","old_slug":null,"official_id":"3283","name":"Justus-von-Liebig-Schule","lon":8.305079,"lat":50.056623,"homepage_url":null,"federal_state_code":"HE","fax_number":"+49 611 721270","email_address":null,"city":"Wiesbaden"},{"zip_code":"65199","street":"Kohlheckstraße 43","school_type_entity":"Grundschule","school_type":"Grundschule","phone_number":"+49 611 5050329","old_slug":null,"official_id":"3285","name":"Kohlheckschule","lon":8.193631,"lat":50.082927,"homepage_url":null,"federal_state_code":"HE","fax_number":"+49 611 5057880","email_address":null,"city":"Wiesbaden"},{"zip_code":"65191","street":"Am Schloßberg 22","school_type_entity":"Grundschule","school_type":"Grundschule","phone_number":"+49 611 23887950","old_slug":null,"official_id":"3286","name":"Konrad-Duden-Schule","lon":8.26679,"lat":50.103173,"homepage_url":null,"federal_state_code":"HE","fax_number":"+49 611 238879522","email_address":null,"city":"Wiesbaden"},{"zip_code":"65187","street":"Wörther-See-Straße 8","school_type_entity":"Grundschule","school_type":"Grundschule","phone_number":"+49 611 312141","old_slug":null,"official_id":"3288","name":"Ludwig-Beck-Schule","lon":8.217712,"lat":50.05539,"homepage_url":null,"federal_state_code":"HE","fax_number":"+49 611 315485","email_address":null,"city":"Wiesbaden"},{"zip_code":"65203","street":"Albert-Schweitzer-Allee 40","school_type_entity":"Grundschule","school_type":"Grundschule","phone_number":"+49 611 317541","old_slug":null,"official_id":"3290","name":"Otto-Stückrath-Schule","lon":8.227382,"lat":50.042311,"homepage_url":null,"federal_state_code":"HE","fax_number":"+49 611 9600434","email_address":null,"city":"Wiesbaden"},{"zip_code":"65199","street":"Mühlborngasse 17","school_type_entity":"Grundschule","school_type":"Grundschule","phone_number":"+49 611 318752","old_slug":null,"official_id":"3291","name":"Philipp-Reis-Schule","lon":8.193755,"lat":50.074999,"homepage_url":null,"federal_state_code":"HE","fax_number":"+49 611 314994","email_address":null,"city":"Wiesbaden"},{"zip_code":"65207","street":"Hauptstraße 13-15","school_type_entity":"Grundschule","school_type":"Grundschule","phone_number":"+49 611 501266","old_slug":null,"official_id":"3292","name":"Peter-Rosegger-Schule","lon":8.3139614,"lat":50.0058337,"homepage_url":null,"federal_state_code":"HE","fax_number":"+49 611 9505990","email_address":null,"city":"Wiesbaden"},{"zip_code":"65203","street":"Hubertusstraße 1-5","school_type_entity":"Grundschule","school_type":"Grundschule","phone_number":"+49 611 7322880","old_slug":null,"official_id":"3293","name":"Pestalozzischule","lon":8.234537,"lat":50.049848,"homepage_url":null,"federal_state_code":"HE","fax_number":"+49 611 73228816","email_address":null,"city":"Wiesbaden"},{"zip_code":"65195","street":"Philippsbergstraße 26-28","school_type_entity":"Grundschule","school_type":"Grundschule","phone_number":"+49 611 53167111","old_slug":null,"official_id":"3294","name":"Riederbergschule","lon":8.233698,"lat":50.084759,"homepage_url":null,"federal_state_code":"HE","fax_number":"+49 611 53167118","email_address":null,"city":"Wiesbaden"},{"zip_code":"65193","street":"Schumannstraße 18","school_type_entity":"Grundschule","school_type":"Grundschule","phone_number":"+49 611 315490","old_slug":null,"official_id":"3296","name":"Robert-Schumann-Schule","lon":8.249283,"lat":50.090755,"homepage_url":null,"federal_state_code":"HE","fax_number":"+49 611 315949","email_address":null,"city":"Wiesbaden"},{"zip_code":"65187","street":"Raabestraße 2","school_type_entity":"Hauptschule","school_type":"Hauptschule","phone_number":"+49 611 312224","old_slug":"65187-wolfram-von-eschenbach-schule","official_id":"3297","name":"Wolfram-von-Eschenbach-Schule","lon":8.231261,"lat":50.070676,"homepage_url":"http://www.wiesbaden.de/datenbanken/schulen/schulen/hauptschulen/Wolfram-von-Eschenbach-Schule.php","federal_state_code":"HE","fax_number":"+49 611 313992","email_address":"eschenbach-schule@t-online.de","city":"Wiesbaden"},{"zip_code":"36304","street":"Volkmarstraße 6","school_type_entity":"Grundschule","school_type":"Grundschule","phone_number":"+49 6631 2505","old_slug":"36304-stadtschule-alsfeld","official_id":"3298","name":"Stadtschule Alsfeld","lon":9.270913,"lat":50.748738,"homepage_url":"http://www.stadtschule-alsfeld.de","federal_state_code":"HE","fax_number":"+49 6631 72357","email_address":"webmaster@stadtschule-alsfeld.de","city":"Alsfeld"},{"zip_code":"36304","street":"Landgraf-Hermann-Str. 20","school_type_entity":"Grundschule","school_type":"Grundschule mit Förderstufe","phone_number":"+49 6631 2229","old_slug":null,"official_id":"3300","name":"Gerhart-Hauptmann-Schule Alsfeld","lon":9.272856,"lat":50.754529,"homepage_url":null,"federal_state_code":"HE","fax_number":"+49 6631 800036","email_address":null,"city":"Alsfeld"},{"zip_code":"36318","street":"Sudetenstraße 3a","school_type_entity":"Grundschule","school_type":"Grundschule","phone_number":"+49 6638 369","old_slug":null,"official_id":"3301","name":"Cornelia-Funke-Schule","lon":9.322278,"lat":50.700264,"homepage_url":null,"federal_state_code":"HE","fax_number":"+49 6638 1604","email_address":null,"city":"Schwalmtal"},{"zip_code":"36323","street":"Schulstraße 6","school_type_entity":"Grundschule","school_type":"Grundschule","phone_number":"+49 6646 8211","old_slug":null,"official_id":"3304","name":"Astrid-Lindgren-Schule","lon":9.462313,"lat":50.740025,"homepage_url":null,"federal_state_code":"HE","fax_number":"+49 6646 919768","email_address":null,"city":"Grebenau"},{"zip_code":"36325","street":"Alter Weg 6","school_type_entity":"Grundschule","school_type":"Grundschule","phone_number":"+49 6637 481","old_slug":null,"official_id":"3305","name":"Mittelpunktschule Feldatal","lon":9.169518,"lat":50.648449,"homepage_url":null,"federal_state_code":"HE","fax_number":"+49 6637 919016","email_address":null,"city":"Feldatal"},{"zip_code":"36320","street":"Schulstraße 5","school_type_entity":"Grundschule","school_type":"Grundschule","phone_number":"+49 6635 305","old_slug":null,"official_id":"3306","name":"Grundschule Kirtorf","lon":9.102908,"lat":50.770234,"homepage_url":null,"federal_state_code":"HE","fax_number":"+49 6635 919013","email_address":null,"city":"Kirtorf"},{"zip_code":"35329","street":"Lindenweg 1","school_type_entity":"Grundschule","school_type":"Grundschule","phone_number":"+49 6634 919341","old_slug":null,"official_id":"3309","name":"Pestalozzischule Gemünden","lon":9.051196,"lat":50.689434,"homepage_url":null,"federal_state_code":"HE","fax_number":"+49 6634 919342","email_address":null,"city":"Gemünden (Felda)"},{"zip_code":"35325","street":"Schillerstraße 60","school_type_entity":"Grundschule","school_type":"Grundschule","phone_number":"+49 6400 5415","old_slug":null,"official_id":"3311","name":"Grundschule Oberes Ohmtal","lon":9.10361,"lat":50.613648,"homepage_url":null,"federal_state_code":"HE","fax_number":"+49 6400 5679","email_address":null,"city":"Mücke"},{"zip_code":"36329","street":"Am Berg 3","school_type_entity":"Grundschule","school_type":"Grundschule","phone_number":"+49 6636 919010","old_slug":null,"official_id":"3312","name":"Mittelpunktschule Antrifttal","lon":9.223327,"lat":50.718523,"homepage_url":null,"federal_state_code":"HE","fax_number":"+49 6636 919011","email_address":null,"city":"Romrod"},{"zip_code":"36326","street":"Pfarrgasse 3","school_type_entity":"Grundschule","school_type":"Grundschule","phone_number":"+49 6631 3266","old_slug":null,"official_id":"3313","name":"Grundschule Katzenberg","lon":9.185212,"lat":50.795247,"homepage_url":null,"federal_state_code":"HE","fax_number":"+49 6631 706406","email_address":null,"city":"Antrifttal"},{"zip_code":"68623","street":"Balthasar-Neumann-Straße 14","school_type_entity":"Grundschule","school_type":"Grundschule","phone_number":"+49 6241 80012","old_slug":null,"official_id":"3316","name":"Nibelungenschule","lon":8.415338,"lat":49.661385,"homepage_url":null,"federal_state_code":"HE","fax_number":"+49 6241 985534","email_address":null,"city":"Lampertheim"},{"zip_code":"68623","street":"Balthasar-Neumann-Straße 14","school_type_entity":"Hauptschule","school_type":"Hauptschule","phone_number":"+49 6241 80012","old_slug":null,"official_id":"3316","name":"Nibelungenschule","lon":8.415338,"lat":49.661385,"homepage_url":null,"federal_state_code":"HE","fax_number":"+49 6241 985534","email_address":null,"city":"Lampertheim"},{"zip_code":"64646","street":"Schulstraße 26","school_type_entity":"Grundschule","school_type":"Grundschule","phone_number":"+49 6252 913329","old_slug":"64646-eichendorff-schule","official_id":"3318","name":"Eichendorff-Schule","lon":8.644375,"lat":49.640763888889,"homepage_url":"http://eichendorffschule-kirschhausen.de/","federal_state_code":"HE","fax_number":"+49 6252 913339","email_address":"eichendorff-schule@t-online.de","city":"Heppenheim (Bergstraße)"},{"zip_code":"68623","street":"Kaiserstraße 28","school_type_entity":"Grundschule","school_type":"Grundschule","phone_number":"+49 6206 910686","old_slug":null,"official_id":"3321","name":"Schillerschule","lon":8.469767,"lat":49.596061,"homepage_url":null,"federal_state_code":"HE","fax_number":"+49 6206 910687","email_address":null,"city":"Lampertheim"},{"zip_code":"68623","street":"Jakobstraße 51","school_type_entity":"Grundschule","school_type":"Grundschule","phone_number":"+49 6206 3828","old_slug":null,"official_id":"3322","name":"Goetheschule","lon":8.465529,"lat":49.600629,"homepage_url":null,"federal_state_code":"HE","fax_number":"+49 6206 12226","email_address":null,"city":"Lampertheim"},{"zip_code":"68623","street":"Am Sportfeld 9","school_type_entity":"Grundschule","school_type":"Grundschule","phone_number":"+49 6206 57088","old_slug":null,"official_id":"3323","name":"Pestalozzischule","lon":8.493072,"lat":49.585077,"homepage_url":null,"federal_state_code":"HE","fax_number":"+49 6206 57089","email_address":null,"city":"Lampertheim"},{"zip_code":"68623","street":"Lampertheimer Straße 4","school_type_entity":"Grundschule","school_type":"Grundschule","phone_number":"+49 6256 444","old_slug":null,"official_id":"3324","name":"Seehofschule","lon":8.586519,"lat":49.598208,"homepage_url":null,"federal_state_code":"HE","fax_number":"+49 6256 859442","email_address":null,"city":"Lampertheim"},{"zip_code":"64678","street":"Almenweg 22","school_type_entity":"Grundschule","school_type":"Grundschule","phone_number":"+49 6255 2519","old_slug":null,"official_id":"3325","name":"Carl-Orff-Schule","lon":8.774838,"lat":49.689076,"homepage_url":null,"federal_state_code":"HE","fax_number":"+49 6255 952551","email_address":null,"city":"Lindenfels"},{"zip_code":"64653","street":"Kiefernstraße 2","school_type_entity":"Hauptschule","school_type":"Hauptschule","phone_number":"+49 6251 582680","old_slug":"64653-werner-von-siemens-schule","official_id":"3326","name":"Werner-von-Siemens-Schule","lon":8.563871,"lat":49.64308,"homepage_url":"http://www.siemens-schule-lorsch.de","federal_state_code":"HE","fax_number":"+49 6251 5826822","email_address":"werner-von-siemens@lorsch.schule.hessen.de","city":"Lorsch"},{"zip_code":"64653","street":"Kiefernstraße 2","school_type_entity":"Realschule","school_type":"Realschule","phone_number":"+49 6251 582680","old_slug":"64653-werner-von-siemens-schule","official_id":"3326","name":"Werner-von-Siemens-Schule","lon":8.563871,"lat":49.64308,"homepage_url":"http://www.siemens-schule-lorsch.de","federal_state_code":"HE","fax_number":"+49 6251 5826822","email_address":"werner-von-siemens@lorsch.schule.hessen.de","city":"Lorsch"},{"zip_code":"69509","street":"Kirchgasse 25","school_type_entity":"Grundschule","school_type":"Grundschule","phone_number":"+49 6209 4120","old_slug":null,"official_id":"3331","name":"Schlosshofschule","lon":8.734041,"lat":49.599099,"homepage_url":null,"federal_state_code":"HE","fax_number":"+49 6209 796468","email_address":null,"city":"Mörlenbach"},{"zip_code":"69239","street":"Hopfengartenweg 7","school_type_entity":"Grundschule","school_type":"Grundschule","phone_number":"+49 6229 312","old_slug":"69239-freiherr-vom-stein-schule","official_id":"3332","name":"Freiherr-vom-Stein-Schule","lon":8.845858,"lat":49.401473,"homepage_url":"http://www.schule-neckarsteinach.de","federal_state_code":"HE","fax_number":"+49 6229 960308","email_address":"schule.neckarsteinach@t-online.de","city":"Neckarsteinach"},{"zip_code":"69239","street":"Hopfengartenweg 7","school_type_entity":"Hauptschule","school_type":"Hauptschule","phone_number":"+49 6229 312","old_slug":"69239-freiherr-vom-stein-schule","official_id":"3332","name":"Freiherr-vom-Stein-Schule","lon":8.845858,"lat":49.401473,"homepage_url":"http://www.schule-neckarsteinach.de","federal_state_code":"HE","fax_number":"+49 6229 960308","email_address":"schule.neckarsteinach@t-online.de","city":"Neckarsteinach"},{"zip_code":"69239","street":"Hopfengartenweg 7","school_type_entity":"Realschule","school_type":"Realschule","phone_number":"+49 6229 312","old_slug":"69239-freiherr-vom-stein-schule","official_id":"3332","name":"Freiherr-vom-Stein-Schule","lon":8.845858,"lat":49.401473,"homepage_url":"http://www.schule-neckarsteinach.de","federal_state_code":"HE","fax_number":"+49 6229 960308","email_address":"schule.neckarsteinach@t-online.de","city":"Neckarsteinach"},{"zip_code":"69488","street":"Liebersbacher Straße 125","school_type_entity":"Grundschule","school_type":"Grundschule","phone_number":"+49 6201 32547","old_slug":null,"official_id":"3333","name":"Grundschule Nieder-Liebersbach","lon":8.702539,"lat":49.584452,"homepage_url":null,"federal_state_code":"HE","fax_number":"+49 6201 32547","email_address":null,"city":"Birkenau"},{"zip_code":"68647","street":"Wormser Straße 8","school_type_entity":"Grundschule","school_type":"Grundschule","phone_number":"+49 6245 3620","old_slug":null,"official_id":"3334","name":"Steinerwaldschule","lon":8.388218,"lat":49.682112,"homepage_url":null,"federal_state_code":"HE","fax_number":"+49 6245 290384","email_address":null,"city":"Biblis"},{"zip_code":"64686","street":"Knodener Straße 1","school_type_entity":"Grundschule","school_type":"Grundschule","phone_number":"+49 6254 581","old_slug":"64686-felsenmeerschule","official_id":"3338","name":"Felsenmeerschule","lon":8.695843,"lat":49.711663,"homepage_url":"http://www.felsenmeerschule.info","federal_state_code":"HE","fax_number":"+49 6254 959959","email_address":"felsenmeerschule-reichenbach@t-online.de","city":"Lautertal (Odenwald)"},{"zip_code":"64668","street":"Brunnengasse 41","school_type_entity":"Hauptschule","school_type":"Hauptschule","phone_number":"+49 6253 7408","old_slug":"64668-dietrich-bonhoeffer-schule","official_id":"3340","name":"Dietrich-Bonhoeffer-Schule","lon":8.763917,"lat":49.620446,"homepage_url":"http://www.dbs.weschnitztal.de","federal_state_code":"HE","fax_number":"+49 6253 6091","email_address":"verwaltung.dbs@web.de","city":"Rimbach"},{"zip_code":"64668","street":"Brunnengasse 41","school_type_entity":"Realschule","school_type":"Realschule","phone_number":"+49 6253 7408","old_slug":"64668-dietrich-bonhoeffer-schule","official_id":"3340","name":"Dietrich-Bonhoeffer-Schule","lon":8.763917,"lat":49.620446,"homepage_url":"http://www.dbs.weschnitztal.de","federal_state_code":"HE","fax_number":"+49 6253 6091","email_address":"verwaltung.dbs@web.de","city":"Rimbach"},{"zip_code":"64668","street":"Brunnengasse 41","school_type_entity":"Grundschule","school_type":"Grundschule","phone_number":"+49 6253 9899674","old_slug":"64668-dietrich-bonhoeffer-schule","official_id":"3341","name":"Brüder Grimm Schule","lon":8.763917,"lat":49.620446,"homepage_url":"http://www.dbs.weschnitztal.de","federal_state_code":"HE","fax_number":"+49 6253 9899675","email_address":"verwaltung.dbs@web.de","city":"Rimbach"},{"zip_code":"69517","street":"Hauptstraße 381","school_type_entity":"Grundschule","school_type":"Grundschule","phone_number":"+49 6201 21665","old_slug":null,"official_id":"3344","name":"Daumbergschule","lon":8.750869,"lat":49.527099,"homepage_url":null,"federal_state_code":"HE","fax_number":"+49 6201 293312","email_address":null,"city":"Gorxheimertal"},{"zip_code":"69518","street":"Hauptstraße 82","school_type_entity":"Grundschule","school_type":"Grundschule","phone_number":"+49 6207 6640","old_slug":null,"official_id":"3345","name":"Steinachtal-Grundschule","lon":8.786868,"lat":49.527772,"homepage_url":null,"federal_state_code":"HE","fax_number":"+49 6207 943706","email_address":null,"city":"Abtsteinach"},{"zip_code":"69483","street":"Kirchstraße 14","school_type_entity":"Grundschule","school_type":"Grundschule","phone_number":"+49 6207 2110","old_slug":null,"official_id":"3347","name":"Grundschule Schimmeldewog","lon":8.866193,"lat":49.527569,"homepage_url":null,"federal_state_code":"HE","fax_number":"+49 6207 9434088","email_address":null,"city":"Wald-Michelbach"},{"zip_code":"68519","street":"Lampertheimer Straße 2","school_type_entity":"Grundschule","school_type":"Grundschule","phone_number":"+49 6204 3333","old_slug":null,"official_id":"3348","name":"Schillerschule","lon":8.575624,"lat":49.53786,"homepage_url":null,"federal_state_code":"HE","fax_number":"+49 6204 602004","email_address":null,"city":"Viernheim"},{"zip_code":"68519","street":"Saarlandstraße 2-4","school_type_entity":"Grundschule","school_type":"Grundschule","phone_number":"+49 6204 96110","old_slug":null,"official_id":"3349","name":"Friedrich-Fröbel-Schule","lon":8.562028,"lat":49.536283,"homepage_url":null,"federal_state_code":"HE","fax_number":"+49 6204 961118","email_address":null,"city":"Viernheim"},{"zip_code":"68519","street":"Saarlandstraße 2-4","school_type_entity":"Hauptschule","school_type":"Hauptschule","phone_number":"+49 6204 96110","old_slug":null,"official_id":"3349","name":"Friedrich-Fröbel-Schule","lon":8.562028,"lat":49.536283,"homepage_url":null,"federal_state_code":"HE","fax_number":"+49 6204 961118","email_address":null,"city":"Viernheim"},{"zip_code":"68519","street":"Saarlandstraße 2-4","school_type_entity":"Realschule","school_type":"Realschule","phone_number":"+49 6204 96110","old_slug":null,"official_id":"3349","name":"Friedrich-Fröbel-Schule","lon":8.562028,"lat":49.536283,"homepage_url":null,"federal_state_code":"HE","fax_number":"+49 6204 961118","email_address":null,"city":"Viernheim"},{"zip_code":"68519","street":"Birkenstraße 3","school_type_entity":"Grundschule","school_type":"Grundschule","phone_number":"+49 6204 3481","old_slug":null,"official_id":"3350","name":"Nibelungenschule","lon":8.569886,"lat":49.544212,"homepage_url":null,"federal_state_code":"HE","fax_number":"+49 6204 701818","email_address":null,"city":"Viernheim"},{"zip_code":"68519","street":"Schulstraße 10","school_type_entity":"Grundschule","school_type":"Grundschule","phone_number":"+49 6204 3347","old_slug":null,"official_id":"3351","name":"Goetheschule","lon":8.580344,"lat":49.537444,"homepage_url":null,"federal_state_code":"HE","fax_number":"+49 6204 602347","email_address":null,"city":"Viernheim"},{"zip_code":"64689","street":"Friedhofstraße 19","school_type_entity":"Grundschule","school_type":"Grundschule","phone_number":"+49 6207 3154","old_slug":null,"official_id":"3352","name":"Ulfenbachtal-Schule","lon":8.860874,"lat":49.612528,"homepage_url":null,"federal_state_code":"HE","fax_number":"+49 6207 921352","email_address":null,"city":"Grasellenbach"},{"zip_code":"69483","street":"Ringstraße 2","school_type_entity":"Hauptschule","school_type":"Hauptschule","phone_number":"+49 6207 3425","old_slug":null,"official_id":"3353","name":"Eugen-Bachmann-Schule","lon":8.831361,"lat":49.56642,"homepage_url":null,"federal_state_code":"HE","fax_number":"+49 6207 3530","email_address":null,"city":"Wald-Michelbach"},{"zip_code":"69483","street":"Ringstraße 2","school_type_entity":"Realschule","school_type":"Realschule","phone_number":"+49 6207 3425","old_slug":null,"official_id":"3353","name":"Eugen-Bachmann-Schule","lon":8.831361,"lat":49.56642,"homepage_url":null,"federal_state_code":"HE","fax_number":"+49 6207 3530","email_address":null,"city":"Wald-Michelbach"},{"zip_code":"69483","street":"Ludwigstraße 38","school_type_entity":"Grundschule","school_type":"Grundschule","phone_number":"+49 6207 2625","old_slug":null,"official_id":"3354","name":"Adam-Karrillon-Schule","lon":8.823683,"lat":49.573716,"homepage_url":null,"federal_state_code":"HE","fax_number":"+49 6207 5055","email_address":null,"city":"Wald-Michelbach"},{"zip_code":"64668","street":"Schulstraße 1","school_type_entity":"Grundschule","school_type":"Grundschule","phone_number":"+49 6253 6590","old_slug":null,"official_id":"3357","name":"Waldhufenschule","lon":8.767806,"lat":49.601563,"homepage_url":null,"federal_state_code":"HE","fax_number":"+49 6253 239315","email_address":null,"city":"Rimbach"},{"zip_code":"64673","street":"Schulstraße 4","school_type_entity":"Grundschule","school_type":"Grundschule","phone_number":"+49 6251 788280","old_slug":null,"official_id":"3358","name":"Melibokusschule","lon":8.611354,"lat":49.722521,"homepage_url":null,"federal_state_code":"HE","fax_number":"+49 6251 789648","email_address":null,"city":"Zwingenberg"},{"zip_code":"64625","street":"Heidelberger Straße 35","school_type_entity":"Grundschule","school_type":"Grundschule","phone_number":"+49 6251 39315","old_slug":null,"official_id":"3362","name":"Hemsbergschule","lon":8.622473,"lat":49.675423,"homepage_url":null,"federal_state_code":"HE","fax_number":"+49 6251 38604","email_address":null,"city":"Bensheim"},{"zip_code":"64625","street":"Weserstraße 2","school_type_entity":"Grundschule","school_type":"Grundschule","phone_number":"+49 6251 175670","old_slug":null,"official_id":"3363","name":"Schillerschule","lon":8.618953,"lat":49.697396,"homepage_url":null,"federal_state_code":"HE","fax_number":"+49 6251 1756714","email_address":null,"city":"Bensheim"},{"zip_code":"64625","street":"Weserstraße 2","school_type_entity":"Hauptschule","school_type":"Hauptschule","phone_number":"+49 6251 175670","old_slug":null,"official_id":"3363","name":"Schillerschule","lon":8.618953,"lat":49.697396,"homepage_url":null,"federal_state_code":"HE","fax_number":"+49 6251 1756714","email_address":null,"city":"Bensheim"},{"zip_code":"64625","street":"Weserstraße 2","school_type_entity":"Realschule","school_type":"Realschule","phone_number":"+49 6251 175670","old_slug":null,"official_id":"3363","name":"Schillerschule","lon":8.618953,"lat":49.697396,"homepage_url":null,"federal_state_code":"HE","fax_number":"+49 6251 1756714","email_address":null,"city":"Bensheim"},{"zip_code":"64625","street":"Hohenweg 33","school_type_entity":"Grundschule","school_type":"Grundschule","phone_number":"+49 6251 69566","old_slug":null,"official_id":"3364","name":"Joseph-Heckler-Schule","lon":8.611209,"lat":49.678614,"homepage_url":null,"federal_state_code":"HE","fax_number":"+49 6251 580459","email_address":null,"city":"Bensheim"},{"zip_code":"64625","street":"Schlossstraße 15","school_type_entity":"Grundschule","school_type":"Grundschule","phone_number":"+49 6251 71208","old_slug":"64625-schlossbergschule","official_id":"3366","name":"Schlossbergschule","lon":8.622391,"lat":49.703436,"homepage_url":"http://www.schlossbergschule-auerbach.de","federal_state_code":"HE","fax_number":"+49 6251 703734","email_address":"schlossbergschule@kreis-bergstrasse.de","city":"Bensheim"},{"zip_code":"68647","street":"Freiherr-vom-Stein-Straße 1","school_type_entity":"Grundschule","school_type":"Grundschule","phone_number":"+49 6245 8741","old_slug":"68647-grund-und-hauptschule","official_id":"3369","name":"Schule in den Weschnitzauen","lon":8.458273,"lat":49.691233,"homepage_url":"http://www.schulserver.hessen.de/biblis/ghs/","federal_state_code":"HE","fax_number":"+49 6245 997551","email_address":"verwaltung@ghsbiblis.de","city":"Biblis"},{"zip_code":"68647","street":"Freiherr-vom-Stein-Straße 1","school_type_entity":"Hauptschule","school_type":"Hauptschule","phone_number":"+49 6245 8741","old_slug":"68647-grund-und-hauptschule","official_id":"3369","name":"Schule in den Weschnitzauen","lon":8.458273,"lat":49.691233,"homepage_url":"http://www.schulserver.hessen.de/biblis/ghs/","federal_state_code":"HE","fax_number":"+49 6245 997551","email_address":"verwaltung@ghsbiblis.de","city":"Biblis"},{"zip_code":"69488","street":"Ludwigstraße 7","school_type_entity":"Grundschule","school_type":"Grundschule","phone_number":"+49 6201 31745","old_slug":null,"official_id":"3370","name":"Sonnenuhrenschule","lon":8.701182,"lat":49.560896,"homepage_url":null,"federal_state_code":"HE","fax_number":"+49 6201 390032","email_address":null,"city":"Birkenau"},{"zip_code":"68642","street":"St.-Josef-Straße 16","school_type_entity":"Grundschule","school_type":"Grundschule","phone_number":"+49 6245 8267","old_slug":"68642-astrid-lindgren-schule-bobstadt","official_id":"3371","name":"Astrid-Lindgren-Schule","lon":8.443099,"lat":49.664904,"homepage_url":"http://www.als-bobstadt.de","federal_state_code":"HE","fax_number":"+49 6245 997274","email_address":"astrid-lindgren-schule@kreis-bergstrasse.de","city":"Bürstadt"},{"zip_code":"68642","street":"Boxheimerhofstraße 15","school_type_entity":"Grundschule","school_type":"Grundschule","phone_number":"+49 6206 707873","old_slug":null,"official_id":"3374","name":"Schillerschule","lon":8.470105,"lat":49.643047,"homepage_url":null,"federal_state_code":"HE","fax_number":"+49 6206 707863","email_address":null,"city":"Bürstadt"},{"zip_code":"64683","street":"Schulstraße 8","school_type_entity":"Grundschule","school_type":"Grundschule","phone_number":"+49 6251 5060","old_slug":null,"official_id":"3375","name":"Schule an der Weschnitz","lon":8.545892,"lat":49.672717,"homepage_url":null,"federal_state_code":"HE","fax_number":"+49 6251 586193","email_address":null,"city":"Einhausen"},{"zip_code":"64658","street":"Mittershäuser Weg 8","school_type_entity":"Grundschule","school_type":"Grundschule","phone_number":"+49 6253 4578","old_slug":null,"official_id":"3378","name":"Schule am Katzenberg","lon":8.743739,"lat":49.66513,"homepage_url":null,"federal_state_code":"HE","fax_number":"+49 6253 930179","email_address":null,"city":"Fürth"},{"zip_code":"64625","street":"Im Ebertswinkel 8","school_type_entity":"Grundschule","school_type":"Grundschule","phone_number":"+49 6251 72149","old_slug":null,"official_id":"3379","name":"Carl-Orff-Schule","lon":8.569356,"lat":49.704781,"homepage_url":null,"federal_state_code":"HE","fax_number":"+49 6251 703456","email_address":null,"city":"Bensheim"},{"zip_code":"64686","street":"Heidenbergstraße 18","school_type_entity":"Grundschule","school_type":"Grundschule","phone_number":"+49 6254 942250","old_slug":null,"official_id":"3380","name":"Mittelpunktschule Gadernheim","lon":8.737859,"lat":49.713534,"homepage_url":null,"federal_state_code":"HE","fax_number":"+49 6254 942251","email_address":null,"city":"Lautertal (Odenwald)"},{"zip_code":"64686","street":"Heidenbergstraße 18","school_type_entity":"Hauptschule","school_type":"Hauptschule","phone_number":"+49 6254 942250","old_slug":null,"official_id":"3380","name":"Mittelpunktschule Gadernheim","lon":8.737859,"lat":49.713534,"homepage_url":null,"federal_state_code":"HE","fax_number":"+49 6254 942251","email_address":null,"city":"Lautertal (Odenwald)"},{"zip_code":"64686","street":"Heidenbergstraße 18","school_type_entity":"Realschule","school_type":"Realschule","phone_number":"+49 6254 942250","old_slug":null,"official_id":"3380","name":"Mittelpunktschule Gadernheim","lon":8.737859,"lat":49.713534,"homepage_url":null,"federal_state_code":"HE","fax_number":"+49 6254 942251","email_address":null,"city":"Lautertal (Odenwald)"},{"zip_code":"64625","street":"Hambacher Straße 23","school_type_entity":"Grundschule","school_type":"Grundschule","phone_number":"+49 6251 39307","old_slug":null,"official_id":"3384","name":"Märkerwaldschule","lon":8.67367,"lat":49.681568,"homepage_url":null,"federal_state_code":"HE","fax_number":"+49 6251 570284","email_address":null,"city":"Bensheim"},{"zip_code":"68649","street":"Beinstraße 22","school_type_entity":"Grundschule","school_type":"Grundschule","phone_number":"+49 6245 8846","old_slug":null,"official_id":"3385","name":"Lindenhofschule","lon":8.469636,"lat":49.716077,"homepage_url":null,"federal_state_code":"HE","fax_number":"+49 6245 297471","email_address":null,"city":"Groß-Rohrheim"},{"zip_code":"64646","street":"Hambacher Tal 122","school_type_entity":"Grundschule","school_type":"Grundschule","phone_number":"+49 6252 75910","old_slug":"64646-christophorus-schule","official_id":"3386","name":"Christophorus-Schule","lon":8.650677,"lat":49.655333,"homepage_url":"http://www.heppenheim.de/Schulen.49.0.html","federal_state_code":"HE","fax_number":"+49 6252 670840","email_address":"christophorus-schule-hp@t-online.de","city":"Heppenheim (Bergstraße)"},{"zip_code":"64646","street":"Schulgasse 1","school_type_entity":"Grundschule","school_type":"Grundschule","phone_number":"+49 6252 4353","old_slug":null,"official_id":"3388","name":"Schloßschule","lon":8.643905,"lat":49.641619,"homepage_url":null,"federal_state_code":"HE","fax_number":"+49 6252 126384","email_address":null,"city":"Heppenheim (Bergstraße)"},{"zip_code":"64646","street":"Mainzer Straße 8","school_type_entity":"Grundschule","school_type":"Grundschule","phone_number":"+49 6252 71795","old_slug":null,"official_id":"3389","name":"Konrad-Adenauer-Schule","lon":8.627197,"lat":49.634782,"homepage_url":null,"federal_state_code":"HE","fax_number":"+49 6252 982038","email_address":null,"city":"Heppenheim (Bergstraße)"},{"zip_code":"64646","street":"Nibelungenstraße 12","school_type_entity":"Grundschule","school_type":"Grundschule","phone_number":"+49 6252 4352","old_slug":"64646-nibelungenschule","official_id":"3390","name":"Nibelungenschule","lon":8.644375,"lat":49.640763888889,"homepage_url":"http://www.nibelungenschule.de","federal_state_code":"HE","fax_number":"+49 6252 788702","email_address":"nibelungenschule-heppenheim@t-online.de","city":"Heppenheim (Bergstraße)"},{"zip_code":"69434","street":"Brentanostraße 2","school_type_entity":"Grundschule","school_type":"Grundschule","phone_number":"+49 6272 590","old_slug":null,"official_id":"3391","name":"Neckartalschule Hirschhorn","lon":8.903406,"lat":49.448619,"homepage_url":null,"federal_state_code":"HE","fax_number":"+49 6272 929604","email_address":null,"city":"Hirschhorn (Necker)"},{"zip_code":"35719","street":"Winkelstraße 14","school_type_entity":"Grundschule","school_type":"Grundschule","phone_number":"+49 6464 219","old_slug":null,"official_id":"3393","name":"Gansbachtalschule Lixfeld","lon":8.422441,"lat":50.804589,"homepage_url":null,"federal_state_code":"HE","fax_number":"+49 6464 912683","email_address":null,"city":"Angelburg"},{"zip_code":"35080","street":"Bilzenweg 2","school_type_entity":"Grundschule","school_type":"Grundschule","phone_number":"+49 6464 5315","old_slug":null,"official_id":"3397","name":"Grundschule am Lindenbaum Bottenhorn","lon":8.478578,"lat":50.795157,"homepage_url":null,"federal_state_code":"HE","fax_number":"+49 6464 911436","email_address":null,"city":"Bad Endbach"},{"zip_code":"35216","street":"Obere Haide 15","school_type_entity":"Grundschule","school_type":"Grundschule","phone_number":"+49 6461 89162","old_slug":null,"official_id":"3399","name":"Endenbergschule Breidenstein","lon":8.464337,"lat":50.915063,"homepage_url":null,"federal_state_code":"HE","fax_number":"+49 6461 983678","email_address":null,"city":"Biedenkopf"},{"zip_code":"35232","street":"Vor der Hardt 2a","school_type_entity":"Grundschule","school_type":"Grundschule","phone_number":"+49 6466 91093","old_slug":null,"official_id":"3400","name":"Mittelpunktschule Buchenau","lon":8.601392,"lat":50.876568,"homepage_url":null,"federal_state_code":"HE","fax_number":"+49 6466 91094","email_address":null,"city":"Dautphetal"},{"zip_code":"35080","street":"Sebastian-Kneipp-Straße 4","school_type_entity":"Grundschule","school_type":"Grundschule","phone_number":"+49 2776 913731","old_slug":null,"official_id":"3401","name":"Berglandschule Bad Endbach","lon":8.490771,"lat":50.75262,"homepage_url":null,"federal_state_code":"HE","fax_number":"+49 2776 913733","email_address":null,"city":"Bad Endbach"},{"zip_code":"35232","street":"Lahnstraße 11","school_type_entity":"Grundschule","school_type":"Grundschule","phone_number":"+49 6466 91450","old_slug":null,"official_id":"3403","name":"Mittelpunktschule Dautphetal","lon":8.55,"lat":50.85833,"homepage_url":null,"federal_state_code":"HE","fax_number":"+49 6466 914530","email_address":null,"city":"Dautphetal"},{"zip_code":"35232","street":"Lahnstraße 11","school_type_entity":"Hauptschule","school_type":"Hauptschule mit Förderstufe","phone_number":"+49 6466 91450","old_slug":null,"official_id":"3403","name":"Mittelpunktschule Dautphetal","lon":8.55,"lat":50.85833,"homepage_url":null,"federal_state_code":"HE","fax_number":"+49 6466 914530","email_address":null,"city":"Dautphetal"},{"zip_code":"35232","street":"Lahnstraße 11","school_type_entity":"Realschule","school_type":"Realschule","phone_number":"+49 6466 91450","old_slug":null,"official_id":"3403","name":"Mittelpunktschule Dautphetal","lon":8.55,"lat":50.85833,"homepage_url":null,"federal_state_code":"HE","fax_number":"+49 6466 914530","email_address":null,"city":"Dautphetal"},{"zip_code":"35719","street":"Schulstraße 12","school_type_entity":"Grundschule","school_type":"Grundschule","phone_number":"+49 6464 5272","old_slug":null,"official_id":"3405","name":"Grundschule Gönnern","lon":8.43333,"lat":50.81667,"homepage_url":null,"federal_state_code":"HE","fax_number":"+49 6464 911168","email_address":null,"city":"Angelburg"},{"zip_code":"35080","street":"Am Loh 12","school_type_entity":"Grundschule","school_type":"Grundschule","phone_number":"+49 2776 204","old_slug":"35080-mittelpunktschule-hartenrod","official_id":"3407","name":"Mittelpunktschule Hartenrod","lon":8.46588,"lat":50.758778,"homepage_url":"http://www.schulserver.hessen.de/bad-endbach/mps-hartenrod","federal_state_code":"HE","fax_number":"+49 2776 911310","email_address":"mps-hartenrod@t-online.de","city":"Bad Endbach"},{"zip_code":"35080","street":"Am Loh 12","school_type_entity":"Hauptschule","school_type":"Hauptschule mit Förderstufe","phone_number":"+49 2776 204","old_slug":"35080-mittelpunktschule-hartenrod","official_id":"3407","name":"Mittelpunktschule Hartenrod","lon":8.46588,"lat":50.758778,"homepage_url":"http://www.schulserver.hessen.de/bad-endbach/mps-hartenrod","federal_state_code":"HE","fax_number":"+49 2776 911310","email_address":"mps-hartenrod@t-online.de","city":"Bad Endbach"},{"zip_code":"35080","street":"Am Loh 12","school_type_entity":"Realschule","school_type":"Realschule","phone_number":"+49 2776 204","old_slug":"35080-mittelpunktschule-hartenrod","official_id":"3407","name":"Mittelpunktschule Hartenrod","lon":8.46588,"lat":50.758778,"homepage_url":"http://www.schulserver.hessen.de/bad-endbach/mps-hartenrod","federal_state_code":"HE","fax_number":"+49 2776 911310","email_address":"mps-hartenrod@t-online.de","city":"Bad Endbach"},{"zip_code":"35232","street":"Schulstraße 4-6","school_type_entity":"Grundschule","school_type":"Grundschule","phone_number":"+49 6468 338","old_slug":null,"official_id":"3408","name":"Grundschule Holzhausen","lon":8.55,"lat":50.85833,"homepage_url":null,"federal_state_code":"HE","fax_number":"+49 6468 912235","email_address":null,"city":"Dautphetal"},{"zip_code":"35075","street":"Siedlungsstraße 7","school_type_entity":"Grundschule","school_type":"Grundschule","phone_number":"+49 6462 912140","old_slug":null,"official_id":"3409","name":"Grundschule Mornshausen","lon":8.598762,"lat":50.752789,"homepage_url":null,"federal_state_code":"HE","fax_number":"+49 6462 912142","email_address":null,"city":"Gladenbach"},{"zip_code":"35236","street":"Blumenstraße 8","school_type_entity":"Grundschule","school_type":"Grundschule","phone_number":"+49 6465 20986","old_slug":null,"official_id":"3411","name":"Grundschule Oberdieten","lon":8.413253,"lat":50.857055,"homepage_url":null,"federal_state_code":"HE","fax_number":"+49 6465 913289","email_address":null,"city":"Breidenbach"},{"zip_code":"35239","street":"Schulstraße 14","school_type_entity":"Grundschule","school_type":"Grundschule","phone_number":"+49 6464 67024","old_slug":null,"official_id":"3413","name":"Hinterlandschule","lon":8.478559,"lat":50.837409,"homepage_url":null,"federal_state_code":"HE","fax_number":"+49 6464 67027","email_address":null,"city":"Steffenberg"},