[{"zip_code":"37581","street":"Bismarckstr. 17","school_type_entity":"Gymnasium","school_type":"Gymnasium - SEK I -","phone_number":"+49 5382 953680","old_slug":"37581-roswitha-gymnasium","official_id":"68020","name":"Roswitha-Gymnasium Bad Gandersheim","lon":10.032884,"lat":51.868146,"homepage_url":"http://www.roswitha-gymnasium.de/","federal_state_code":"NI","fax_number":null,"email_address":"as@kki.org","city":"Bad Gandersheim"},{"zip_code":"37581","street":"Bismarckstr. 17","school_type_entity":"Gymnasium","school_type":"Gymnasium - SEK II -","phone_number":"+49 5382 953680","old_slug":"37581-roswitha-gymnasium","official_id":"68020","name":"Roswitha-Gymnasium Bad Gandersheim","lon":10.032884,"lat":51.868146,"homepage_url":"http://www.roswitha-gymnasium.de/","federal_state_code":"NI","fax_number":null,"email_address":"as@kki.org","city":"Bad Gandersheim"},{"zip_code":"37581","street":"Stettiner Straße 2","school_type_entity":"FöS Lernen","school_type":"FöS Lernen","phone_number":"+49 5382 1295","old_slug":null,"official_id":"94638","name":"Osterbergschule Förderschule Schwerpunkt Lernen","lon":10.037292,"lat":51.868336,"homepage_url":null,"federal_state_code":"NI","fax_number":null,"email_address":null,"city":"Bad Gandersheim"},{"zip_code":"29683","street":"Idinger Heide 2","school_type_entity":"FöS Lernen","school_type":"FöS Lernen","phone_number":"+49 5162 981740","old_slug":"29683-schule-am-walde-schule-fuer-lernhilfe-fallingbostel","official_id":"92277","name":"Schule am Walde Förderschule Schwerpunkt Lernen","lon":9.694113,"lat":52.872746,"homepage_url":"http://www.schuleamwalde.de","federal_state_code":"NI","fax_number":"05162/981741","email_address":"foerderschule@schuleamwalde.de","city":"Bad Fallingbostel"},{"zip_code":"29683","street":"Idinger Heide 2","school_type_entity":"Hauptschule","school_type":"Hauptschule","phone_number":"+49 5162 98170","old_slug":"29683-schule-am-walde-schule-fuer-lernhilfe-fallingbostel","official_id":"61414","name":"Lieth Schule Oberschule mit gymn. Angebot","lon":9.694113,"lat":52.872746,"homepage_url":"http://www.schuleamwalde.de","federal_state_code":"NI","fax_number":"05162/981741","email_address":"foerderschule@schuleamwalde.de","city":"Bad Fallingbostel"},{"zip_code":"29683","street":"Idinger Heide 2","school_type_entity":"Realschule","school_type":"Realschule","phone_number":"+49 5162 98170","old_slug":"29683-schule-am-walde-schule-fuer-lernhilfe-fallingbostel","official_id":"61414","name":"Lieth Schule Oberschule mit gymn. Angebot","lon":9.694113,"lat":52.872746,"homepage_url":"http://www.schuleamwalde.de","federal_state_code":"NI","fax_number":"05162/981741","email_address":"foerderschule@schuleamwalde.de","city":"Bad Fallingbostel"},{"zip_code":"29683","street":"Idinger Heide 2","school_type_entity":"Ganztagsschule","school_type":"Ganztagsschule (o. ZB)","phone_number":"+49 5162 98170","old_slug":"29683-schule-am-walde-schule-fuer-lernhilfe-fallingbostel","official_id":"61414","name":"Lieth Schule Oberschule mit gymn. Angebot","lon":9.694113,"lat":52.872746,"homepage_url":"http://www.schuleamwalde.de","federal_state_code":"NI","fax_number":"05162/981741","email_address":"foerderschule@schuleamwalde.de","city":"Bad Fallingbostel"},{"zip_code":"29683","street":"Idinger Heide 2","school_type_entity":"Oberschule","school_type":"Oberschule","phone_number":"+49 5162 98170","old_slug":"29683-schule-am-walde-schule-fuer-lernhilfe-fallingbostel","official_id":"61414","name":"Lieth Schule Oberschule mit gymn. Angebot","lon":9.694113,"lat":52.872746,"homepage_url":"http://www.schuleamwalde.de","federal_state_code":"NI","fax_number":"05162/981741","email_address":"foerderschule@schuleamwalde.de","city":"Bad Fallingbostel"},{"zip_code":"29683","street":"Michelsenstr. 3","school_type_entity":"Schulkindergarten","school_type":"Schulkindergarten","phone_number":"+49 5162 90108","old_slug":null,"official_id":"33583","name":"Hermann-Löns-Schule Grundschule","lon":9.695347,"lat":52.868318,"homepage_url":null,"federal_state_code":"NI","fax_number":null,"email_address":null,"city":"Bad Fallingbostel"},{"zip_code":"29683","street":"Michelsenstr. 3","school_type_entity":"Grundschule","school_type":"Grundschule","phone_number":"+49 5162 90108","old_slug":null,"official_id":"33583","name":"Hermann-Löns-Schule Grundschule","lon":9.695347,"lat":52.868318,"homepage_url":null,"federal_state_code":"NI","fax_number":null,"email_address":null,"city":"Bad Fallingbostel"},{"zip_code":"49152","street":"Wischland 12","school_type_entity":"Grundschule","school_type":"Grundschule","phone_number":"+49 5472 2226","old_slug":null,"official_id":"22330","name":"Grundschule Wehrendorf","lon":8.307083,"lat":52.33037,"homepage_url":null,"federal_state_code":"NI","fax_number":null,"email_address":null,"city":"Bad Essen"},{"zip_code":"49152","street":"Bühenkamp 10","school_type_entity":"Grundschule","school_type":"Grundschule","phone_number":"+49 5472 8158970","old_slug":null,"official_id":"37539","name":"Grundschule Lintorf","lon":8.439022,"lat":52.306395,"homepage_url":null,"federal_state_code":"NI","fax_number":null,"email_address":null,"city":"Bad Essen"},{"zip_code":"49152","street":"Niedersachsenstr. 22","school_type_entity":"Grundschule","school_type":"Grundschule","phone_number":"+49 5472 2263","old_slug":null,"official_id":"37527","name":"Grundschule Bad Essen","lon":8.344247,"lat":52.322269,"homepage_url":null,"federal_state_code":"NI","fax_number":null,"email_address":null,"city":"Bad Essen"},{"zip_code":"29549","street":"Lönsweg 14","school_type_entity":"Grundschule","school_type":"Grundschule","phone_number":"+49 5821 1760","old_slug":null,"official_id":"34927","name":"Waldschule Grundschule","lon":10.595766,"lat":53.083078,"homepage_url":null,"federal_state_code":"NI","fax_number":null,"email_address":null,"city":"Bad Bevensen"},{"zip_code":"29549","street":"Kl. Bünstorfer Str.","school_type_entity":"Kooperative Gesamtschule","school_type":"KGS - Hauptschule -","phone_number":"+49 5821 543101","old_slug":"29549-fritz-reuter-schule-kgs","official_id":"84001","name":"Fritz-Reuter-Schule KGS Bevensen","lon":10.58333,"lat":53.07917,"homepage_url":"http://home.t-online.de/home/KGSBB/","federal_state_code":"NI","fax_number":"05821 543 120","email_address":"kgsbb@t-online.de","city":"Bad Bevensen"},{"zip_code":"29549","street":"Kl. Bünstorfer Str.","school_type_entity":"Kooperative Gesamtschule","school_type":"KGS - Realschule -","phone_number":"+49 5821 543101","old_slug":"29549-fritz-reuter-schule-kgs","official_id":"84001","name":"Fritz-Reuter-Schule KGS Bevensen","lon":10.58333,"lat":53.07917,"homepage_url":"http://home.t-online.de/home/KGSBB/","federal_state_code":"NI","fax_number":"05821 543 120","email_address":"kgsbb@t-online.de","city":"Bad Bevensen"},{"zip_code":"29549","street":"Kl. Bünstorfer Str.","school_type_entity":"Kooperative Gesamtschule","school_type":"KGS - Gymnasium SEK I -","phone_number":"+49 5821 543101","old_slug":"29549-fritz-reuter-schule-kgs","official_id":"84001","name":"Fritz-Reuter-Schule KGS Bevensen","lon":10.58333,"lat":53.07917,"homepage_url":"http://home.t-online.de/home/KGSBB/","federal_state_code":"NI","fax_number":"05821 543 120","email_address":"kgsbb@t-online.de","city":"Bad Bevensen"},{"zip_code":"29549","street":"Kl. Bünstorfer Str.","school_type_entity":"Kooperative Gesamtschule","school_type":"KGS - Gymnasium SEK II - Ganztagsschule (o. ZB)","phone_number":"+49 5821 543101","old_slug":"29549-fritz-reuter-schule-kgs","official_id":"84001","name":"Fritz-Reuter-Schule KGS Bevensen","lon":10.58333,"lat":53.07917,"homepage_url":"http://home.t-online.de/home/KGSBB/","federal_state_code":"NI","fax_number":"05821 543 120","email_address":"kgsbb@t-online.de","city":"Bad Bevensen"},{"zip_code":"29549","street":"Am Bahnhof 4","school_type_entity":"Berufsbildende Schule","school_type":"Berufsbildende Schule(n)","phone_number":"+49 5821 42062","old_slug":null,"official_id":"72187","name":"Berufsfachschule für Ergotherapie - Staatlich anerkannte Ersatzschule -","lon":10.573644,"lat":53.079252,"homepage_url":null,"federal_state_code":"NI","fax_number":null,"email_address":null,"city":"Bad Bevensen"},{"zip_code":"29549","street":"Am Bahnhof 4","school_type_entity":"Berufsbildende Schule","school_type":"Bildungsangebot","phone_number":"+49 5821 42062","old_slug":null,"official_id":"72187","name":"Berufsfachschule für Ergotherapie - Staatlich anerkannte Ersatzschule -","lon":10.573644,"lat":53.079252,"homepage_url":null,"federal_state_code":"NI","fax_number":null,"email_address":null,"city":"Bad Bevensen"},{"zip_code":"48455","street":"Neuer Weg 8 -10","school_type_entity":"Schulkindergarten","school_type":"Schulkindergarten","phone_number":"+49 5924 1221","old_slug":null,"official_id":"36687","name":"Grund- und Hauptschule Gildehaus","lon":7.099995,"lat":52.295612,"homepage_url":null,"federal_state_code":"NI","fax_number":null,"email_address":null,"city":"Bad Bentheim"},{"zip_code":"48455","street":"Neuer Weg 8 -10","school_type_entity":"Grundschule","school_type":"Grundschule","phone_number":"+49 5924 1221","old_slug":null,"official_id":"36687","name":"Grund- und Hauptschule Gildehaus","lon":7.099995,"lat":52.295612,"homepage_url":null,"federal_state_code":"NI","fax_number":null,"email_address":null,"city":"Bad Bentheim"},{"zip_code":"48455","street":"Neuer Weg 8 -10","school_type_entity":"Hauptschule","school_type":"Hauptschule Ganztagsschule","phone_number":"+49 5924 1221","old_slug":null,"official_id":"36687","name":"Grund- und Hauptschule Gildehaus","lon":7.099995,"lat":52.295612,"homepage_url":null,"federal_state_code":"NI","fax_number":null,"email_address":null,"city":"Bad Bentheim"},{"zip_code":"48455","street":"Imstiege 11","school_type_entity":"FöS Emotionale+soziale Entwicklung","school_type":"FöS Emotionale+soziale Entw.","phone_number":"+49 5924 781250","old_slug":null,"official_id":"93531","name":"Eylardus-Schule FöS Schwpt. emot. u. soz. Entw. i.fr.T","lon":7.110611,"lat":52.293952,"homepage_url":null,"federal_state_code":"NI","fax_number":null,"email_address":null,"city":"Bad Bentheim"},{"zip_code":"48455","street":"Hetlage 5","school_type_entity":"Gymnasium","school_type":"Gymnasium - SEK I -","phone_number":"+49 5922 90480","old_slug":"48455-burg-gymnasium-bad-bentheim","official_id":"67301","name":"Burg-Gymnasium","lon":7.161624,"lat":52.307567,"homepage_url":"http://www.bgbonline.de","federal_state_code":"NI","fax_number":"05922-904828","email_address":"info@bgbonline.de","city":"Bad Bentheim"},{"zip_code":"48455","street":"Hetlage 5","school_type_entity":"Gymnasium","school_type":"Gymnasium - SEK II -","phone_number":"+49 5922 90480","old_slug":"48455-burg-gymnasium-bad-bentheim","official_id":"67301","name":"Burg-Gymnasium","lon":7.161624,"lat":52.307567,"homepage_url":"http://www.bgbonline.de","federal_state_code":"NI","fax_number":"05922-904828","email_address":"info@bgbonline.de","city":"Bad Bentheim"},{"zip_code":"26603","street":"Esenser Straße 36","school_type_entity":"Realschule","school_type":"Realschule","phone_number":"+49 4941 67513","old_slug":null,"official_id":"62674","name":"Städt. Realschule Aurich","lon":7.486009,"lat":53.475832,"homepage_url":null,"federal_state_code":"NI","fax_number":null,"email_address":null,"city":"Aurich"},{"zip_code":"27404","street":"Klostergang 4","school_type_entity":"Schulkindergarten","school_type":"Schulkindergarten","phone_number":"+49 4281 2790","old_slug":null,"official_id":"16627","name":"VGS  Klostergang","lon":9.281838,"lat":53.29665,"homepage_url":null,"federal_state_code":"NI","fax_number":null,"email_address":null,"city":"Zeven"},{"zip_code":"27404","street":"Klostergang 4","school_type_entity":"Grundschule","school_type":"Grundschule","phone_number":"+49 4281 2790","old_slug":null,"official_id":"16627","name":"VGS  Klostergang","lon":9.281838,"lat":53.29665,"homepage_url":null,"federal_state_code":"NI","fax_number":null,"email_address":null,"city":"Zeven"},{"zip_code":"27404","street":"Bahnhofstr. 62","school_type_entity":"Gymnasium","school_type":"Gymnasium - SEK I -","phone_number":"+49 4281 9836565","old_slug":null,"official_id":"66850","name":"St.-Viti-Gymnasium","lon":9.276224,"lat":53.283279,"homepage_url":null,"federal_state_code":"NI","fax_number":null,"email_address":null,"city":"Zeven"},{"zip_code":"27404","street":"Bahnhofstr. 62","school_type_entity":"Gymnasium","school_type":"Gymnasium - SEK II -","phone_number":"+49 4281 9836565","old_slug":null,"official_id":"66850","name":"St.-Viti-Gymnasium","lon":9.276224,"lat":53.283279,"homepage_url":null,"federal_state_code":"NI","fax_number":null,"email_address":null,"city":"Zeven"},{"zip_code":"27404","street":"Scheeßeler Str. 3","school_type_entity":"Schulkindergarten","school_type":"Schulkindergarten","phone_number":"+49 4281 2878","old_slug":null,"official_id":"16603","name":"Gosekamp Grundschule","lon":9.282832,"lat":53.28561,"homepage_url":null,"federal_state_code":"NI","fax_number":null,"email_address":null,"city":"Zeven"},{"zip_code":"27404","street":"Scheeßeler Str. 3","school_type_entity":"Grundschule","school_type":"Grundschule","phone_number":"+49 4281 2878","old_slug":null,"official_id":"16603","name":"Gosekamp Grundschule","lon":9.282832,"lat":53.28561,"homepage_url":null,"federal_state_code":"NI","fax_number":null,"email_address":null,"city":"Zeven"},{"zip_code":"27404","street":"Kanalstraße 45","school_type_entity":"Hauptschule","school_type":"Hauptschule","phone_number":"+49 4281 3450","old_slug":null,"official_id":"42985","name":"Carl-Friedrich-Gauß-Oberschule auslaufend ab 01.08.15","lon":9.264687,"lat":53.298906,"homepage_url":null,"federal_state_code":"NI","fax_number":null,"email_address":null,"city":"Zeven"},{"zip_code":"27404","street":"Kanalstraße 45","school_type_entity":"Realschule","school_type":"Realschule","phone_number":"+49 4281 3450","old_slug":null,"official_id":"42985","name":"Carl-Friedrich-Gauß-Oberschule auslaufend ab 01.08.15","lon":9.264687,"lat":53.298906,"homepage_url":null,"federal_state_code":"NI","fax_number":null,"email_address":null,"city":"Zeven"},{"zip_code":"27404","street":"Kanalstraße 45","school_type_entity":"Oberschule","school_type":"Oberschule","phone_number":"+49 4281 3450","old_slug":null,"official_id":"42985","name":"Carl-Friedrich-Gauß-Oberschule auslaufend ab 01.08.15","lon":9.264687,"lat":53.298906,"homepage_url":null,"federal_state_code":"NI","fax_number":null,"email_address":null,"city":"Zeven"},{"zip_code":"26340","street":"Kronshausen 6","school_type_entity":"Integrierte Gesamtschule","school_type":"IGS/FWS - SEK I -","phone_number":"+49 4453 3112","old_slug":"26340-realschule-friesische-wehde","official_id":"82454","name":"Integrierte Gesamtschule Friesland-Süd","lon":7.967411,"lat":53.419246,"homepage_url":"http://www.rszetel.de/","federal_state_code":"NI","fax_number":null,"email_address":"schulleitung@rszetel.de","city":"Zetel"},{"zip_code":"29499","street":"Schulstr. 6","school_type_entity":"Grundschule","school_type":"Grundschule","phone_number":"+49 5863 321","old_slug":null,"official_id":"34538","name":"Grundschule an der Göhrde","lon":10.882022,"lat":53.06676,"homepage_url":null,"federal_state_code":"NI","fax_number":null,"email_address":null,"city":"Zernien"},{"zip_code":"29499","street":"Schulstr. 6","school_type_entity":"Ganztagsschule","school_type":"Ganztagsschule","phone_number":"+49 5863 321","old_slug":null,"official_id":"34538","name":"Grundschule an der Göhrde","lon":10.882022,"lat":53.06676,"homepage_url":null,"federal_state_code":"NI","fax_number":null,"email_address":null,"city":"Zernien"},{"zip_code":"29462","street":"Mühlensteg","school_type_entity":"Grundschule","school_type":"Grundschule","phone_number":"+49 5843 306","old_slug":null,"official_id":"34526","name":"Christian-Henning-Schule Grundschule","lon":11.117494,"lat":52.925648,"homepage_url":null,"federal_state_code":"NI","fax_number":null,"email_address":null,"city":"Wustrow (Wendland)"},{"zip_code":"27639","street":"Wremer Straße 99","school_type_entity":"Grundschule","school_type":"Grundschule","phone_number":"+49 4705 408","old_slug":null,"official_id":"19185","name":"Tjede-Peckes-Grundschule","lon":8.6,"lat":53.7833,"homepage_url":null,"federal_state_code":"NI","fax_number":null,"email_address":null,"city":"Wurster Nordseeküste"},{"zip_code":"31515","street":"Nordstr.21","school_type_entity":"Grundschule","school_type":"Grundschule","phone_number":"+49 5031 913600","old_slug":null,"official_id":"8862","name":"Stadtschule Grundschule","lon":9.42944,"lat":52.4275,"homepage_url":null,"federal_state_code":"NI","fax_number":null,"email_address":null,"city":"Wunstorf"},{"zip_code":"31515","street":"Paul-Moor-Weg 1","school_type_entity":"FöS Geistige Entwicklung","school_type":"FöS Geistige Entwicklung Ganztägiger Unterricht an FöS GB/KM","phone_number":"+49 5031 9507","old_slug":null,"official_id":"91327","name":"Paul-Moor-Schule Förderschule Schwpt. geist. Entwicklun","lon":9.427174,"lat":52.41305,"homepage_url":null,"federal_state_code":"NI","fax_number":null,"email_address":null,"city":"Wunstorf"},{"zip_code":"31515","street":"Rubensstraße 12","school_type_entity":"Hauptschule","school_type":"Hauptschule Ganztagsschule","phone_number":"+49 5031 9569","old_slug":null,"official_id":"60598","name":"Otto-Hahn-Schule Haupt- und Realschule","lon":9.429027,"lat":52.414309,"homepage_url":null,"federal_state_code":"NI","fax_number":null,"email_address":null,"city":"Wunstorf"},{"zip_code":"31515","street":"Rubensstraße 12","school_type_entity":"Realschule","school_type":"Realschule","phone_number":"+49 5031 9569","old_slug":null,"official_id":"60598","name":"Otto-Hahn-Schule Haupt- und Realschule","lon":9.429027,"lat":52.414309,"homepage_url":null,"federal_state_code":"NI","fax_number":null,"email_address":null,"city":"Wunstorf"},{"zip_code":"31515","street":"Unter den Hestern 3","school_type_entity":"Grundschule","school_type":"Grundschule","phone_number":"+49 5033 911260","old_slug":null,"official_id":"32050","name":"Grundschule Steinhude","lon":9.355639,"lat":52.453256,"homepage_url":null,"federal_state_code":"NI","fax_number":null,"email_address":null,"city":"Wunstorf"},{"zip_code":"31515","street":"Kleine Heide 14","school_type_entity":"Grundschule","school_type":"Grundschule","phone_number":"+49 5031 972030","old_slug":null,"official_id":"32013","name":"Grundschule Luthe","lon":9.47328,"lat":52.424577,"homepage_url":null,"federal_state_code":"NI","fax_number":null,"email_address":null,"city":"Wunstorf"},{"zip_code":"31515","street":"Kirchdamm 13","school_type_entity":"Grundschule","school_type":"Grundschule","phone_number":"+49 5031 913617","old_slug":null,"official_id":"8850","name":"Grundschule Kolenfeld","lon":9.451742,"lat":52.385462,"homepage_url":null,"federal_state_code":"NI","fax_number":null,"email_address":null,"city":"Wunstorf"},{"zip_code":"31515","street":"Meerstr. 10","school_type_entity":"Realschule","school_type":"Realschule Offene Ganztagsschule","phone_number":"+49 5033 390030","old_slug":null,"official_id":"32086","name":"Graf-Wilhelm-Schule Steinhide Realschule","lon":9.353775,"lat":52.452045,"homepage_url":null,"federal_state_code":"NI","fax_number":null,"email_address":null,"city":"Wunstorf"},{"zip_code":"31515","street":"Rubensstr. 10","school_type_entity":"FöS Lernen","school_type":"FöS Lernen","phone_number":"+49 5031 3050","old_slug":null,"official_id":"91303","name":"Fröbelschule Förderschule Schwerpunkt Lernen","lon":9.428843,"lat":52.414911,"homepage_url":null,"federal_state_code":"NI","fax_number":null,"email_address":null,"city":"Wunstorf"},{"zip_code":"31515","street":"Rubensstr. 21","school_type_entity":"Grundschule","school_type":"Grundschule","phone_number":"+49 5031 2333","old_slug":null,"official_id":"32037","name":"Albert-Schweitzer-Schule Verlässliche Grundschule","lon":9.429027,"lat":52.414309,"homepage_url":null,"federal_state_code":"NI","fax_number":null,"email_address":null,"city":"Wunstorf"},{"zip_code":"29559","street":"Ernst-Rust-Str. 11","school_type_entity":"Schulkindergarten","school_type":"Schulkindergarten","phone_number":"+49 5825 409","old_slug":null,"official_id":"35117","name":"Grundschule Wieren","lon":10.651665,"lat":52.891761,"homepage_url":null,"federal_state_code":"NI","fax_number":null,"email_address":null,"city":"Wrestedt"},{"zip_code":"29559","street":"Ernst-Rust-Str. 11","school_type_entity":"Grundschule","school_type":"Grundschule","phone_number":"+49 5825 409","old_slug":null,"official_id":"35117","name":"Grundschule Wieren","lon":10.651665,"lat":52.891761,"homepage_url":null,"federal_state_code":"NI","fax_number":null,"email_address":null,"city":"Wrestedt"},{"zip_code":"27726","street":"Im Rusch 2","school_type_entity":"Hauptschule","school_type":"Hauptschule","phone_number":"+49 4792 9551811","old_slug":null,"official_id":"54185","name":"Haupt- und Realschule Grasberg/Worpswede","lon":8.917807,"lat":53.224489,"homepage_url":null,"federal_state_code":"NI","fax_number":null,"email_address":null,"city":"Worpswede"},{"zip_code":"27726","street":"Im Rusch 2","school_type_entity":"Realschule","school_type":"Realschule","phone_number":"+49 4792 9551811","old_slug":null,"official_id":"54185","name":"Haupt- und Realschule Grasberg/Worpswede","lon":8.917807,"lat":53.224489,"homepage_url":null,"federal_state_code":"NI","fax_number":null,"email_address":null,"city":"Worpswede"},{"zip_code":"27726","street":"Im Rusch 2","school_type_entity":"Schulkindergarten","school_type":"Schulkindergarten","phone_number":"+49 4792 9551810","old_slug":null,"official_id":"17498","name":"Grundschule Worpswede","lon":8.917807,"lat":53.224489,"homepage_url":null,"federal_state_code":"NI","fax_number":null,"email_address":null,"city":"Worpswede"},{"zip_code":"27726","street":"Im Rusch 2","school_type_entity":"Grundschule","school_type":"Grundschule","phone_number":"+49 4792 9551810","old_slug":null,"official_id":"17498","name":"Grundschule Worpswede","lon":8.917807,"lat":53.224489,"homepage_url":null,"federal_state_code":"NI","fax_number":null,"email_address":null,"city":"Worpswede"},{"zip_code":"38440","street":"Danziger Straße 17","school_type_entity":"Kolleg","school_type":"Kolleg","phone_number":"+49 5361 36658","old_slug":null,"official_id":"66345","name":"Wolfsburg-Kolleg Institut z.Erlangung d. Hochschulreife","lon":10.763516,"lat":52.422203,"homepage_url":null,"federal_state_code":"NI","fax_number":null,"email_address":null,"city":"Wolfsburg"},{"zip_code":"38440","street":"Martin-Luther-Str. 23","school_type_entity":"Gymnasium","school_type":"Gymnasium - SEK I -","phone_number":"+49 5361 2973","old_slug":null,"official_id":"66291","name":"Theodor-Heuss-Gymnasium Wolfsburg","lon":10.768285,"lat":52.419186,"homepage_url":null,"federal_state_code":"NI","fax_number":null,"email_address":null,"city":"Wolfsburg"},{"zip_code":"38440","street":"Martin-Luther-Str. 23","school_type_entity":"Gymnasium","school_type":"Gymnasium - SEK II -","phone_number":"+49 5361 2973","old_slug":null,"official_id":"66291","name":"Theodor-Heuss-Gymnasium Wolfsburg","lon":10.768285,"lat":52.419186,"homepage_url":null,"federal_state_code":"NI","fax_number":null,"email_address":null,"city":"Wolfsburg"},{"zip_code":"38440","street":"Am Mühlengraben 22/24","school_type_entity":"Berufsbildende Schule","school_type":"Berufsbildende Schule(n)","phone_number":"+49 5361 881175","old_slug":null,"official_id":"76090","name":"TEUTLOFF Private Fachschule Technik Wolfsburg","lon":10.798593,"lat":52.421835,"homepage_url":null,"federal_state_code":"NI","fax_number":null,"email_address":null,"city":"Wolfsburg"},{"zip_code":"38440","street":"Am Mühlengraben 22/24","school_type_entity":"Berufsbildende Schule","school_type":"Bildungsangebot","phone_number":"+49 5361 881175","old_slug":null,"official_id":"76090","name":"TEUTLOFF Private Fachschule Technik Wolfsburg","lon":10.798593,"lat":52.421835,"homepage_url":null,"federal_state_code":"NI","fax_number":null,"email_address":null,"city":"Wolfsburg"},{"zip_code":"38440","street":"Pestalozziallee 2","school_type_entity":"Gymnasium","school_type":"Gymnasium - SEK I -","phone_number":"+49 5361 281911","old_slug":"38440-ratsgymnasium-wolfsburg","official_id":"66278","name":"Ratsgymnasium Wolfsburg","lon":10.788422,"lat":52.420765,"homepage_url":"http://www.mathematik.uni-hildesheim.de/rgw/","federal_state_code":"NI","fax_number":"05361/281921","email_address":"a.foerster@tu-bs.de","city":"Wolfsburg"},{"zip_code":"38440","street":"Pestalozziallee 2","school_type_entity":"Gymnasium","school_type":"Gymnasium - SEK II -","phone_number":"+49 5361 281911","old_slug":"38440-ratsgymnasium-wolfsburg","official_id":"66278","name":"Ratsgymnasium Wolfsburg","lon":10.788422,"lat":52.420765,"homepage_url":"http://www.mathematik.uni-hildesheim.de/rgw/","federal_state_code":"NI","fax_number":"05361/281921","email_address":"a.foerster@tu-bs.de","city":"Wolfsburg"},{"zip_code":"38448","street":"Carl-Grete-Str. 37","school_type_entity":"Gymnasium","school_type":"Gymnasium - SEK I - Ganztagsschule","phone_number":"+49 5363 944200","old_slug":null,"official_id":"66308","name":"Phoenix Gymnasium Wolfsburg-Vorsfelde","lon":10.830769,"lat":52.444565,"homepage_url":null,"federal_state_code":"NI","fax_number":null,"email_address":null,"city":"Wolfsburg"},{"zip_code":"38448","street":"Carl-Grete-Str. 37","school_type_entity":"Gymnasium","school_type":"Gymnasium - SEK II -","phone_number":"+49 5363 944200","old_slug":null,"official_id":"66308","name":"Phoenix Gymnasium Wolfsburg-Vorsfelde","lon":10.830769,"lat":52.444565,"homepage_url":null,"federal_state_code":"NI","fax_number":null,"email_address":null,"city":"Wolfsburg"},{"zip_code":"38448","street":"Am Lerchengarten 28","school_type_entity":"FöS Geistige Entwicklung","school_type":"FöS Geistige Entwicklung Ganztägiger Unterricht an FöS GB/KM","phone_number":"+49 5361 866090","old_slug":null,"official_id":"94560","name":"Peter-Pan-Schule Förderschule Schwpt. geist. Entwicklung","lon":10.800577,"lat":52.444089,"homepage_url":null,"federal_state_code":"NI","fax_number":null,"email_address":null,"city":"Wolfsburg"},{"zip_code":"38448","street":"Franz-Marc-Str. 2","school_type_entity":"Grundschule","school_type":"Grundschule Ganztagsschule","phone_number":"+49 5361 8682","old_slug":null,"official_id":"5824","name":"Leonardo da Vinci Grund- und Gesamtschule Wolfsburg","lon":10.791672,"lat":52.45279,"homepage_url":null,"federal_state_code":"NI","fax_number":null,"email_address":null,"city":"Wolfsburg"},{"zip_code":"38448","street":"Franz-Marc-Str. 2","school_type_entity":"Integrierte Gesamtschule","school_type":"IGS/FWS - SEK I -","phone_number":"+49 5361 8682","old_slug":null,"official_id":"5824","name":"Leonardo da Vinci Grund- und Gesamtschule Wolfsburg","lon":10.791672,"lat":52.45279,"homepage_url":null,"federal_state_code":"NI","fax_number":null,"email_address":null,"city":"Wolfsburg"},{"zip_code":"38442","street":"Karl-Heise-Str. 32","school_type_entity":"Realschule","school_type":"Realschule","phone_number":"+49 5362 9631","old_slug":null,"official_id":"61268","name":"Hoffmann-V.-Fallersl.-Realschule","lon":10.713768,"lat":52.412098,"homepage_url":null,"federal_state_code":"NI","fax_number":null,"email_address":null,"city":"Wolfsburg"},{"zip_code":"38446","street":"Schreberstraße 1","school_type_entity":"Grundschule","school_type":"Grundschule","phone_number":"+49 5361 8484870","old_slug":"38446-hellwinkelschule-os","official_id":"13432","name":"Hellwinkelschule Grundschule","lon":10.806682,"lat":52.42166,"homepage_url":"http://gs9.wolfsburg.net/","federal_state_code":"NI","fax_number":"0531/848486-29","email_address":"gs.hellwinkel@wolfsburg.net","city":"Wolfsburg"},{"zip_code":"38442","street":"Karl-Heise-Str.","school_type_entity":"Gymnasium","school_type":"Gymnasium - SEK I -","phone_number":"+49 5362 9631","old_slug":null,"official_id":"67180","name":"Gymnasium Fallersleben","lon":10.713605,"lat":52.4123763,"homepage_url":null,"federal_state_code":"NI","fax_number":null,"email_address":null,"city":"Wolfsburg"},{"zip_code":"38442","street":"Karl-Heise-Str.","school_type_entity":"Gymnasium","school_type":"Gymnasium - SEK II -","phone_number":"+49 5362 9631","old_slug":null,"official_id":"67180","name":"Gymnasium Fallersleben","lon":10.713605,"lat":52.4123763,"homepage_url":null,"federal_state_code":"NI","fax_number":null,"email_address":null,"city":"Wolfsburg"},{"zip_code":"38446","street":"Lavinia-Fontana-Straße 1","school_type_entity":"Grundschule","school_type":"Grundschule","phone_number":"+49 5363 72813","old_slug":null,"official_id":"13419","name":"GS Käferschule Grundschule","lon":10.83569,"lat":52.416867,"homepage_url":null,"federal_state_code":"NI","fax_number":null,"email_address":null,"city":"Wolfsburg"},{"zip_code":"38440","street":"Danziger Straße 17","school_type_entity":"Grundschule","school_type":"Grundschule Volle Halbtagsschule","phone_number":"+49 5361 30896","old_slug":null,"official_id":"13420","name":"Grundschule Wohltberg","lon":10.763516,"lat":52.422203,"homepage_url":null,"federal_state_code":"NI","fax_number":null,"email_address":null,"city":"Wolfsburg"},{"zip_code":"38440","street":"Masurenweg 9","school_type_entity":"Grundschule","school_type":"Grundschule Teilgebundene Ganztagsschule","phone_number":"+49 5361 30391","old_slug":null,"official_id":"13389","name":"Grundschule Laagberg","lon":10.748579,"lat":52.416503,"homepage_url":null,"federal_state_code":"NI","fax_number":null,"email_address":null,"city":"Wolfsburg"},{"zip_code":"38448","street":"Zum Heidgarten 42","school_type_entity":"Grundschule","school_type":"Grundschule","phone_number":"+49 5363 976840","old_slug":null,"official_id":"13341","name":"Grundschule Heidgarten","lon":10.844956,"lat":52.453186,"homepage_url":null,"federal_state_code":"NI","fax_number":null,"email_address":null,"city":"Wolfsburg"},{"zip_code":"38446","street":"Schulstraße 16","school_type_entity":"Schulkindergarten","school_type":"Schulkindergarten","phone_number":"+49 5365 8901","old_slug":null,"official_id":"33133","name":"Grundschule Hasenwinkel","lon":10.829515,"lat":52.333322,"homepage_url":null,"federal_state_code":"NI","fax_number":null,"email_address":null,"city":"Wolfsburg"},{"zip_code":"38446","street":"Schulstraße 16","school_type_entity":"Grundschule","school_type":"Grundschule","phone_number":"+49 5365 8901","old_slug":null,"official_id":"33133","name":"Grundschule Hasenwinkel","lon":10.829515,"lat":52.333322,"homepage_url":null,"federal_state_code":"NI","fax_number":null,"email_address":null,"city":"Wolfsburg"},{"zip_code":"38448","street":"Am Lerchengarten 30","school_type_entity":"Schulkindergarten","school_type":"Schulkindergarten","phone_number":"+49 5361 86605","old_slug":null,"official_id":"13407","name":"Grundschule Alt-Wolfsburg","lon":10.79998,"lat":52.445126,"homepage_url":null,"federal_state_code":"NI","fax_number":null,"email_address":null,"city":"Wolfsburg"},{"zip_code":"38448","street":"Am Lerchengarten 30","school_type_entity":"Grundschule","school_type":"Grundschule","phone_number":"+49 5361 86605","old_slug":null,"official_id":"13407","name":"Grundschule Alt-Wolfsburg","lon":10.79998,"lat":52.445126,"homepage_url":null,"federal_state_code":"NI","fax_number":null,"email_address":null,"city":"Wolfsburg"},{"zip_code":"38446","street":"Walter-Flex-Weg 8","school_type_entity":"Schulkindergarten","school_type":"Schulkindergarten","phone_number":"+49 5361 856910","old_slug":null,"official_id":"33169","name":"Friedrich-von-Schiller-Schule Grundschule","lon":10.800631,"lat":52.416771,"homepage_url":null,"federal_state_code":"NI","fax_number":null,"email_address":null,"city":"Wolfsburg"},{"zip_code":"38446","street":"Walter-Flex-Weg 8","school_type_entity":"Grundschule","school_type":"Grundschule","phone_number":"+49 5361 856910","old_slug":null,"official_id":"33169","name":"Friedrich-von-Schiller-Schule Grundschule","lon":10.800631,"lat":52.416771,"homepage_url":null,"federal_state_code":"NI","fax_number":null,"email_address":null,"city":"Wolfsburg"},{"zip_code":"38446","street":"Walter-Flex-Weg 8","school_type_entity":"FöS Körperl.+motorische Entwicklung","school_type":"FöS Körperl.+motorische Entw.","phone_number":"+49 5361 856910","old_slug":null,"official_id":"92010","name":"Friedrich-von-Schiller-Schule FöS Schwpt. körp. u. motor. Entwicklung","lon":10.800631,"lat":52.416771,"homepage_url":null,"federal_state_code":"NI","fax_number":null,"email_address":null,"city":"Wolfsburg"},{"zip_code":"38440","street":"Frauenteichstraße 4a","school_type_entity":"Hauptschule","school_type":"Hauptschule","phone_number":"+49 5361 29710","old_slug":"38440-eichendorffschule","official_id":"46796","name":"Eichendorffschule Oberschule in kirchl.Träg","lon":10.788946,"lat":52.415602,"homepage_url":"http://www.schulen.wolfsburg.de/eichendorff/","federal_state_code":"NI","fax_number":"05361-297122","email_address":"eichendorffschule@wolfsburg.de","city":"Wolfsburg"},{"zip_code":"38440","street":"Frauenteichstraße 4a","school_type_entity":"Realschule","school_type":"Realschule","phone_number":"+49 5361 29710","old_slug":"38440-eichendorffschule","official_id":"46796","name":"Eichendorffschule Oberschule in kirchl.Träg","lon":10.788946,"lat":52.415602,"homepage_url":"http://www.schulen.wolfsburg.de/eichendorff/","federal_state_code":"NI","fax_number":"05361-297122","email_address":"eichendorffschule@wolfsburg.de","city":"Wolfsburg"},{"zip_code":"38440","street":"Frauenteichstraße 4a","school_type_entity":"Oberschule","school_type":"OBS Gymnasialzweig","phone_number":"+49 5361 29710","old_slug":"38440-eichendorffschule","official_id":"46796","name":"Eichendorffschule Oberschule in kirchl.Träg","lon":10.788946,"lat":52.415602,"homepage_url":"http://www.schulen.wolfsburg.de/eichendorff/","federal_state_code":"NI","fax_number":"05361-297122","email_address":"eichendorffschule@wolfsburg.de","city":"Wolfsburg"},{"zip_code":"38440","street":"Frauenteichstraße 4a","school_type_entity":"Oberschule","school_type":"Oberschule","phone_number":"+49 5361 29710","old_slug":"38440-eichendorffschule","official_id":"46796","name":"Eichendorffschule Oberschule in kirchl.Träg","lon":10.788946,"lat":52.415602,"homepage_url":"http://www.schulen.wolfsburg.de/eichendorff/","federal_state_code":"NI","fax_number":"05361-297122","email_address":"eichendorffschule@wolfsburg.de","city":"Wolfsburg"},{"zip_code":"38440","street":"Frauenteichstraße 4a","school_type_entity":"Gymnasium","school_type":"Gymnasium - SEK I -","phone_number":"+49 5361 29710","old_slug":"38440-eichendorffschule","official_id":"66151","name":"Eichendorff-Schule staatlich anerkanntes Gymnasium i.f.T.","lon":10.788946,"lat":52.415602,"homepage_url":"http://www.schulen.wolfsburg.de/eichendorff/","federal_state_code":"NI","fax_number":"05361-297122","email_address":"eichendorffschule@wolfsburg.de","city":"Wolfsburg"},{"zip_code":"38440","street":"Frauenteichstraße 4a","school_type_entity":"Gymnasium","school_type":"Gymnasium - SEK II -","phone_number":"+49 5361 29710","old_slug":"38440-eichendorffschule","official_id":"66151","name":"Eichendorff-Schule staatlich anerkanntes Gymnasium i.f.T.","lon":10.788946,"lat":52.415602,"homepage_url":"http://www.schulen.wolfsburg.de/eichendorff/","federal_state_code":"NI","fax_number":"05361-297122","email_address":"eichendorffschule@wolfsburg.de","city":"Wolfsburg"},{"zip_code":"38442","street":"An der Lehmkuhle 11","school_type_entity":null,"school_type":"","phone_number":"+49 5361 774075","old_slug":null,"official_id":"13250","name":"ehem. Grundschule Mörse","lon":10.732844,"lat":52.394892,"homepage_url":null,"federal_state_code":"NI","fax_number":null,"email_address":null,"city":"Wolfsburg"},{"zip_code":"38444","street":"Bonhoefferstraße 33","school_type_entity":"Grundschule","school_type":"Grundschule","phone_number":"+49 5361 772191","old_slug":null,"official_id":"13122","name":"Bunte Grundschule Wolfsburg","lon":10.749826,"lat":52.389286,"homepage_url":null,"federal_state_code":"NI","fax_number":null,"email_address":null,"city":"Wolfsburg"},{"zip_code":"38448","street":"Schulenburgallee 23a","school_type_entity":"Berufsbildende Schule","school_type":"Berufsbildende Schule(n)","phone_number":"+49 5361 501","old_slug":null,"official_id":"71535","name":"Berufsfachschule Altenpflege Diakonisches Werk Wolfsburg e.V.","lon":10.800563,"lat":52.450447,"homepage_url":null,"federal_state_code":"NI","fax_number":null,"email_address":null,"city":"Wolfsburg"},{"zip_code":"38448","street":"Schulenburgallee 23a","school_type_entity":"Berufsbildende Schule","school_type":"Bildungsangebot","phone_number":"+49 5361 501","old_slug":null,"official_id":"71535","name":"Berufsfachschule Altenpflege Diakonisches Werk Wolfsburg e.V.","lon":10.800563,"lat":52.450447,"homepage_url":null,"federal_state_code":"NI","fax_number":null,"email_address":null,"city":"Wolfsburg"},{"zip_code":"38440","street":"Kleiststraße 44","school_type_entity":"Berufsbildende Schule","school_type":"Berufsbildende Schule(n)","phone_number":"+49 5361 261","old_slug":null,"official_id":"71572","name":"Berufsbildende Schulen II Wolfsburg","lon":10.78045,"lat":52.425382,"homepage_url":null,"federal_state_code":"NI","fax_number":null,"email_address":null,"city":"Wolfsburg"},{"zip_code":"38440","street":"Kleiststraße 44","school_type_entity":"Berufsbildende Schule","school_type":"Bildungsangebot","phone_number":"+49 5361 261","old_slug":null,"official_id":"71572","name":"Berufsbildende Schulen II Wolfsburg","lon":10.78045,"lat":52.425382,"homepage_url":null,"federal_state_code":"NI","fax_number":null,"email_address":null,"city":"Wolfsburg"},{"zip_code":"38300","street":"Cranachstr. 3","school_type_entity":"Schulkindergarten","school_type":"Schulkindergarten","phone_number":"+49 5331 927821","old_slug":null,"official_id":"38878","name":"Wilhelm-Busch-Grundschule","lon":10.559474,"lat":52.157183,"homepage_url":null,"federal_state_code":"NI","fax_number":null,"email_address":null,"city":"Wolfenbüttel"},{"zip_code":"38300","street":"Cranachstr. 3","school_type_entity":"Grundschule","school_type":"Grundschule","phone_number":"+49 5331 927821","old_slug":null,"official_id":"38878","name":"Wilhelm-Busch-Grundschule","lon":10.559474,"lat":52.157183,"homepage_url":null,"federal_state_code":"NI","fax_number":null,"email_address":null,"city":"Wolfenbüttel"},{"zip_code":"38304","street":"Karl-von-Hörsten-Straße 7-9","school_type_entity":"Gymnasium","school_type":"Gymnasium - SEK I -","phone_number":"+49 5331 95630","old_slug":null,"official_id":"68251","name":"Theodor-Heuss-Gymnasium","lon":10.525823,"lat":52.157501,"homepage_url":null,"federal_state_code":"NI","fax_number":null,"email_address":null,"city":"Wolfenbüttel"},{"zip_code":"38304","street":"Karl-von-Hörsten-Straße 7-9","school_type_entity":"Gymnasium","school_type":"Gymnasium - SEK II -","phone_number":"+49 5331 95630","old_slug":null,"official_id":"68251","name":"Theodor-Heuss-Gymnasium","lon":10.525823,"lat":52.157501,"homepage_url":null,"federal_state_code":"NI","fax_number":null,"email_address":null,"city":"Wolfenbüttel"},{"zip_code":"38300","street":"Lindener Str. 11","school_type_entity":"FöS Lernen","school_type":"FöS Lernen","phone_number":"+49 5331 85856","old_slug":null,"official_id":"94985","name":"Schule am Teichgarten FöS Schwerpunkt Lernen u. Sprache","lon":10.548196,"lat":52.160183,"homepage_url":null,"federal_state_code":"NI","fax_number":null,"email_address":null,"city":"Wolfenbüttel"},{"zip_code":"38300","street":"Lindener Str. 11","school_type_entity":"FöS Sprache","school_type":"FöS Sprache","phone_number":"+49 5331 85856","old_slug":null,"official_id":"94985","name":"Schule am Teichgarten FöS Schwerpunkt Lernen u. Sprache","lon":10.548196,"lat":52.160183,"homepage_url":null,"federal_state_code":"NI","fax_number":null,"email_address":null,"city":"Wolfenbüttel"},{"zip_code":"38300","street":"Lindener Str. 11","school_type_entity":"Ganztagsschule","school_type":"Ganztagsschule (o. ZB)","phone_number":"+49 5331 85856","old_slug":null,"official_id":"94985","name":"Schule am Teichgarten FöS Schwerpunkt Lernen u. Sprache","lon":10.548196,"lat":52.160183,"homepage_url":null,"federal_state_code":"NI","fax_number":null,"email_address":null,"city":"Wolfenbüttel"},{"zip_code":"38300","street":"Cranachstr. 5","school_type_entity":"Realschule","school_type":"Realschule","phone_number":"+49 5331 882512","old_slug":null,"official_id":"63290","name":"Leibniz-Realschule","lon":10.558948,"lat":52.155265,"homepage_url":null,"federal_state_code":"NI","fax_number":null,"email_address":null,"city":"Wolfenbüttel"},{"zip_code":"38300","street":"Wallstraße 22-26","school_type_entity":"Integrierte Gesamtschule","school_type":"IGS/FWS - SEK I -","phone_number":"+49 5331 9964070","old_slug":"38300-grund-und-hauptschule-wallstrasse","official_id":"80329","name":"IGS Wallstraße Wolfenbüttel","lon":10.53694,"lat":52.16222,"homepage_url":"http://www.wallstr.de","federal_state_code":"NI","fax_number":"05331 1019","email_address":"ghs@wallstr.de","city":"Wolfenbüttel"},{"zip_code":"38300","street":"Wallstraße 22-26","school_type_entity":"Integrierte Gesamtschule","school_type":"IGS/FWS - SEK II -","phone_number":"+49 5331 9964070","old_slug":"38300-grund-und-hauptschule-wallstrasse","official_id":"80329","name":"IGS Wallstraße Wolfenbüttel","lon":10.53694,"lat":52.16222,"homepage_url":"http://www.wallstr.de","federal_state_code":"NI","fax_number":"05331 1019","email_address":"ghs@wallstr.de","city":"Wolfenbüttel"},{"zip_code":"38304","street":"Ravensberger Str. 19","school_type_entity":"Integrierte Gesamtschule","school_type":"IGS/FWS - SEK I -","phone_number":"+49 5331 9844930","old_slug":null,"official_id":"80494","name":"Henriette-Breymann-Gesamtschule Integrierte Gesamtschule","lon":10.518462,"lat":52.157771,"homepage_url":null,"federal_state_code":"NI","fax_number":null,"email_address":null,"city":"Wolfenbüttel"},{"zip_code":"38300","street":"Robert-Everlien-Platz 1","school_type_entity":"Grundschule","school_type":"Grundschule Offene Ganztagsschule","phone_number":"+49 5331 88259","old_slug":null,"official_id":"38854","name":"Grundschule Harztorwall f. Schüler kath. Bek","lon":10.539098,"lat":52.159571,"homepage_url":null,"federal_state_code":"NI","fax_number":null,"email_address":null,"city":"Wolfenbüttel"},{"zip_code":"38304","street":"Harzburger Str. 16","school_type_entity":"Grundschule","school_type":"Grundschule","phone_number":"+49 5331 63054","old_slug":null,"official_id":"26797","name":"Grundschule Halchter","lon":10.549086,"lat":52.141382,"homepage_url":null,"federal_state_code":"NI","fax_number":null,"email_address":null,"city":"Wolfenbüttel"},{"zip_code":"38304","street":"Gemeindeweg 4","school_type_entity":"Grundschule","school_type":"Grundschule","phone_number":"+49 5331 26233","old_slug":null,"official_id":"26463","name":"Grundschule Groß Stöckheim","lon":10.517716,"lat":52.174932,"homepage_url":null,"federal_state_code":"NI","fax_number":null,"email_address":null,"city":"Wolfenbüttel"},{"zip_code":"38300","street":"Cranachstraße 1","school_type_entity":"Hauptschule","school_type":"Hauptschule Ganztagsschule","phone_number":"+49 5331 996390","old_slug":null,"official_id":"40150","name":"Erich Kästner-Hauptschule","lon":10.55807,"lat":52.156799,"homepage_url":null,"federal_state_code":"NI","fax_number":null,"email_address":null,"city":"Wolfenbüttel"},{"zip_code":"38302","street":"Am Exer 13","school_type_entity":"Berufsbildende Schule","school_type":"Berufsbildende Schule(n)","phone_number":"+49 5331 904044","old_slug":null,"official_id":"74226","name":"Diakonie-Kolleg Wolfenbüttel Stephansstift Bildung und Ausbildung gGmbH","lon":10.557675,"lat":52.180514,"homepage_url":null,"federal_state_code":"NI","fax_number":null,"email_address":null,"city":"Wolfenbüttel"},{"zip_code":"38302","street":"Am Exer 13","school_type_entity":"Berufsbildende Schule","school_type":"Bildungsangebot","phone_number":"+49 5331 904044","old_slug":null,"official_id":"74226","name":"Diakonie-Kolleg Wolfenbüttel Stephansstift Bildung und Ausbildung gGmbH","lon":10.557675,"lat":52.180514,"homepage_url":null,"federal_state_code":"NI","fax_number":null,"email_address":null,"city":"Wolfenbüttel"},{"zip_code":"38304","street":"Wilhelm-Brandes-Str. 9-11","school_type_entity":"Berufsbildende Schule","school_type":"Berufsbildende Schule(n)","phone_number":"+49 5331 9560","old_slug":null,"official_id":"74238","name":"Carl-Gotthard-Langhans-Schule Berufsbildende Schule","lon":10.525306,"lat":52.154837,"homepage_url":null,"federal_state_code":"NI","fax_number":null,"email_address":null,"city":"Wolfenbüttel"},{"zip_code":"38304","street":"Wilhelm-Brandes-Str. 9-11","school_type_entity":"Berufsbildende Schule","school_type":"Bildungsangebot","phone_number":"+49 5331 9560","old_slug":null,"official_id":"74238","name":"Carl-Gotthard-Langhans-Schule Berufsbildende Schule","lon":10.525306,"lat":52.154837,"homepage_url":null,"federal_state_code":"NI","fax_number":null,"email_address":null,"city":"Wolfenbüttel"},{"zip_code":"26409","street":"Upsteder Str. 7","school_type_entity":"Grundschule","school_type":"Grundschule","phone_number":"+49 4973 393","old_slug":null,"official_id":"24880","name":"Grundschule Burhafe","lon":7.708334,"lat":53.597831,"homepage_url":null,"federal_state_code":"NI","fax_number":null,"email_address":null,"city":"Wittmund"},{"zip_code":"26409","street":"Upsteder Str. 7","school_type_entity":"Ganztagsschule","school_type":"Ganztagsschule","phone_number":"+49 4973 393","old_slug":null,"official_id":"24880","name":"Grundschule Burhafe","lon":7.708334,"lat":53.597831,"homepage_url":null,"federal_state_code":"NI","fax_number":null,"email_address":null,"city":"Wittmund"},{"zip_code":"26409","street":"Lessingstr. 14","school_type_entity":"Schulkindergarten","school_type":"Schulkindergarten","phone_number":"+49 4462 983160","old_slug":null,"official_id":"24910","name":"Finkenburgschule Grundschule","lon":7.775453,"lat":53.577767,"homepage_url":null,"federal_state_code":"NI","fax_number":null,"email_address":null,"city":"Wittmund"},{"zip_code":"26409","street":"Lessingstr. 14","school_type_entity":"Grundschule","school_type":"Grundschule","phone_number":"+49 4462 983160","old_slug":null,"official_id":"24910","name":"Finkenburgschule Grundschule","lon":7.775453,"lat":53.577767,"homepage_url":null,"federal_state_code":"NI","fax_number":null,"email_address":null,"city":"Wittmund"},{"zip_code":"26409","street":"Lessingstr. 14","school_type_entity":"Ganztagsschule","school_type":"Ganztagsschule","phone_number":"+49 4462 983160","old_slug":null,"official_id":"24910","name":"Finkenburgschule Grundschule","lon":7.775453,"lat":53.577767,"homepage_url":null,"federal_state_code":"NI","fax_number":null,"email_address":null,"city":"Wittmund"},{"zip_code":"26409","street":"Leepenser Weg 26-28","school_type_entity":"Berufsbildende Schule","school_type":"Berufsbildende Schule(n)","phone_number":"+49 4462 863100","old_slug":null,"official_id":"73581","name":"Berufsbildende Schule Wittmund","lon":7.755899,"lat":53.576632,"homepage_url":null,"federal_state_code":"NI","fax_number":null,"email_address":null,"city":"Wittmund"},{"zip_code":"26409","street":"Leepenser Weg 26-28","school_type_entity":"Berufsbildende Schule","school_type":"Bildungsangebot","phone_number":"+49 4462 863100","old_slug":null,"official_id":"73581","name":"Berufsbildende Schule Wittmund","lon":7.755899,"lat":53.576632,"homepage_url":null,"federal_state_code":"NI","fax_number":null,"email_address":null,"city":"Wittmund"},{"zip_code":"29378","street":"Wilhelmstraße 1","school_type_entity":"Grundschule","school_type":"Grundschule","phone_number":"+49 5836 473","old_slug":null,"official_id":"14588","name":"Grundschule Radenbeck","lon":10.86718,"lat":52.645213,"homepage_url":null,"federal_state_code":"NI","fax_number":null,"email_address":null,"city":"Wittingen"},{"zip_code":"29379","street":"Kirchstraße 8","school_type_entity":"Grundschule","school_type":"Grundschule","phone_number":"+49 5834 839","old_slug":null,"official_id":"33972","name":"Grundschule Knesebeck","lon":10.705437,"lat":52.6772,"homepage_url":null,"federal_state_code":"NI","fax_number":null,"email_address":null,"city":"Wittingen"},{"zip_code":"29378","street":"Spittastraße 61","school_type_entity":"Grundschule","school_type":"Grundschule","phone_number":"+49 5831 26320","old_slug":null,"official_id":"33960","name":"Grund- u. Oberschule Wittingen","lon":10.725558,"lat":52.725951,"homepage_url":null,"federal_state_code":"NI","fax_number":null,"email_address":null,"city":"Wittingen"},{"zip_code":"29378","street":"Spittastraße 61","school_type_entity":"Hauptschule","school_type":"Hauptschule","phone_number":"+49 5831 26320","old_slug":null,"official_id":"33960","name":"Grund- u. Oberschule Wittingen","lon":10.725558,"lat":52.725951,"homepage_url":null,"federal_state_code":"NI","fax_number":null,"email_address":null,"city":"Wittingen"},{"zip_code":"29378","street":"Spittastraße 61","school_type_entity":"Realschule","school_type":"Realschule","phone_number":"+49 5831 26320","old_slug":null,"official_id":"33960","name":"Grund- u. Oberschule Wittingen","lon":10.725558,"lat":52.725951,"homepage_url":null,"federal_state_code":"NI","fax_number":null,"email_address":null,"city":"Wittingen"},{"zip_code":"29378","street":"Spittastraße 61","school_type_entity":"Oberschule","school_type":"Oberschule","phone_number":"+49 5831 26320","old_slug":null,"official_id":"33960","name":"Grund- u. Oberschule Wittingen","lon":10.725558,"lat":52.725951,"homepage_url":null,"federal_state_code":"NI","fax_number":null,"email_address":null,"city":"Wittingen"},{"zip_code":"26892","street":"Schulstraße 8","school_type_entity":"Grundschule","school_type":"Grundschule","phone_number":"+49 4966 403","old_slug":null,"official_id":"19987","name":"Grundschule Renkenberge/Wippingen","lon":7.407586,"lat":52.927256,"homepage_url":null,"federal_state_code":"NI","fax_number":null,"email_address":null,"city":"Wippingen"},{"zip_code":"29308","street":"Meißendorfer Kirchweg 9","school_type_entity":"FöS Lernen","school_type":"FöS Lernen","phone_number":"+49 5143 667555","old_slug":null,"official_id":"92113","name":"Astrid-Lindgren-Schule Förderschule Schwerpunkt Lernen","lon":9.90053,"lat":52.682844,"homepage_url":null,"federal_state_code":"NI","fax_number":null,"email_address":null,"city":"Winsen/Aller"},{"zip_code":"21423","street":"Rämenweg 5-9","school_type_entity":"Integrierte Gesamtschule","school_type":"IGS/FWS - SEK I -","phone_number":"+49 4171 78 75 530","old_slug":"21423-igs-winsen-roydorf","official_id":"83963","name":"IGS Winsen-Roydorf","lon":10.205173,"lat":53.3507978,"homepage_url":"http://www.igs-winsen.de","federal_state_code":"NI","fax_number":"0 41 71 / 78 34 44","email_address":"info@igs-winsen.de","city":"Winsen-Roydorf"},{"zip_code":"21423","street":"Bürgerweide 20","school_type_entity":"Berufsbildende Schule","school_type":"Berufsbildende Schule(n)","phone_number":"+49 4171 8819","old_slug":null,"official_id":"71894","name":"Berufsbildende Schulen Winsen (Luhe)","lon":10.224183,"lat":53.364249,"homepage_url":null,"federal_state_code":"NI","fax_number":null,"email_address":null,"city":"Winsen (Luhe)"},{"zip_code":"21423","street":"Bürgerweide 20","school_type_entity":"Berufsbildende Schule","school_type":"Bildungsangebot","phone_number":"+49 4171 8819","old_slug":null,"official_id":"71894","name":"Berufsbildende Schulen Winsen (Luhe)","lon":10.224183,"lat":53.364249,"homepage_url":null,"federal_state_code":"NI","fax_number":null,"email_address":null,"city":"Winsen (Luhe)"},{"zip_code":"29308","street":"Meißendorfer Kirchweg 7","school_type_entity":"Hauptschule","school_type":"Hauptschule","phone_number":"+49 5143 665180","old_slug":"29308-heinrich-proeve-realschule","official_id":"42808","name":"Oberschule Winsen mit gymn. Angebot","lon":9.900407,"lat":52.680881,"homepage_url":"http://www.hpr-winsenaller.de","federal_state_code":"NI","fax_number":"0 51 43 / 63 02","email_address":"heinrich-proeve-realschule@t-online.de","city":"Winsen (Aller)"},{"zip_code":"29308","street":"Meißendorfer Kirchweg 7","school_type_entity":"Realschule","school_type":"Realschule","phone_number":"+49 5143 665180","old_slug":"29308-heinrich-proeve-realschule","official_id":"42808","name":"Oberschule Winsen mit gymn. Angebot","lon":9.900407,"lat":52.680881,"homepage_url":"http://www.hpr-winsenaller.de","federal_state_code":"NI","fax_number":"0 51 43 / 63 02","email_address":"heinrich-proeve-realschule@t-online.de","city":"Winsen (Aller)"},{"zip_code":"29308","street":"Meißendorfer Kirchweg 7","school_type_entity":"Oberschule","school_type":"OBS Gymnasialzweig","phone_number":"+49 5143 665180","old_slug":"29308-heinrich-proeve-realschule","official_id":"42808","name":"Oberschule Winsen mit gymn. Angebot","lon":9.900407,"lat":52.680881,"homepage_url":"http://www.hpr-winsenaller.de","federal_state_code":"NI","fax_number":"0 51 43 / 63 02","email_address":"heinrich-proeve-realschule@t-online.de","city":"Winsen (Aller)"},{"zip_code":"29308","street":"Meißendorfer Kirchweg 7","school_type_entity":"Oberschule","school_type":"Oberschule","phone_number":"+49 5143 665180","old_slug":"29308-heinrich-proeve-realschule","official_id":"42808","name":"Oberschule Winsen mit gymn. Angebot","lon":9.900407,"lat":52.680881,"homepage_url":"http://www.hpr-winsenaller.de","federal_state_code":"NI","fax_number":"0 51 43 / 63 02","email_address":"heinrich-proeve-realschule@t-online.de","city":"Winsen (Aller)"},{"zip_code":"21423","street":"Bürgerweide 16","school_type_entity":"FöS Lernen","school_type":"FöS Lernen Volle Halbtagsschule","phone_number":"+49 4171 4137","old_slug":null,"official_id":"92393","name":"Wolfgang-Borchert-Schule FöS Schwpt. Lernen mit Sprachheilkl.","lon":10.221135,"lat":53.363158,"homepage_url":null,"federal_state_code":"NI","fax_number":null,"email_address":null,"city":"Winsen"},{"zip_code":"21423","street":"Bürgerweide 16","school_type_entity":"FöS Sprache","school_type":"FöS Sprache Volle Halbtagsschule","phone_number":"+49 4171 4137","old_slug":null,"official_id":"92393","name":"Wolfgang-Borchert-Schule FöS Schwpt. Lernen mit Sprachheilkl.","lon":10.221135,"lat":53.363158,"homepage_url":null,"federal_state_code":"NI","fax_number":null,"email_address":null,"city":"Winsen"},{"zip_code":"21423","street":"Fuhlentwiete 17","school_type_entity":"Schulkindergarten","school_type":"Schulkindergarten","phone_number":"+49 4171 781321","old_slug":"21423-hanseschule","official_id":"34241","name":"Hanseschule Winsen Grund- und Hauptschule","lon":10.194242,"lat":53.369346,"homepage_url":"http://www.Hanseschule.de/","federal_state_code":"NI","fax_number":"04171/61339","email_address":"hanseschule@gmx.de","city":"Winsen"},{"zip_code":"21423","street":"Fuhlentwiete 17","school_type_entity":"Grundschule","school_type":"Grundschule","phone_number":"+49 4171 781321","old_slug":"21423-hanseschule","official_id":"34241","name":"Hanseschule Winsen Grund- und Hauptschule","lon":10.194242,"lat":53.369346,"homepage_url":"http://www.Hanseschule.de/","federal_state_code":"NI","fax_number":"04171/61339","email_address":"hanseschule@gmx.de","city":"Winsen"},{"zip_code":"21423","street":"Fuhlentwiete 17","school_type_entity":"Hauptschule","school_type":"Hauptschule","phone_number":"+49 4171 781321","old_slug":"21423-hanseschule","official_id":"34241","name":"Hanseschule Winsen Grund- und Hauptschule","lon":10.194242,"lat":53.369346,"homepage_url":"http://www.Hanseschule.de/","federal_state_code":"NI","fax_number":"04171/61339","email_address":"hanseschule@gmx.de","city":"Winsen"},{"zip_code":"21423","street":"Bürgerweide 9","school_type_entity":"Gymnasium","school_type":"Gymnasium - SEK I - Ganztagsschule","phone_number":"+49 4171 692380","old_slug":null,"official_id":"66552","name":"Gymnasium Winsen","lon":10.22221,"lat":53.364036,"homepage_url":null,"federal_state_code":"NI","fax_number":null,"email_address":null,"city":"Winsen"},{"zip_code":"21423","street":"Bürgerweide 9","school_type_entity":"Gymnasium","school_type":"Gymnasium - SEK II -","phone_number":"+49 4171 692380","old_slug":null,"official_id":"66552","name":"Gymnasium Winsen","lon":10.22221,"lat":53.364036,"homepage_url":null,"federal_state_code":"NI","fax_number":null,"email_address":null,"city":"Winsen"},{"zip_code":"29308","street":"Am Amtshof 6","school_type_entity":"Grundschule","school_type":"Grundschule","phone_number":"+49 5143 6651050","old_slug":"29308-grundschule-am-amtshof","official_id":"13766","name":"Grundschule Winsen (Aller)","lon":9.907332,"lat":52.678682,"homepage_url":"http://www.gsa-winsen.de","federal_state_code":"NI","fax_number":"05143 / 9888-78","email_address":"verwaltung@gsa-winsen.de","city":"Winsen"},{"zip_code":"49849","street":"Echteler Straße 2","school_type_entity":"Grundschule","school_type":"Grundschule Ganztagsschule","phone_number":"+49 5945 250","old_slug":null,"official_id":"36845","name":"Grundschule Wilsum","lon":6.832986,"lat":52.539531,"homepage_url":null,"federal_state_code":"NI","fax_number":null,"email_address":null,"city":"Wilsum"},{"zip_code":"27412","street":"Schulstr. 11","school_type_entity":"Grundschule","school_type":"Grundschule","phone_number":"+49 4283 5397","old_slug":null,"official_id":"16573","name":"Grundschule Wilstedt","lon":9.097995,"lat":53.1938,"homepage_url":null,"federal_state_code":"NI","fax_number":null,"email_address":null,"city":"Wilstedt"},{"zip_code":"26388","street":"Hauptstraße 26","school_type_entity":"Grundschule","school_type":"Grundschule","phone_number":"+49 4423 2538","old_slug":null,"official_id":"39500","name":"Verlässliche Grundschule Sengwarden","lon":8.048827,"lat":53.59487,"homepage_url":null,"federal_state_code":"NI","fax_number":null,"email_address":null,"city":"Wilhelmshaven"},{"zip_code":"26386","street":"Mühlenweg 63-65","school_type_entity":"Gymnasium","school_type":"Gymnasium - SEK I -","phone_number":"+49 4421 164200","old_slug":null,"official_id":"68524","name":"Neues Gymnasium Wilhelmshaven","lon":8.1271468,"lat":53.5323865,"homepage_url":null,"federal_state_code":"NI","fax_number":null,"email_address":null,"city":"Wilhelmshaven"},{"zip_code":"26386","street":"Mühlenweg 63-65","school_type_entity":"Gymnasium","school_type":"Gymnasium - SEK II -","phone_number":"+49 4421 164200","old_slug":null,"official_id":"68524","name":"Neues Gymnasium Wilhelmshaven","lon":8.1271468,"lat":53.5323865,"homepage_url":null,"federal_state_code":"NI","fax_number":null,"email_address":null,"city":"Wilhelmshaven"},{"zip_code":"26382","street":"Oldeoogestraße 4","school_type_entity":"Grundschule","school_type":"Grundschule","phone_number":"+49 4421 164351","old_slug":null,"official_id":"27480","name":"Katholische Grundschule St. Martin","lon":8.101161,"lat":53.521783,"homepage_url":null,"federal_state_code":"NI","fax_number":null,"email_address":null,"city":"Wilhelmshaven"},{"zip_code":"26386","street":"Friedenstraße 107","school_type_entity":"Integrierte Gesamtschule","school_type":"IGS/FWS - SEK I - Ganztagsschule","phone_number":"+49 4421 9819","old_slug":null,"official_id":"83586","name":"Integrierte Gesamtschule Wilhelmshaven","lon":8.092973,"lat":53.535306,"homepage_url":null,"federal_state_code":"NI","fax_number":null,"email_address":null,"city":"Wilhelmshaven"},{"zip_code":"26386","street":"Friedenstraße 107","school_type_entity":"Integrierte Gesamtschule","school_type":"IGS/FWS - SEK II -","phone_number":"+49 4421 9819","old_slug":null,"official_id":"83586","name":"Integrierte Gesamtschule Wilhelmshaven","lon":8.092973,"lat":53.535306,"homepage_url":null,"federal_state_code":"NI","fax_number":null,"email_address":null,"city":"Wilhelmshaven"},{"zip_code":"26386","street":"Störtebekerstr. 49","school_type_entity":"Grundschule","school_type":"Grundschule","phone_number":"+49 4421 16","old_slug":"26386-wasserturmschule-wilhelmshaven","official_id":"27662","name":"Grundschule Stadtmitte","lon":8.098214,"lat":53.529928,"homepage_url":"http://www.wasserturmschule.de","federal_state_code":"NI","fax_number":"04421/992300","email_address":"wturm@t-online.de","city":"Wilhelmshaven"},{"zip_code":"26386","street":"Achtern Diek 7","school_type_entity":"Grundschule","school_type":"Grundschule Ganztagsschule","phone_number":"+49 4421 60362","old_slug":null,"official_id":"39482","name":"Grundschule Rüstersiel","lon":8.109435,"lat":53.558002,"homepage_url":null,"federal_state_code":"NI","fax_number":null,"email_address":null,"city":"Wilhelmshaven"},{"zip_code":"26382","street":"Rheinstraße 73","school_type_entity":"Grundschule","school_type":"Grundschule","phone_number":"+49 4421 164300","old_slug":null,"official_id":"5137","name":"Grundschule Rheinstraße","lon":8.118486,"lat":53.517265,"homepage_url":null,"federal_state_code":"NI","fax_number":null,"email_address":null,"city":"Wilhelmshaven"},{"zip_code":"26388","street":"Warthestraße 10","school_type_entity":"FöS Lernen","school_type":"FöS Lernen","phone_number":"+49 4421 77828","old_slug":null,"official_id":"95448","name":"Förderzentrum Wilhelmshaven FöS Lernen und Sprache","lon":8.089595,"lat":53.571035,"homepage_url":null,"federal_state_code":"NI","fax_number":null,"email_address":null,"city":"Wilhelmshaven"},{"zip_code":"26388","street":"Warthestraße 10","school_type_entity":"FöS Sprache","school_type":"FöS Sprache","phone_number":"+49 4421 77828","old_slug":null,"official_id":"95448","name":"Förderzentrum Wilhelmshaven FöS Lernen und Sprache","lon":8.089595,"lat":53.571035,"homepage_url":null,"federal_state_code":"NI","fax_number":null,"email_address":null,"city":"Wilhelmshaven"},{"zip_code":"26382","street":"Mitscherlichstr. 23","school_type_entity":"Hauptschule","school_type":"Hauptschule","phone_number":"+49 4421 13339","old_slug":null,"official_id":"48628","name":"Franziskusschule Oberschule in kirchl. Trägerschaft","lon":8.107768,"lat":53.523363,"homepage_url":null,"federal_state_code":"NI","fax_number":null,"email_address":null,"city":"Wilhelmshaven"},{"zip_code":"26382","street":"Mitscherlichstr. 23","school_type_entity":"Realschule","school_type":"Realschule","phone_number":"+49 4421 13339","old_slug":null,"official_id":"48628","name":"Franziskusschule Oberschule in kirchl. Trägerschaft","lon":8.107768,"lat":53.523363,"homepage_url":null,"federal_state_code":"NI","fax_number":null,"email_address":null,"city":"Wilhelmshaven"},{"zip_code":"26382","street":"Mitscherlichstr. 23","school_type_entity":"Oberschule","school_type":"Oberschule","phone_number":"+49 4421 13339","old_slug":null,"official_id":"48628","name":"Franziskusschule Oberschule in kirchl. Trägerschaft","lon":8.107768,"lat":53.523363,"homepage_url":null,"federal_state_code":"NI","fax_number":null,"email_address":null,"city":"Wilhelmshaven"},{"zip_code":"26382","street":"Peterstraße 69","school_type_entity":"Gymnasium","school_type":"Gymnasium - SEK I -","phone_number":"+49 4421 21760","old_slug":null,"official_id":"68548","name":"Cäcilienschule Gymnasium in freier Trägerschaft","lon":8.106511,"lat":53.523068,"homepage_url":null,"federal_state_code":"NI","fax_number":null,"email_address":null,"city":"Wilhelmshaven"},{"zip_code":"26382","street":"Peterstraße 69","school_type_entity":"Gymnasium","school_type":"Gymnasium - SEK II -","phone_number":"+49 4421 21760","old_slug":null,"official_id":"68548","name":"Cäcilienschule Gymnasium in freier Trägerschaft","lon":8.106511,"lat":53.523068,"homepage_url":null,"federal_state_code":"NI","fax_number":null,"email_address":null,"city":"Wilhelmshaven"},{"zip_code":"27793","street":"St.-Peter-Str. 3","school_type_entity":"Grundschule","school_type":"Grundschule","phone_number":"+49 4431 709793","old_slug":null,"official_id":"29166","name":"St.-Peter-Schule Grundschule f. Schüler kath. Bek","lon":8.441507,"lat":52.892697,"homepage_url":null,"federal_state_code":"NI","fax_number":null,"email_address":null,"city":"Wildeshausen"},{"zip_code":"27793","street":"St.-Peter-Straße 2","school_type_entity":"Realschule","school_type":"Realschule Ganztagsschule","phone_number":"+49 4431 938130","old_slug":null,"official_id":"63824","name":"Realschule Wildeshausen","lon":8.439375,"lat":52.893253,"homepage_url":null,"federal_state_code":"NI","fax_number":null,"email_address":null,"city":"Wildeshausen"},{"zip_code":"27793","street":"Heemstr. 40","school_type_entity":"FöS Lernen","school_type":"FöS Lernen","phone_number":"+49 4431 748270","old_slug":null,"official_id":"95783","name":"Hunteschule Förderschule  Lernen","lon":8.434099,"lat":52.899107,"homepage_url":null,"federal_state_code":"NI","fax_number":null,"email_address":null,"city":"Wildeshausen"},{"zip_code":"27793","street":"Spasche 1","school_type_entity":"Integrierte Gesamtschule","school_type":"IGS/FWS - SEK I -","phone_number":"+49 4431 9486","old_slug":null,"official_id":"65389","name":"Gut Spascher Sand Privatschule gGmbH","lon":8.403486,"lat":52.904495,"homepage_url":null,"federal_state_code":"NI","fax_number":null,"email_address":null,"city":"Wildeshausen"},{"zip_code":"27793","street":"Spasche 1","school_type_entity":"Grundschule","school_type":"Grundschule","phone_number":"+49 4431 9486","old_slug":null,"official_id":"5903","name":"Gut Spascher Sand Privatschule gGmbH","lon":8.403486,"lat":52.904495,"homepage_url":null,"federal_state_code":"NI","fax_number":null,"email_address":null,"city":"Wildeshausen"},{"zip_code":"27793","street":"Dr.-Klingenberg-Str. 96a","school_type_entity":"Berufsbildende Schule","school_type":"Berufsbildende Schule(n)","phone_number":"+49 4431 9456964","old_slug":null,"official_id":"74834","name":"Fachschule Heilerziehungspflege Wildeshausen Lebenshilfe Landesverband Niedersachsen e.V.","lon":8.465645,"lat":52.906873,"homepage_url":null,"federal_state_code":"NI","fax_number":null,"email_address":null,"city":"Wildeshausen"},{"zip_code":"27793","street":"Dr.-Klingenberg-Str. 96a","school_type_entity":"Berufsbildende Schule","school_type":"Bildungsangebot","phone_number":"+49 4431 9456964","old_slug":null,"official_id":"74834","name":"Fachschule Heilerziehungspflege Wildeshausen Lebenshilfe Landesverband Niedersachsen e.V.","lon":8.465645,"lat":52.906873,"homepage_url":null,"federal_state_code":"NI","fax_number":null,"email_address":null,"city":"Wildeshausen"},{"zip_code":"31613","street":"Herrlichkeit 73","school_type_entity":"Grundschule","school_type":"Grundschule","phone_number":"+49 5022 640","old_slug":null,"official_id":"9210","name":"Grundschule Wietzen","lon":9.082962,"lat":52.712951,"homepage_url":null,"federal_state_code":"NI","fax_number":null,"email_address":null,"city":"Wietzen"},{"zip_code":"29323","street":"Schulstraße 2","school_type_entity":"Grundschule","school_type":"Grundschule","phone_number":"+49 5146 316","old_slug":null,"official_id":"42791","name":"Grundschule Wietze","lon":9.845154,"lat":52.650591,"homepage_url":null,"federal_state_code":"NI","fax_number":null,"email_address":null,"city":"Wietze"},{"zip_code":"29323","street":"Schulstraße 2","school_type_entity":"Grundschule","school_type":"Grundschule Ganztagsschule","phone_number":"+49 5146 316","old_slug":null,"official_id":"42791","name":"Grundschule Wietze","lon":9.845154,"lat":52.650591,"homepage_url":null,"federal_state_code":"NI","fax_number":null,"email_address":null,"city":"Wietze"},{"zip_code":"29323","street":"Schulstraße 2","school_type_entity":"Ganztagsschule","school_type":"Ganztagsschule","phone_number":"+49 5146 316","old_slug":null,"official_id":"42791","name":"Grundschule Wietze","lon":9.845154,"lat":52.650591,"homepage_url":null,"federal_state_code":"NI","fax_number":null,"email_address":null,"city":"Wietze"},{"zip_code":"29323","street":"Schulstraße 2","school_type_entity":"Ganztagsschule","school_type":"Ganztagsschule","phone_number":"+49 5146 316","old_slug":null,"official_id":"42791","name":"Grundschule Wietze","lon":9.845154,"lat":52.650591,"homepage_url":null,"federal_state_code":"NI","fax_number":null,"email_address":null,"city":"Wietze"},{"zip_code":"49835","street":"Schulstr. 18","school_type_entity":"Grundschule","school_type":"Grundschule Ganztagsschule","phone_number":"+49 5925 94977","old_slug":null,"official_id":"36997","name":"Sünte-Marien-Schule Grundschule Wietmarschen","lon":7.131816,"lat":52.521426,"homepage_url":null,"federal_state_code":"NI","fax_number":null,"email_address":null,"city":"Wietmarschen"},{"zip_code":"26639","street":"Schulstr. 6","school_type_entity":"Grundschule","school_type":"Grundschule","phone_number":"+49 4944 2179","old_slug":null,"official_id":"23620","name":"Grundschule Wiesmoor-Mitte","lon":7.734572,"lat":53.415178,"homepage_url":null,"federal_state_code":"NI","fax_number":null,"email_address":null,"city":"Wiesmoor"},{"zip_code":"26639","street":"Am Ottermeer 4","school_type_entity":"Grundschule","school_type":"Grundschule Ganztagsschule","phone_number":"+49 4944 2313","old_slug":null,"official_id":"23607","name":"Grundschule am Ottermeer mit sonderpädagogischem Schulzweig","lon":7.693037,"lat":53.40983,"homepage_url":null,"federal_state_code":"NI","fax_number":null,"email_address":null,"city":"Wiesmoor"},{"zip_code":"26639","street":"Am Ottermeer 4","school_type_entity":"FöS Geistige Entwicklung","school_type":"FöS Geistige Entwicklung","phone_number":"+49 4944 2313","old_slug":null,"official_id":"23607","name":"Grundschule am Ottermeer mit sonderpädagogischem Schulzweig","lon":7.693037,"lat":53.40983,"homepage_url":null,"federal_state_code":"NI","fax_number":null,"email_address":null,"city":"Wiesmoor"},{"zip_code":"26639","street":"Oldenburger Str. 212","school_type_entity":"Grundschule","school_type":"Grundschule","phone_number":"+49 4944 3242","old_slug":"26639-verlaessliche-grundschule-wiesmoor-sued","official_id":"23589","name":"Grundschule am Fehnkanal","lon":7.74981,"lat":53.380179,"homepage_url":"http://www.Grundschule-Wiesmoor-Sued.de","federal_state_code":"NI","fax_number":null,"email_address":"uwe@eyhusen.de","city":"Wiesmoor"},{"zip_code":"26215","street":"Schulweg 11","school_type_entity":"Grundschule","school_type":"Grundschule Volle Halbtagsschule","phone_number":"+49 441 6835838","old_slug":null,"official_id":"39652","name":"Grundschule Metjendorf","lon":8.174042,"lat":53.190411,"homepage_url":null,"federal_state_code":"NI","fax_number":null,"email_address":null,"city":"Wiefelstede"},{"zip_code":"28844","street":"Schulstraße 40","school_type_entity":"Kooperative Gesamtschule","school_type":"KGS - Hauptschule -","phone_number":"+49 421 2443230","old_slug":"28844-kooperative-gesamtschule-leeste","official_id":"84293","name":"Kooperative Gesamtschule Leeste","lon":8.817678,"lat":52.992541,"homepage_url":"http://www.kgs-leeste.de","federal_state_code":"NI","fax_number":null,"email_address":"info@kgs-leeste.de","city":"Weyhe-Leeste"},{"zip_code":"28844","street":"Schulstraße 40","school_type_entity":"Kooperative Gesamtschule","school_type":"KGS - Realschule -","phone_number":"+49 421 2443230","old_slug":"28844-kooperative-gesamtschule-leeste","official_id":"84293","name":"Kooperative Gesamtschule Leeste","lon":8.817678,"lat":52.992541,"homepage_url":"http://www.kgs-leeste.de","federal_state_code":"NI","fax_number":null,"email_address":"info@kgs-leeste.de","city":"Weyhe-Leeste"},{"zip_code":"28844","street":"Schulstraße 40","school_type_entity":"Kooperative Gesamtschule","school_type":"KGS - Gymnasium SEK I -","phone_number":"+49 421 2443230","old_slug":"28844-kooperative-gesamtschule-leeste","official_id":"84293","name":"Kooperative Gesamtschule Leeste","lon":8.817678,"lat":52.992541,"homepage_url":"http://www.kgs-leeste.de","federal_state_code":"NI","fax_number":null,"email_address":"info@kgs-leeste.de","city":"Weyhe-Leeste"},{"zip_code":"28844","street":"Schulstraße 40","school_type_entity":"Kooperative Gesamtschule","school_type":"KGS - Gymnasium SEK II - Ganztagsschule (o. ZB)","phone_number":"+49 421 2443230","old_slug":"28844-kooperative-gesamtschule-leeste","official_id":"84293","name":"Kooperative Gesamtschule Leeste","lon":8.817678,"lat":52.992541,"homepage_url":"http://www.kgs-leeste.de","federal_state_code":"NI","fax_number":null,"email_address":"info@kgs-leeste.de","city":"Weyhe-Leeste"},{"zip_code":"28844","street":"Hauptstr. 99","school_type_entity":"Kooperative Gesamtschule","school_type":"KGS - Hauptschule -","phone_number":"+49 4203 8128","old_slug":null,"official_id":"84281","name":"Kooperative Gesamtschule Kirchweyhe","lon":8.85901,"lat":52.979754,"homepage_url":null,"federal_state_code":"NI","fax_number":null,"email_address":null,"city":"Weyhe-Kirchweyhe"},{"zip_code":"28844","street":"Hauptstr. 99","school_type_entity":"Kooperative Gesamtschule","school_type":"KGS - Realschule -","phone_number":"+49 4203 8128","old_slug":null,"official_id":"84281","name":"Kooperative Gesamtschule Kirchweyhe","lon":8.85901,"lat":52.979754,"homepage_url":null,"federal_state_code":"NI","fax_number":null,"email_address":null,"city":"Weyhe-Kirchweyhe"},{"zip_code":"28844","street":"Hauptstr. 99","school_type_entity":"Kooperative Gesamtschule","school_type":"KGS - Gymnasium SEK I -","phone_number":"+49 4203 8128","old_slug":null,"official_id":"84281","name":"Kooperative Gesamtschule Kirchweyhe","lon":8.85901,"lat":52.979754,"homepage_url":null,"federal_state_code":"NI","fax_number":null,"email_address":null,"city":"Weyhe-Kirchweyhe"},{"zip_code":"28844","street":"Hauptstr. 99","school_type_entity":"Ganztagsschule","school_type":"Ganztagsschule (o. ZB)","phone_number":"+49 4203 8128","old_slug":null,"official_id":"84281","name":"Kooperative Gesamtschule Kirchweyhe","lon":8.85901,"lat":52.979754,"homepage_url":null,"federal_state_code":"NI","fax_number":null,"email_address":null,"city":"Weyhe-Kirchweyhe"},{"zip_code":"28844","street":"Ladestraße 5","school_type_entity":"Grundschule","school_type":"Grundschule","phone_number":"+49 421 87757790","old_slug":null,"official_id":"6154","name":"Hundertwassergrundschule Leeste","lon":8.819759,"lat":52.993258,"homepage_url":null,"federal_state_code":"NI","fax_number":null,"email_address":null,"city":"Weyhe"},{"zip_code":"28844","street":"Lahauser Straße 32","school_type_entity":"Grundschule","school_type":"Grundschule","phone_number":"+49 4203 4373880","old_slug":null,"official_id":"5551","name":"Grundschule Lahausen","lon":8.842617,"lat":52.969465,"homepage_url":null,"federal_state_code":"NI","fax_number":null,"email_address":null,"city":"Weyhe"},{"zip_code":"28844","street":"Auf dem Geestfelde 87","school_type_entity":"Schulkindergarten","school_type":"Schulkindergarten","phone_number":"+49 4203 1455","old_slug":null,"official_id":"6476","name":"Grundschule Kirchweyhe","lon":8.865536,"lat":52.993729,"homepage_url":null,"federal_state_code":"NI","fax_number":null,"email_address":null,"city":"Weyhe"},{"zip_code":"28844","street":"Auf dem Geestfelde 87","school_type_entity":"Grundschule","school_type":"Grundschule","phone_number":"+49 4203 1455","old_slug":null,"official_id":"6476","name":"Grundschule Kirchweyhe","lon":8.865536,"lat":52.993729,"homepage_url":null,"federal_state_code":"NI","fax_number":null,"email_address":null,"city":"Weyhe"},{"zip_code":"26810","street":"Humboldtstr. 2","school_type_entity":"Grundschule","school_type":"Grundschule","phone_number":"+49 4955 920164","old_slug":null,"official_id":"36134","name":"Verlässliche Grundschule Ihrhove","lon":7.457509,"lat":53.162684,"homepage_url":null,"federal_state_code":"NI","fax_number":null,"email_address":null,"city":"Westoverledingen"},{"zip_code":"26810","street":"Schulstraße 27","school_type_entity":"Grundschule","school_type":"Grundschule","phone_number":"+49 4955 972131","old_slug":null,"official_id":"38076","name":"Verlässliche Grundschule Steenfelde/Großwolde","lon":7.458967,"lat":53.136433,"homepage_url":null,"federal_state_code":"NI","fax_number":null,"email_address":null,"city":"Westoverledingen"},{"zip_code":"26810","street":"Schulstr. 17","school_type_entity":"Hauptschule","school_type":"Hauptschule","phone_number":"+49 4955 7033","old_slug":null,"official_id":"44556","name":"Schulzentrum Collhusen Haupt- und Realschule","lon":7.462259,"lat":53.138329,"homepage_url":null,"federal_state_code":"NI","fax_number":null,"email_address":null,"city":"Westoverledingen"},{"zip_code":"26810","street":"Schulstr. 17","school_type_entity":"Realschule","school_type":"Realschule","phone_number":"+49 4955 7033","old_slug":null,"official_id":"44556","name":"Schulzentrum Collhusen Haupt- und Realschule","lon":7.462259,"lat":53.138329,"homepage_url":null,"federal_state_code":"NI","fax_number":null,"email_address":null,"city":"Westoverledingen"},{"zip_code":"26810","street":"Ihrener Str. 179","school_type_entity":"Grundschule","school_type":"Grundschule","phone_number":"+49 4955 920171","old_slug":null,"official_id":"38088","name":"Grundschule Ihren","lon":7.47312,"lat":53.147674,"homepage_url":null,"federal_state_code":"NI","fax_number":null,"email_address":null,"city":"Westoverledingen"},{"zip_code":"26810","street":"Am Denkmal 14","school_type_entity":"Grundschule","school_type":"Grundschule","phone_number":"+49 4955 972113","old_slug":null,"official_id":"23140","name":"Grundschule Flachsmeer","lon":7.46589,"lat":53.121215,"homepage_url":null,"federal_state_code":"NI","fax_number":null,"email_address":null,"city":"Westoverledingen"},{"zip_code":"26655","street":"Zum Hullen 1","school_type_entity":"FöS Emotionale+soziale Entwicklung","school_type":"FöS Emotionale+soziale Entw.","phone_number":"+49 4488 86032","old_slug":null,"official_id":"93336","name":"Carlo Collodi Schule FöS Schwpt. soz. u. emot. Entw. staatl. anerk. Ersatzsch","lon":7.964977,"lat":53.278474,"homepage_url":null,"federal_state_code":"NI","fax_number":null,"email_address":null,"city":"Westerstede-Linswege"},{"zip_code":"26655","street":"Heinz-Boehnke-Str. 3","school_type_entity":"Hauptschule","school_type":"Hauptschule Ganztagsschule","phone_number":"+49 4488 84570","old_slug":null,"official_id":"48926","name":"Robert-Dannemann-Schule Oberschule mit gymn. Angebot","lon":7.91667,"lat":53.25,"homepage_url":null,"federal_state_code":"NI","fax_number":null,"email_address":null,"city":"Westerstede"},{"zip_code":"26655","street":"Heinz-Boehnke-Str. 3","school_type_entity":"Realschule","school_type":"Realschule Ganztagsschule","phone_number":"+49 4488 84570","old_slug":null,"official_id":"48926","name":"Robert-Dannemann-Schule Oberschule mit gymn. Angebot","lon":7.91667,"lat":53.25,"homepage_url":null,"federal_state_code":"NI","fax_number":null,"email_address":null,"city":"Westerstede"},{"zip_code":"26655","street":"Heinz-Boehnke-Str. 3","school_type_entity":"Oberschule","school_type":"Oberschule","phone_number":"+49 4488 84570","old_slug":null,"official_id":"48926","name":"Robert-Dannemann-Schule Oberschule mit gymn. Angebot","lon":7.91667,"lat":53.25,"homepage_url":null,"federal_state_code":"NI","fax_number":null,"email_address":null,"city":"Westerstede"},{"zip_code":"26655","street":"Gartenstraße 16","school_type_entity":"Gymnasium","school_type":"Gymnasium - SEK I - Ganztagsschule (o. ZB)","phone_number":"+49 4488 8455","old_slug":"26655-gymnasium-westerstede-europaschule","official_id":"68573","name":"Gymnasium Westerstede Europaschule","lon":7.925956,"lat":53.253265,"homepage_url":"http://www.gymnasium-westerstede.de","federal_state_code":"NI","fax_number":"04488-8455-55","email_address":"schulleitung@gymnasium-westerstede.de","city":"Westerstede"},{"zip_code":"26655","street":"Gartenstraße 16","school_type_entity":"Gymnasium","school_type":"Gymnasium - SEK II -","phone_number":"+49 4488 8455","old_slug":"26655-gymnasium-westerstede-europaschule","official_id":"68573","name":"Gymnasium Westerstede Europaschule","lon":7.925956,"lat":53.253265,"homepage_url":"http://www.gymnasium-westerstede.de","federal_state_code":"NI","fax_number":"04488-8455-55","email_address":"schulleitung@gymnasium-westerstede.de","city":"Westerstede"},{"zip_code":"26655","street":"Schoolstraat 9","school_type_entity":"Grundschule","school_type":"Grundschule Volle Halbtagsschule","phone_number":"+49 4488 2634","old_slug":null,"official_id":"27881","name":"Grundschule Westerloy","lon":7.878938,"lat":53.237614,"homepage_url":null,"federal_state_code":"NI","fax_number":null,"email_address":null,"city":"Westerstede"},{"zip_code":"26556","street":"Ewigsweg 9","school_type_entity":"Schulkindergarten","school_type":"Schulkindergarten","phone_number":"+49 4975 990081","old_slug":"26556-christian-wilhelm-schneider-schule-foerderschule-esens-aussenstelle-westerholt","official_id":"24909","name":"Grundschule Westerholt","lon":7.451927,"lat":53.59134,"homepage_url":"http://www.fs-westerholt.holtriem.de","federal_state_code":"NI","fax_number":"04975 779938","email_address":"fswesterholt@aol.com","city":"Westerholt"},{"zip_code":"26556","street":"Ewigsweg 9","school_type_entity":"Grundschule","school_type":"Grundschule Volle Halbtagsschule","phone_number":"+49 4975 990081","old_slug":"26556-christian-wilhelm-schneider-schule-foerderschule-esens-aussenstelle-westerholt","official_id":"24909","name":"Grundschule Westerholt","lon":7.451927,"lat":53.59134,"homepage_url":"http://www.fs-westerholt.holtriem.de","federal_state_code":"NI","fax_number":"04975 779938","email_address":"fswesterholt@aol.com","city":"Westerholt"},{"zip_code":"26556","street":"Ewigsweg 13","school_type_entity":"Hauptschule","school_type":"Hauptschule","phone_number":"+49 4975 7787","old_slug":null,"official_id":"44684","name":"David-Fabricius-Oberschule Westerholt","lon":7.450002,"lat":53.592339,"homepage_url":null,"federal_state_code":"NI","fax_number":null,"email_address":null,"city":"Westerholt"},{"zip_code":"26556","street":"Ewigsweg 13","school_type_entity":"Realschule","school_type":"Realschule","phone_number":"+49 4975 7787","old_slug":null,"official_id":"44684","name":"David-Fabricius-Oberschule Westerholt","lon":7.450002,"lat":53.592339,"homepage_url":null,"federal_state_code":"NI","fax_number":null,"email_address":null,"city":"Westerholt"},{"zip_code":"26556","street":"Ewigsweg 13","school_type_entity":"Ganztagsschule","school_type":"Ganztagsschule (o. ZB)","phone_number":"+49 4975 7787","old_slug":null,"official_id":"44684","name":"David-Fabricius-Oberschule Westerholt","lon":7.450002,"lat":53.592339,"homepage_url":null,"federal_state_code":"NI","fax_number":null,"email_address":null,"city":"Westerholt"},{"zip_code":"26556","street":"Ewigsweg 13","school_type_entity":"Oberschule","school_type":"Oberschule","phone_number":"+49 4975 7787","old_slug":null,"official_id":"44684","name":"David-Fabricius-Oberschule Westerholt","lon":7.450002,"lat":53.592339,"homepage_url":null,"federal_state_code":"NI","fax_number":null,"email_address":null,"city":"Westerholt"},{"zip_code":"21394","street":"Hauptstraße 22","school_type_entity":"Grundschule","school_type":"Grundschule","phone_number":"+49 4135 870278","old_slug":null,"official_id":"15751","name":"Grundschule Westergellersen","lon":10.2449,"lat":53.235348,"homepage_url":null,"federal_state_code":"NI","fax_number":null,"email_address":null,"city":"Westergellersen"},{"zip_code":"49757","street":"Wehmer Str. 96","school_type_entity":"Grundschule","school_type":"Grundschule","phone_number":"+49 5951 2350","old_slug":null,"official_id":"19975","name":"Verlässliche Grundschule Wehm","lon":7.665224,"lat":52.832139,"homepage_url":null,"federal_state_code":"NI","fax_number":null,"email_address":null,"city":"Werlte"},{"zip_code":"49757","street":"Kolpingstr. 6","school_type_entity":"Gymnasium","school_type":"Gymnasium - SEK I - Ganztagsschule","phone_number":"+49 5951 8338090","old_slug":null,"official_id":"68007","name":"Gymnasium Werlte","lon":7.677764,"lat":52.854391,"homepage_url":null,"federal_state_code":"NI","fax_number":null,"email_address":null,"city":"Werlte"},{"zip_code":"49757","street":"Marktstraße 10","school_type_entity":"Schulkindergarten","school_type":"Schulkindergarten","phone_number":"+49 5951 4506","old_slug":null,"official_id":"19902","name":"Grundschule Werlte","lon":7.677169,"lat":52.852128,"homepage_url":null,"federal_state_code":"NI","fax_number":null,"email_address":null,"city":"Werlte"},{"zip_code":"49757","street":"Marktstraße 10","school_type_entity":"Grundschule","school_type":"Grundschule","phone_number":"+49 5951 4506","old_slug":null,"official_id":"19902","name":"Grundschule Werlte","lon":7.677169,"lat":52.852128,"homepage_url":null,"federal_state_code":"NI","fax_number":null,"email_address":null,"city":"Werlte"},{"zip_code":"30974","street":"Schulstr. 14","school_type_entity":"Grundschule","school_type":"Grundschule","phone_number":"+49 5109 569890","old_slug":null,"official_id":"31392","name":"Grundschule Bredenbeck","lon":9.625158,"lat":52.256428,"homepage_url":null,"federal_state_code":"NI","fax_number":null,"email_address":null,"city":"Wennigsen"},{"zip_code":"30974","street":"Weetzener Straße 1","school_type_entity":"Integrierte Gesamtschule","school_type":"IGS/FWS-Primarstufe","phone_number":"+49 5109 529550","old_slug":null,"official_id":"88134","name":"Freie Waldorfschule Sorsum e. V.","lon":9.606854,"lat":52.28021,"homepage_url":null,"federal_state_code":"NI","fax_number":null,"email_address":null,"city":"Wennigsen"},{"zip_code":"30974","street":"Weetzener Straße 1","school_type_entity":"Integrierte Gesamtschule","school_type":"IGS/FWS - SEK I - Ganztagsschule","phone_number":"+49 5109 529550","old_slug":null,"official_id":"88134","name":"Freie Waldorfschule Sorsum e. V.","lon":9.606854,"lat":52.28021,"homepage_url":null,"federal_state_code":"NI","fax_number":null,"email_address":null,"city":"Wennigsen"},{"zip_code":"21403","street":"Ringstraße 10","school_type_entity":"Grundschule","school_type":"Grundschule","phone_number":"+49 4131 53544","old_slug":null,"official_id":"15726","name":"Grundschule Wendisch Evern","lon":10.474638,"lat":53.215424,"homepage_url":null,"federal_state_code":"NI","fax_number":null,"email_address":null,"city":"Wendisch Evern"},{"zip_code":"26826","street":"Bgm.-Werner-Str. 32","school_type_entity":"FöS Lernen","school_type":"FöS Lernen","phone_number":"+49 4951 2376","old_slug":null,"official_id":"94122","name":"Pestalozzischule FöS Schwpt. Lernen u. geist. Entwicklu","lon":7.35639,"lat":53.16917,"homepage_url":null,"federal_state_code":"NI","fax_number":null,"email_address":null,"city":"Weener"},{"zip_code":"26826","street":"Bgm.-Werner-Str. 32","school_type_entity":"FöS Geistige Entwicklung","school_type":"FöS Geistige Entwicklung","phone_number":"+49 4951 2376","old_slug":null,"official_id":"94122","name":"Pestalozzischule FöS Schwpt. Lernen u. geist. Entwicklu","lon":7.35639,"lat":53.16917,"homepage_url":null,"federal_state_code":"NI","fax_number":null,"email_address":null,"city":"Weener"},{"zip_code":"26826","street":"Wiesenstr. 4","school_type_entity":"Hauptschule","school_type":"Hauptschule","phone_number":"+49 4951 751","old_slug":null,"official_id":"44428","name":"OBS Weener mit gymnasialem Zweig u. Außenstelle Floorenstrasse","lon":7.343625,"lat":53.164415,"homepage_url":null,"federal_state_code":"NI","fax_number":null,"email_address":null,"city":"Weener"},{"zip_code":"26826","street":"Wiesenstr. 4","school_type_entity":"Oberschule","school_type":"Oberschule","phone_number":"+49 4951 751","old_slug":null,"official_id":"44428","name":"OBS Weener mit gymnasialem Zweig u. Außenstelle Floorenstrasse","lon":7.343625,"lat":53.164415,"homepage_url":null,"federal_state_code":"NI","fax_number":null,"email_address":null,"city":"Weener"},{"zip_code":"26826","street":"Wiesenstr. 2","school_type_entity":"Schulkindergarten","school_type":"Schulkindergarten","phone_number":"+49 4951 2146","old_slug":null,"official_id":"24089","name":"Grundschule Weener","lon":7.34459,"lat":53.164463,"homepage_url":null,"federal_state_code":"NI","fax_number":null,"email_address":null,"city":"Weener"},{"zip_code":"26826","street":"Wiesenstr. 2","school_type_entity":"Grundschule","school_type":"Grundschule","phone_number":"+49 4951 2146","old_slug":null,"official_id":"24089","name":"Grundschule Weener","lon":7.34459,"lat":53.164463,"homepage_url":null,"federal_state_code":"NI","fax_number":null,"email_address":null,"city":"Weener"},{"zip_code":"30900","street":"Am Langen Felde 15","school_type_entity":"Hauptschule","school_type":"Hauptschule","phone_number":"+49 5130 5389","old_slug":null,"official_id":"40848","name":"Konrad-Adenauer-Schule auslaufend ab 01.08.15","lon":9.734156,"lat":52.548096,"homepage_url":null,"federal_state_code":"NI","fax_number":null,"email_address":null,"city":"Wedemark-Mellendorf"},{"zip_code":"30900","street":"Williges Worth 8","school_type_entity":"FöS Geistige Entwicklung","school_type":"FöS Geistige Entwicklung Ganztägiger Unterricht an FöS GB/KM","phone_number":"+49 5130 92960","old_slug":null,"official_id":"91121","name":"Schule Unter den Eichen Förderschule Schwpt. geist. Entwicklung","lon":9.73181,"lat":52.544537,"homepage_url":null,"federal_state_code":"NI","fax_number":null,"email_address":null,"city":"Wedemark"},{"zip_code":"30900","street":"Am Langen Felde 13","school_type_entity":"Realschule","school_type":"Realschule","phone_number":"+49 5130 581410","old_slug":null,"official_id":"60574","name":"Realschule Wedemark","lon":9.735436,"lat":52.548188,"homepage_url":null,"federal_state_code":"NI","fax_number":null,"email_address":null,"city":"Wedemark"},{"zip_code":"30900","street":"Am Wietzestrand 29","school_type_entity":"Grundschule","school_type":"Grundschule","phone_number":null,"old_slug":null,"official_id":"5101","name":"Grundschule mit besonderer päd. Bedeutung Montessori - Grundschule","lon":9.791233,"lat":52.515989,"homepage_url":null,"federal_state_code":"NI","fax_number":null,"email_address":null,"city":"Wedemark"},{"zip_code":"30900","street":"Am Roye-Platz 3","school_type_entity":"Grundschule","school_type":"Grundschule","phone_number":"+49 5130 5393","old_slug":null,"official_id":"8801","name":"Grundschule Mellendorf","lon":9.736701,"lat":52.54882,"homepage_url":null,"federal_state_code":"NI","fax_number":null,"email_address":null,"city":"Wedemark"},{"zip_code":"30900","street":"Wasserwerkstr. 40","school_type_entity":"Grundschule","school_type":"Grundschule","phone_number":"+49 5130 4655","old_slug":null,"official_id":"31987","name":"Grundschule Elze","lon":9.736961,"lat":52.580167,"homepage_url":null,"federal_state_code":"NI","fax_number":null,"email_address":null,"city":"Wedemark"},{"zip_code":"30900","street":"Gilborn 6","school_type_entity":"FöS Lernen","school_type":"FöS Lernen Volle Halbtagsschule","phone_number":"+49 5130 92980","old_slug":null,"official_id":"91273","name":"Berthold-Otto-Schule Förderschule Schwerpunkt Lernen","lon":9.730421,"lat":52.5439,"homepage_url":null,"federal_state_code":"NI","fax_number":null,"email_address":null,"city":"Wedemark"},{"zip_code":"29339","street":"Kantallee 10","school_type_entity":"Hauptschule","school_type":"Hauptschule","phone_number":"+49 5144 49400","old_slug":null,"official_id":"42766","name":"Oberschule Wathlingen mit gymn. Angebot","lon":10.14078,"lat":52.537553,"homepage_url":null,"federal_state_code":"NI","fax_number":null,"email_address":null,"city":"Wathlingen"},{"zip_code":"29339","street":"Kantallee 10","school_type_entity":"Realschule","school_type":"Realschule","phone_number":"+49 5144 49400","old_slug":null,"official_id":"42766","name":"Oberschule Wathlingen mit gymn. Angebot","lon":10.14078,"lat":52.537553,"homepage_url":null,"federal_state_code":"NI","fax_number":null,"email_address":null,"city":"Wathlingen"},{"zip_code":"29339","street":"Kantallee 10","school_type_entity":"Oberschule","school_type":"Oberschule","phone_number":"+49 5144 49400","old_slug":null,"official_id":"42766","name":"Oberschule Wathlingen mit gymn. Angebot","lon":10.14078,"lat":52.537553,"homepage_url":null,"federal_state_code":"NI","fax_number":null,"email_address":null,"city":"Wathlingen"},{"zip_code":"29339","street":"Schulstraße 20","school_type_entity":"FöS Lernen","school_type":"FöS Lernen","phone_number":"+49 5144 8575","old_slug":null,"official_id":"92137","name":"Janusz-Korczak-Schule Förderschule Schwerpunkt Lernen","lon":10.148312,"lat":52.538845,"homepage_url":null,"federal_state_code":"NI","fax_number":null,"email_address":null,"city":"Wathlingen"},{"zip_code":"26203","street":"Tungelerdamm 193","school_type_entity":"FöS Lernen","school_type":"FöS Lernen","phone_number":"+49 4407 1401","old_slug":null,"official_id":"95771","name":"Letheschule Förderschule Schwerpunkt Lernen","lon":8.19667,"lat":53.06167,"homepage_url":null,"federal_state_code":"NI","fax_number":null,"email_address":null,"city":"Wardenburg"},{"zip_code":"26203","street":"Am Everkamp 1","school_type_entity":"Integrierte Gesamtschule","school_type":"IGS/FWS - SEK I -","phone_number":"+49 4407 7174","old_slug":"26203-everkampschule","official_id":"80226","name":"Integrierte Gesamtschule am Everkamp","lon":8.204509,"lat":53.064296,"homepage_url":"http://www.everkamp-schule.kwe.de/","federal_state_code":"NI","fax_number":"04407/927822","email_address":"everkamp@kwe.de","city":"Wardenburg"},{"zip_code":"26203","street":"Litteler Straße 3","school_type_entity":"Schulkindergarten","school_type":"Schulkindergarten","phone_number":"+49 4407 20825","old_slug":"26203-grundschule-wardenburg","official_id":"29087","name":"Grundschule Wardenburg VGS","lon":8.195015,"lat":53.058678,"homepage_url":"http://www.gswardenburg.de","federal_state_code":"NI","fax_number":"04407-927838","email_address":"gs.wardenburg@ewetel.net","city":"Wardenburg"},{"zip_code":"26203","street":"Litteler Straße 3","school_type_entity":"Grundschule","school_type":"Grundschule","phone_number":"+49 4407 20825","old_slug":"26203-grundschule-wardenburg","official_id":"29087","name":"Grundschule Wardenburg VGS","lon":8.195015,"lat":53.058678,"homepage_url":"http://www.gswardenburg.de","federal_state_code":"NI","fax_number":"04407-927838","email_address":"gs.wardenburg@ewetel.net","city":"Wardenburg"},{"zip_code":"21776","street":"Landesstr. 76","school_type_entity":"Grundschule","school_type":"Grundschule","phone_number":"+49 4757 212","old_slug":"21776-grundschule-wanna","official_id":"35543","name":"Prof.-Hermann-Rauhe-Schule Offene Ganztagsgrundschule","lon":8.800398,"lat":53.742414,"homepage_url":"http://www.grundschule-wanna.de","federal_state_code":"NI","fax_number":"04757-820166","email_address":"gswanna@t-online.de","city":"Wanna"},{"zip_code":"26486","street":"Charlottenstr. 33","school_type_entity":"Hauptschule","school_type":"Hauptschule","phone_number":"+49 4469 942041","old_slug":null,"official_id":"68743","name":"Inselschule Nordseebad Wangerooge Gymnasium - Sek I -","lon":7.904236,"lat":53.790932,"homepage_url":null,"federal_state_code":"NI","fax_number":null,"email_address":null,"city":"Wangerooge"},{"zip_code":"26486","street":"Charlottenstr. 33","school_type_entity":"Realschule","school_type":"Realschule","phone_number":"+49 4469 942041","old_slug":null,"official_id":"68743","name":"Inselschule Nordseebad Wangerooge Gymnasium - Sek I -","lon":7.904236,"lat":53.790932,"homepage_url":null,"federal_state_code":"NI","fax_number":null,"email_address":null,"city":"Wangerooge"},{"zip_code":"26486","street":"Charlottenstr. 33","school_type_entity":"Gymnasium","school_type":"Gymnasium - SEK I - Ganztagsschule (o. ZB)","phone_number":"+49 4469 942041","old_slug":null,"official_id":"68743","name":"Inselschule Nordseebad Wangerooge Gymnasium - Sek I -","lon":7.904236,"lat":53.790932,"homepage_url":null,"federal_state_code":"NI","fax_number":null,"email_address":null,"city":"Wangerooge"},{"zip_code":"26486","street":"Charlottenstr. 33","school_type_entity":"FöS Lernen","school_type":"FöS Lernen","phone_number":"+49 4469 942041","old_slug":null,"official_id":"68743","name":"Inselschule Nordseebad Wangerooge Gymnasium - Sek I -","lon":7.904236,"lat":53.790932,"homepage_url":null,"federal_state_code":"NI","fax_number":null,"email_address":null,"city":"Wangerooge"},{"zip_code":"26486","street":"Charlottenstrasse 33","school_type_entity":"Grundschule","school_type":"Grundschule Volle Halbtagsschule","phone_number":"+49 4469 942041","old_slug":"26486-inselschule-wangerooge","official_id":"28848","name":"Grundschule Wangerooge","lon":7.904236,"lat":53.790932,"homepage_url":"http://www.inselschule.net/","federal_state_code":"NI","fax_number":"04469-942044","email_address":"jlange@inselschule.de","city":"Wangerooge"},{"zip_code":"26434","street":"August-Hinrichs-Str. 10","school_type_entity":"Hauptschule","school_type":"Hauptschule","phone_number":"+49 4463 808900","old_slug":"26434-oberschule-hohenkirchen","official_id":"49578","name":"Oberschule Hohenkirchen","lon":7.918624,"lat":53.659673,"homepage_url":"http://www.nibis.ni.schule.de/~hokarken/","federal_state_code":"NI","fax_number":"0 44 63 / 80 89 0 31","email_address":"oberschule-hohenkirchen@ewe.net","city":"Wangerland"},{"zip_code":"26434","street":"August-Hinrichs-Str. 10","school_type_entity":"Realschule","school_type":"Realschule","phone_number":"+49 4463 808900","old_slug":"26434-oberschule-hohenkirchen","official_id":"49578","name":"Oberschule Hohenkirchen","lon":7.918624,"lat":53.659673,"homepage_url":"http://www.nibis.ni.schule.de/~hokarken/","federal_state_code":"NI","fax_number":"0 44 63 / 80 89 0 31","email_address":"oberschule-hohenkirchen@ewe.net","city":"Wangerland"},{"zip_code":"26434","street":"August-Hinrichs-Str. 10","school_type_entity":"Oberschule","school_type":"Oberschule","phone_number":"+49 4463 808900","old_slug":"26434-oberschule-hohenkirchen","official_id":"49578","name":"Oberschule Hohenkirchen","lon":7.918624,"lat":53.659673,"homepage_url":"http://www.nibis.ni.schule.de/~hokarken/","federal_state_code":"NI","fax_number":"0 44 63 / 80 89 0 31","email_address":"oberschule-hohenkirchen@ewe.net","city":"Wangerland"},{"zip_code":"29654","street":"Albrecht-Thaer-Str. 2a","school_type_entity":"FöS Emotionale+soziale Entwicklung","school_type":"FöS Emotionale+soziale Entw.","phone_number":"+49 5161 603070","old_slug":null,"official_id":"90888","name":"Pestalozzi-Schule Walsrode Ersatzsch. f. Erziehungsh.u.g. E.","lon":9.597357,"lat":52.85082,"homepage_url":null,"federal_state_code":"NI","fax_number":null,"email_address":null,"city":"Walsrode"},{"zip_code":"29654","street":"Albrecht-Thaer-Str. 2a","school_type_entity":"FöS Geistige Entwicklung","school_type":"FöS Geistige Entwicklung","phone_number":"+49 5161 603070","old_slug":null,"official_id":"90888","name":"Pestalozzi-Schule Walsrode Ersatzsch. f. Erziehungsh.u.g. E.","lon":9.597357,"lat":52.85082,"homepage_url":null,"federal_state_code":"NI","fax_number":null,"email_address":null,"city":"Walsrode"},{"zip_code":"29664","street":"Auf dem Kamp 8","school_type_entity":"Grundschule","school_type":"Grundschule","phone_number":"+49 5161 3394","old_slug":null,"official_id":"33625","name":"Ludwig-Rahlfs-Schule Verlässliche Grundschule","lon":9.624633,"lat":52.828977,"homepage_url":null,"federal_state_code":"NI","fax_number":null,"email_address":null,"city":"Walsrode"},{"zip_code":"29664","street":"Prager Straße 2","school_type_entity":"Grundschule","school_type":"Grundschule","phone_number":"+49 5161 2475","old_slug":null,"official_id":"5502","name":"Grundschule Süd","lon":9.587669,"lat":52.855569,"homepage_url":null,"federal_state_code":"NI","fax_number":null,"email_address":null,"city":"Walsrode"},{"zip_code":"29664","street":"Kirchboitzen 131","school_type_entity":"Grundschule","school_type":"Grundschule Ganztagsschule","phone_number":"+49 5166 406","old_slug":null,"official_id":"33637","name":"Grundschule Kirchboitzen","lon":9.486586,"lat":52.827265,"homepage_url":null,"federal_state_code":"NI","fax_number":null,"email_address":null,"city":"Walsrode"},