[
    {

        "zipcode": "01945",
        "city": "Gr\u00fcnewald",
        "state": "Brandenburg",
        "community": "Landkreis Oberspreewald-Lausitz",
        "latitude": 51.4,
        "longitude": 14.0
    },
    {

        "zipcode": "01945",
        "city": "Lindenau",
        "state": "Brandenburg",
        "community": "Landkreis Oberspreewald-Lausitz",
        "latitude": 51.4,
        "longitude": 13.7333
    },
    {

        "zipcode": "01945",
        "city": "Hohenbocka",
        "state": "Brandenburg",
        "community": "Landkreis Oberspreewald-Lausitz",
        "latitude": 51.431,
        "longitude": 14.0098
    },
    {

        "zipcode": "01945",
        "city": "Schwarzbach",
        "state": "Brandenburg",
        "community": "Landkreis Oberspreewald-Lausitz",
        "latitude": 51.45,
        "longitude": 13.9333
    },
    {

        "zipcode": "01945",
        "city": "Guteborn",
        "state": "Brandenburg",
        "community": "Landkreis Oberspreewald-Lausitz",
        "latitude": 51.4167,
        "longitude": 13.9333
    },
    {

        "zipcode": "01945",
        "city": "Hermsdorf",
        "state": "Brandenburg",
        "community": "Landkreis Oberspreewald-Lausitz",
        "latitude": 51.4055,
        "longitude": 13.8937
    },
    {

        "zipcode": "01945",
        "city": "Ruhland",
        "state": "Brandenburg",
        "community": "Landkreis Oberspreewald-Lausitz",
        "latitude": 51.4576,
        "longitude": 13.8664
    },
    {

        "zipcode": "01945",
        "city": "Tettau",
        "state": "Brandenburg",
        "community": "Landkreis Oberspreewald-Lausitz",
        "latitude": 51.4333,
        "longitude": 13.7333
    },
    {

        "zipcode": "01945",
        "city": "Kroppen",
        "state": "Brandenburg",
        "community": "Landkreis Oberspreewald-Lausitz",
        "latitude": 51.3833,
        "longitude": 13.8
    },
    {

        "zipcode": "01968",
        "city": "Schipkau H\u00f6rlitz",
        "state": "Brandenburg",
        "community": "Landkreis Oberspreewald-Lausitz",
        "latitude": 51.5299,
        "longitude": 13.9508
    },
    {

        "zipcode": "01968",
        "city": "Senftenberg",
        "state": "Brandenburg",
        "community": "Landkreis Oberspreewald-Lausitz",
        "latitude": 51.5252,
        "longitude": 14.0016
    },
    {

        "zipcode": "01968",
        "city": "Schipkau",
        "state": "Brandenburg",
        "community": "Landkreis Oberspreewald-Lausitz",
        "latitude": 51.5456,
        "longitude": 13.9121
    },
    {

        "zipcode": "01979",
        "city": "Lauchhammer",
        "state": "Brandenburg",
        "community": "Landkreis Oberspreewald-Lausitz",
        "latitude": 51.4881,
        "longitude": 13.7662
    },
    {

        "zipcode": "01983",
        "city": "Neu-Seeland",
        "state": "Brandenburg",
        "community": "Landkreis Oberspreewald-Lausitz",
        "latitude": 51.6214,
        "longitude": 14.1309
    },
    {

        "zipcode": "01983",
        "city": "Gro\u00dfr\u00e4schen",
        "state": "Brandenburg",
        "community": "Landkreis Oberspreewald-Lausitz",
        "latitude": 51.5876,
        "longitude": 14.0109
    },
    {

        "zipcode": "01987",
        "city": "Schwarzheide",
        "state": "Brandenburg",
        "community": "Landkreis Oberspreewald-Lausitz",
        "latitude": 51.4767,
        "longitude": 13.8556
    },
    {

        "zipcode": "01990",
        "city": "Ortrand",
        "state": "Brandenburg",
        "community": "Landkreis Oberspreewald-Lausitz",
        "latitude": 51.375,
        "longitude": 13.7598
    },
    {

        "zipcode": "01990",
        "city": "Gro\u00dfkmehlen",
        "state": "Brandenburg",
        "community": "Landkreis Oberspreewald-Lausitz",
        "latitude": 51.379,
        "longitude": 13.725
    },
    {

        "zipcode": "01990",
        "city": "Frauendorf",
        "state": "Brandenburg",
        "community": "Landkreis Oberspreewald-Lausitz",
        "latitude": 51.4148,
        "longitude": 13.7696
    },
    {

        "zipcode": "01993",
        "city": "Schipkau Schipkau",
        "state": "Brandenburg",
        "community": "Landkreis Oberspreewald-Lausitz",
        "latitude": 51.5101,
        "longitude": 13.8981
    },
    {

        "zipcode": "01993",
        "city": "Schipkau",
        "state": "Brandenburg",
        "community": "Landkreis Oberspreewald-Lausitz",
        "latitude": 51.5456,
        "longitude": 13.9121
    },
    {

        "zipcode": "01994",
        "city": "Schipkau Annah\u00fctte, Annah\u00fctte",
        "state": "Brandenburg",
        "community": "Landkreis Oberspreewald-Lausitz",
        "latitude": 51.5632,
        "longitude": 13.8955
    },
    {

        "zipcode": "01994",
        "city": "Schipkau Annah\u00fctte, Karl-Marx-Siedlung",
        "state": "Brandenburg",
        "community": "Landkreis Oberspreewald-Lausitz",
        "latitude": 51.5641,
        "longitude": 13.8692
    },
    {

        "zipcode": "01994",
        "city": "Schipkau Drochow",
        "state": "Brandenburg",
        "community": "Landkreis Oberspreewald-Lausitz",
        "latitude": 51.5693,
        "longitude": 13.9237
    },
    {

        "zipcode": "01994",
        "city": "Schipkau",
        "state": "Brandenburg",
        "community": "Landkreis Oberspreewald-Lausitz",
        "latitude": 51.5456,
        "longitude": 13.9121
    },
    {

        "zipcode": "01994",
        "city": "Schipkau Meuro",
        "state": "Brandenburg",
        "community": "Landkreis Oberspreewald-Lausitz",
        "latitude": 51.5504,
        "longitude": 13.9244
    },
    {

        "zipcode": "01994",
        "city": "Schipkau Annah\u00fctte",
        "state": "Brandenburg",
        "community": "Landkreis Oberspreewald-Lausitz",
        "latitude": 51.5614,
        "longitude": 13.882
    },
    {

        "zipcode": "01994",
        "city": "Schipkau Annah\u00fctte, Annah\u00fctte-Siedlung",
        "state": "Brandenburg",
        "community": "Landkreis Oberspreewald-Lausitz",
        "latitude": 51.5623,
        "longitude": 13.8742
    },
    {

        "zipcode": "01994",
        "city": "Schipkau Annah\u00fctte, Herrnnm\u00fchle",
        "state": "Brandenburg",
        "community": "Landkreis Oberspreewald-Lausitz",
        "latitude": 51.5558,
        "longitude": 13.8891
    },
    {

        "zipcode": "01996",
        "city": "Hosena",
        "state": "Brandenburg",
        "community": "Landkreis Oberspreewald-Lausitz",
        "latitude": 51.4547,
        "longitude": 14.0251
    },
    {

        "zipcode": "01998",
        "city": "Schipkau",
        "state": "Brandenburg",
        "community": "Landkreis Oberspreewald-Lausitz",
        "latitude": 51.5456,
        "longitude": 13.9121
    },
    {

        "zipcode": "01998",
        "city": "Schipkau Meuro",
        "state": "Brandenburg",
        "community": "Landkreis Oberspreewald-Lausitz",
        "latitude": 51.5504,
        "longitude": 13.9244
    },
    {

        "zipcode": "01998",
        "city": "Schipkau Klettwitz",
        "state": "Brandenburg",
        "community": "Landkreis Oberspreewald-Lausitz",
        "latitude": 51.5422,
        "longitude": 13.8994
    },
    {

        "zipcode": "03042",
        "city": "Cottbus",
        "state": "Brandenburg",
        "community": "Kreisfreie Stadt Cottbus",
        "latitude": 51.7612,
        "longitude": 14.3544
    },
    {

        "zipcode": "03044",
        "city": "Cottbus",
        "state": "Brandenburg",
        "community": "Kreisfreie Stadt Cottbus",
        "latitude": 51.7754,
        "longitude": 14.3374
    },
    {

        "zipcode": "03046",
        "city": "Cottbus",
        "state": "Brandenburg",
        "community": "Kreisfreie Stadt Cottbus",
        "latitude": 51.756,
        "longitude": 14.3197
    },
    {

        "zipcode": "03048",
        "city": "Cottbus",
        "state": "Brandenburg",
        "community": "Kreisfreie Stadt Cottbus",
        "latitude": 51.7403,
        "longitude": 14.3198
    },
    {

        "zipcode": "03050",
        "city": "Cottbus",
        "state": "Brandenburg",
        "community": "Kreisfreie Stadt Cottbus",
        "latitude": 51.7324,
        "longitude": 14.3347
    },
    {

        "zipcode": "03051",
        "city": "Cottbus",
        "state": "Brandenburg",
        "community": "Kreisfreie Stadt Cottbus",
        "latitude": 51.7667,
        "longitude": 14.3333
    },
    {

        "zipcode": "03052",
        "city": "Cottbus",
        "state": "Brandenburg",
        "community": "Kreisfreie Stadt Cottbus",
        "latitude": 51.7667,
        "longitude": 14.3333
    },
    {

        "zipcode": "03053",
        "city": "Cottbus",
        "state": "Brandenburg",
        "community": "Kreisfreie Stadt Cottbus",
        "latitude": 51.7667,
        "longitude": 14.3333
    },
    {

        "zipcode": "03054",
        "city": "Cottbus",
        "state": "Brandenburg",
        "community": "Kreisfreie Stadt Cottbus",
        "latitude": 51.7667,
        "longitude": 14.3333
    },
    {

        "zipcode": "03055",
        "city": "Cottbus",
        "state": "Brandenburg",
        "community": "Kreisfreie Stadt Cottbus",
        "latitude": 51.7667,
        "longitude": 14.3333
    },
    {

        "zipcode": "03058",
        "city": "Gro\u00df O\u00dfnig",
        "state": "Brandenburg",
        "community": "Landkreis Spree-Nei\u00dfe",
        "latitude": 51.6783,
        "longitude": 14.3592
    },
    {

        "zipcode": "03058",
        "city": "Gro\u00df D\u00f6bbern",
        "state": "Brandenburg",
        "community": "Landkreis Spree-Nei\u00dfe",
        "latitude": 51.6515,
        "longitude": 14.3298
    },
    {

        "zipcode": "03058",
        "city": "Haasow",
        "state": "Brandenburg",
        "community": "Landkreis Spree-Nei\u00dfe",
        "latitude": 51.7426,
        "longitude": 14.4209
    },
    {

        "zipcode": "03058",
        "city": "Klein D\u00f6bbern",
        "state": "Brandenburg",
        "community": "Landkreis Spree-Nei\u00dfe",
        "latitude": 51.6682,
        "longitude": 14.345
    },
    {

        "zipcode": "03058",
        "city": "Neuhausen",
        "state": "Brandenburg",
        "community": "Landkreis Spree-Nei\u00dfe",
        "latitude": 51.6788,
        "longitude": 14.4163
    },
    {

        "zipcode": "03058",
        "city": "Kathlow",
        "state": "Brandenburg",
        "community": "Landkreis Spree-Nei\u00dfe",
        "latitude": 51.7252,
        "longitude": 14.4839
    },
    {

        "zipcode": "03058",
        "city": "Sergen",
        "state": "Brandenburg",
        "community": "Landkreis Spree-Nei\u00dfe",
        "latitude": 51.7023,
        "longitude": 14.5025
    },
    {

        "zipcode": "03058",
        "city": "Koppatz",
        "state": "Brandenburg",
        "community": "Landkreis Spree-Nei\u00dfe",
        "latitude": 51.6962,
        "longitude": 14.4266
    },
    {

        "zipcode": "03058",
        "city": "Gablenz",
        "state": "Brandenburg",
        "community": "Landkreis Spree-Nei\u00dfe",
        "latitude": 51.6865,
        "longitude": 14.5094
    },
    {

        "zipcode": "03058",
        "city": "Gro\u00df Gaglow",
        "state": "Brandenburg",
        "community": "Kreisfreie Stadt Cottbus",
        "latitude": 51.7139,
        "longitude": 14.3248
    },
    {

        "zipcode": "03058",
        "city": "Frauendorf",
        "state": "Brandenburg",
        "community": "Landkreis Spree-Nei\u00dfe",
        "latitude": 51.7007,
        "longitude": 14.3878
    },
    {

        "zipcode": "03058",
        "city": "Kiekebusch",
        "state": "Brandenburg",
        "community": "Kreisfreie Stadt Cottbus",
        "latitude": 51.7235,
        "longitude": 14.3631
    },
    {

        "zipcode": "03058",
        "city": "Roggosen",
        "state": "Brandenburg",
        "community": "Landkreis Spree-Nei\u00dfe",
        "latitude": 51.7043,
        "longitude": 14.4614
    },
    {

        "zipcode": "03058",
        "city": "Komptendorf",
        "state": "Brandenburg",
        "community": "Landkreis Spree-Nei\u00dfe",
        "latitude": 51.6846,
        "longitude": 14.4727
    },
    {

        "zipcode": "03058",
        "city": "Laubsdorf",
        "state": "Brandenburg",
        "community": "Landkreis Spree-Nei\u00dfe",
        "latitude": 51.6744,
        "longitude": 14.442
    },
    {

        "zipcode": "03058",
        "city": "Gallinchen",
        "state": "Brandenburg",
        "community": "Kreisfreie Stadt Cottbus",
        "latitude": 51.711,
        "longitude": 14.3539
    },
    {

        "zipcode": "03096",
        "city": "Briesen",
        "state": "Brandenburg",
        "community": "Landkreis Spree-Nei\u00dfe",
        "latitude": 51.8155,
        "longitude": 14.2442
    },
    {

        "zipcode": "03096",
        "city": "Guhrow",
        "state": "Brandenburg",
        "community": "Landkreis Spree-Nei\u00dfe",
        "latitude": 51.812,
        "longitude": 14.2294
    },
    {

        "zipcode": "03096",
        "city": "Schmogrow-Fehrow",
        "state": "Brandenburg",
        "community": "Landkreis Spree-Nei\u00dfe",
        "latitude": 51.85,
        "longitude": 14.2333
    },
    {

        "zipcode": "03096",
        "city": "Werben",
        "state": "Brandenburg",
        "community": "Landkreis Spree-Nei\u00dfe",
        "latitude": 51.8167,
        "longitude": 14.1833
    },
    {

        "zipcode": "03096",
        "city": "Dissen-Striesow",
        "state": "Brandenburg",
        "community": "Landkreis Spree-Nei\u00dfe",
        "latitude": 51.825,
        "longitude": 14.2833
    },
    {

        "zipcode": "03096",
        "city": "Burg (Spreewald)",
        "state": "Brandenburg",
        "community": "Landkreis Spree-Nei\u00dfe",
        "latitude": 51.8333,
        "longitude": 14.15
    },
    {

        "zipcode": "03099",
        "city": "Kolkwitz",
        "state": "Brandenburg",
        "community": "Landkreis Spree-Nei\u00dfe",
        "latitude": 51.75,
        "longitude": 14.25
    },
    {

        "zipcode": "03103",
        "city": "Neu-Seeland",
        "state": "Brandenburg",
        "community": "Landkreis Oberspreewald-Lausitz",
        "latitude": 51.6214,
        "longitude": 14.1309
    },
    {

        "zipcode": "03103",
        "city": "Neupetershain",
        "state": "Brandenburg",
        "community": "Landkreis Oberspreewald-Lausitz",
        "latitude": 51.608,
        "longitude": 14.1651
    },
    {

        "zipcode": "03116",
        "city": "Drebkau",
        "state": "Brandenburg",
        "community": "Landkreis Spree-Nei\u00dfe",
        "latitude": 51.6541,
        "longitude": 14.2232
    },
    {

        "zipcode": "03119",
        "city": "Welzow",
        "state": "Brandenburg",
        "community": "Landkreis Spree-Nei\u00dfe",
        "latitude": 51.5838,
        "longitude": 14.1708
    },
    {

        "zipcode": "03130",
        "city": "Reuthen",
        "state": "Brandenburg",
        "community": "Landkreis Spree-Nei\u00dfe",
        "latitude": 51.5906,
        "longitude": 14.5266
    },
    {

        "zipcode": "03130",
        "city": "T\u00fcrkendorf",
        "state": "Brandenburg",
        "community": "Landkreis Spree-Nei\u00dfe",
        "latitude": 51.591,
        "longitude": 14.4581
    },
    {

        "zipcode": "03130",
        "city": "Proschim",
        "state": "Brandenburg",
        "community": "Landkreis Spree-Nei\u00dfe",
        "latitude": 51.5514,
        "longitude": 14.1884
    },
    {

        "zipcode": "03130",
        "city": "Graustein",
        "state": "Brandenburg",
        "community": "Landkreis Spree-Nei\u00dfe",
        "latitude": 51.5729,
        "longitude": 14.4732
    },
    {

        "zipcode": "03130",
        "city": "Hornow-Wadelsdorf",
        "state": "Brandenburg",
        "community": "Landkreis Spree-Nei\u00dfe",
        "latitude": 51.625,
        "longitude": 14.4917
    },
    {

        "zipcode": "03130",
        "city": "Bagenz",
        "state": "Brandenburg",
        "community": "Landkreis Spree-Nei\u00dfe",
        "latitude": 51.6448,
        "longitude": 14.4332
    },
    {

        "zipcode": "03130",
        "city": "Lieskau",
        "state": "Brandenburg",
        "community": "Landkreis Spree-Nei\u00dfe",
        "latitude": 51.5683,
        "longitude": 14.5271
    },
    {

        "zipcode": "03130",
        "city": "Gro\u00df Luja",
        "state": "Brandenburg",
        "community": "Landkreis Spree-Nei\u00dfe",
        "latitude": 51.5978,
        "longitude": 14.4467
    },
    {

        "zipcode": "03130",
        "city": "Haidem\u00fchl",
        "state": "Brandenburg",
        "community": "Landkreis Spree-Nei\u00dfe",
        "latitude": 51.5518,
        "longitude": 14.2219
    },
    {

        "zipcode": "03130",
        "city": "Wolfshain",
        "state": "Brandenburg",
        "community": "Landkreis Spree-Nei\u00dfe",
        "latitude": 51.5799,
        "longitude": 14.589
    },
    {

        "zipcode": "03130",
        "city": "Tschernitz",
        "state": "Brandenburg",
        "community": "Landkreis Spree-Nei\u00dfe",
        "latitude": 51.5833,
        "longitude": 14.6167
    },
    {

        "zipcode": "03130",
        "city": "Spremberg",
        "state": "Brandenburg",
        "community": "Landkreis Spree-Nei\u00dfe",
        "latitude": 51.5696,
        "longitude": 14.3739
    },
    {

        "zipcode": "03130",
        "city": "Drieschnitz-Kahsel",
        "state": "Brandenburg",
        "community": "Landkreis Spree-Nei\u00dfe",
        "latitude": 51.6667,
        "longitude": 14.475
    },
    {

        "zipcode": "03130",
        "city": "J\u00e4mlitz-Klein D\u00fcben",
        "state": "Brandenburg",
        "community": "Landkreis Spree-Nei\u00dfe",
        "latitude": 51.5667,
        "longitude": 14.6417
    },
    {

        "zipcode": "03130",
        "city": "Felixsee",
        "state": "Brandenburg",
        "community": "Landkreis Spree-Nei\u00dfe",
        "latitude": 51.6083,
        "longitude": 14.5208
    },
    {

        "zipcode": "03139",
        "city": "Terpe",
        "state": "Brandenburg",
        "community": "Landkreis Spree-Nei\u00dfe",
        "latitude": 51.5667,
        "longitude": 14.3667
    },
    {

        "zipcode": "03149",
        "city": "Forst (Lausitz)",
        "state": "Brandenburg",
        "community": "Landkreis Spree-Nei\u00dfe",
        "latitude": 51.7302,
        "longitude": 14.598
    },
    {

        "zipcode": "03149",
        "city": "Wiesengrund",
        "state": "Brandenburg",
        "community": "Landkreis Spree-Nei\u00dfe",
        "latitude": 51.6967,
        "longitude": 14.5533
    },
    {

        "zipcode": "03149",
        "city": "Gro\u00df Schacksdorf-Simmersdorf",
        "state": "Brandenburg",
        "community": "Landkreis Spree-Nei\u00dfe",
        "latitude": 51.7,
        "longitude": 14.625
    },
    {

        "zipcode": "03159",
        "city": "D\u00f6bern",
        "state": "Brandenburg",
        "community": "Landkreis Spree-Nei\u00dfe",
        "latitude": 51.6159,
        "longitude": 14.5981
    },
    {

        "zipcode": "03159",
        "city": "Nei\u00dfe-Malxetal",
        "state": "Brandenburg",
        "community": "Landkreis Spree-Nei\u00dfe",
        "latitude": 51.6433,
        "longitude": 14.63
    },
    {

        "zipcode": "03159",
        "city": "Wiesengrund",
        "state": "Brandenburg",
        "community": "Landkreis Spree-Nei\u00dfe",
        "latitude": 51.6967,
        "longitude": 14.5533
    },
    {

        "zipcode": "03172",
        "city": "Atterwasch",
        "state": "Brandenburg",
        "community": "Landkreis Spree-Nei\u00dfe",
        "latitude": 51.9342,
        "longitude": 14.6255
    },
    {

        "zipcode": "03172",
        "city": "B\u00e4renklau",
        "state": "Brandenburg",
        "community": "Landkreis Spree-Nei\u00dfe",
        "latitude": 51.9383,
        "longitude": 14.5667
    },
    {

        "zipcode": "03172",
        "city": "Grabko",
        "state": "Brandenburg",
        "community": "Landkreis Spree-Nei\u00dfe",
        "latitude": 51.9099,
        "longitude": 14.5756
    },
    {

        "zipcode": "03172",
        "city": "Guben",
        "state": "Brandenburg",
        "community": "Landkreis Spree-Nei\u00dfe",
        "latitude": 51.9499,
        "longitude": 14.7145
    },
    {

        "zipcode": "03172",
        "city": "Pinnow-Heideland",
        "state": "Brandenburg",
        "community": "Landkreis Spree-Nei\u00dfe",
        "latitude": 51.9833,
        "longitude": 14.5333
    },
    {

        "zipcode": "03172",
        "city": "Grie\u00dfen",
        "state": "Brandenburg",
        "community": "Landkreis Spree-Nei\u00dfe",
        "latitude": 51.8492,
        "longitude": 14.5924
    },
    {

        "zipcode": "03172",
        "city": "Gastrose-Kerkwitz",
        "state": "Brandenburg",
        "community": "Landkreis Spree-Nei\u00dfe",
        "latitude": 51.9,
        "longitude": 14.65
    },
    {

        "zipcode": "03172",
        "city": "Lutzketal",
        "state": "Brandenburg",
        "community": "Landkreis Spree-Nei\u00dfe",
        "latitude": 51.9833,
        "longitude": 14.6238
    },
    {

        "zipcode": "03185",
        "city": "Drehnow",
        "state": "Brandenburg",
        "community": "Landkreis Spree-Nei\u00dfe",
        "latitude": 51.8667,
        "longitude": 14.3667
    },
    {

        "zipcode": "03185",
        "city": "Peitz",
        "state": "Brandenburg",
        "community": "Landkreis Spree-Nei\u00dfe",
        "latitude": 51.8584,
        "longitude": 14.4114
    },
    {

        "zipcode": "03185",
        "city": "Gr\u00f6tsch",
        "state": "Brandenburg",
        "community": "Landkreis Spree-Nei\u00dfe",
        "latitude": 51.7932,
        "longitude": 14.5096
    },
    {

        "zipcode": "03185",
        "city": "Heinersbr\u00fcck",
        "state": "Brandenburg",
        "community": "Landkreis Spree-Nei\u00dfe",
        "latitude": 51.8199,
        "longitude": 14.5074
    },
    {

        "zipcode": "03185",
        "city": "Tauer",
        "state": "Brandenburg",
        "community": "Landkreis Spree-Nei\u00dfe",
        "latitude": 51.9,
        "longitude": 14.45
    },
    {

        "zipcode": "03185",
        "city": "Turnow-Preilack",
        "state": "Brandenburg",
        "community": "Landkreis Spree-Nei\u00dfe",
        "latitude": 51.875,
        "longitude": 14.4083
    },
    {

        "zipcode": "03185",
        "city": "Drachhausen",
        "state": "Brandenburg",
        "community": "Landkreis Spree-Nei\u00dfe",
        "latitude": 51.8903,
        "longitude": 14.3164
    },
    {

        "zipcode": "03185",
        "city": "Teichland",
        "state": "Brandenburg",
        "community": "Landkreis Spree-Nei\u00dfe",
        "latitude": 51.8056,
        "longitude": 14.4444
    },
    {

        "zipcode": "03197",
        "city": "Drewitz",
        "state": "Brandenburg",
        "community": "Landkreis Spree-Nei\u00dfe",
        "latitude": 51.8966,
        "longitude": 14.5103
    },
    {

        "zipcode": "03197",
        "city": "J\u00e4nschwalde",
        "state": "Brandenburg",
        "community": "Landkreis Spree-Nei\u00dfe",
        "latitude": 51.8607,
        "longitude": 14.4981
    },
    {

        "zipcode": "03202",
        "city": "Luckow-Petershagen",
        "state": "Brandenburg",
        "community": "Landkreis Uckermark",
        "latitude": 53.2435,
        "longitude": 14.2573
    },
    {

        "zipcode": "03205",
        "city": "Missen",
        "state": "Brandenburg",
        "community": "Landkreis Oberspreewald-Lausitz",
        "latitude": 51.7274,
        "longitude": 14.0498
    },
    {

        "zipcode": "03205",
        "city": "Calau",
        "state": "Brandenburg",
        "community": "Landkreis Oberspreewald-Lausitz",
        "latitude": 51.744,
        "longitude": 13.9533
    },
    {

        "zipcode": "03205",
        "city": "Mlode",
        "state": "Brandenburg",
        "community": "Landkreis Oberspreewald-Lausitz",
        "latitude": 51.7746,
        "longitude": 13.9558
    },
    {

        "zipcode": "03205",
        "city": "Ogrosen",
        "state": "Brandenburg",
        "community": "Landkreis Oberspreewald-Lausitz",
        "latitude": 51.7127,
        "longitude": 14.0422
    },
    {

        "zipcode": "03205",
        "city": "Laasow",
        "state": "Brandenburg",
        "community": "Landkreis Oberspreewald-Lausitz",
        "latitude": 51.7134,
        "longitude": 14.0875
    },
    {

        "zipcode": "03205",
        "city": "Bronkow",
        "state": "Brandenburg",
        "community": "Landkreis Oberspreewald-Lausitz",
        "latitude": 51.6667,
        "longitude": 13.9167
    },
    {

        "zipcode": "03205",
        "city": "Sa\u00dfleben",
        "state": "Brandenburg",
        "community": "Landkreis Oberspreewald-Lausitz",
        "latitude": 51.7591,
        "longitude": 13.9865
    },
    {

        "zipcode": "03205",
        "city": "Bischdorf",
        "state": "Brandenburg",
        "community": "Landkreis Oberspreewald-Lausitz",
        "latitude": 51.7989,
        "longitude": 13.9698
    },
    {

        "zipcode": "03205",
        "city": "Lug",
        "state": "Brandenburg",
        "community": "Landkreis Oberspreewald-Lausitz",
        "latitude": 51.6303,
        "longitude": 13.9296
    },
    {

        "zipcode": "03205",
        "city": "Werchow",
        "state": "Brandenburg",
        "community": "Landkreis Oberspreewald-Lausitz",
        "latitude": 51.7255,
        "longitude": 13.9555
    },
    {

        "zipcode": "03205",
        "city": "Luckaitztal",
        "state": "Brandenburg",
        "community": "Landkreis Oberspreewald-Lausitz",
        "latitude": 51.6833,
        "longitude": 14.0
    },
    {

        "zipcode": "03205",
        "city": "Lipten",
        "state": "Brandenburg",
        "community": "Landkreis Oberspreewald-Lausitz",
        "latitude": 51.6463,
        "longitude": 13.9271
    },
    {

        "zipcode": "03205",
        "city": "Kemmen",
        "state": "Brandenburg",
        "community": "Landkreis Oberspreewald-Lausitz",
        "latitude": 51.7335,
        "longitude": 13.9118
    },
    {

        "zipcode": "03205",
        "city": "Gro\u00df-Meh\u00dfow",
        "state": "Brandenburg",
        "community": "Landkreis Oberspreewald-Lausitz",
        "latitude": 51.7333,
        "longitude": 13.8167
    },
    {

        "zipcode": "03205",
        "city": "Bolschwitz",
        "state": "Brandenburg",
        "community": "Landkreis Oberspreewald-Lausitz",
        "latitude": 51.7485,
        "longitude": 14.0293
    },
    {

        "zipcode": "03222",
        "city": "Kittlitz",
        "state": "Brandenburg",
        "community": "Landkreis Oberspreewald-Lausitz",
        "latitude": 51.8308,
        "longitude": 13.9161
    },
    {

        "zipcode": "03222",
        "city": "Boblitz",
        "state": "Brandenburg",
        "community": "Landkreis Oberspreewald-Lausitz",
        "latitude": 51.8406,
        "longitude": 13.9827
    },
    {

        "zipcode": "03222",
        "city": "Gro\u00df Beuchow",
        "state": "Brandenburg",
        "community": "Landkreis Oberspreewald-Lausitz",
        "latitude": 51.85,
        "longitude": 13.9031
    },
    {

        "zipcode": "03222",
        "city": "L\u00fcbbenau/Spreewald",
        "state": "Brandenburg",
        "community": "Landkreis Oberspreewald-Lausitz",
        "latitude": 51.8626,
        "longitude": 13.9613
    },
    {

        "zipcode": "03222",
        "city": "Hindenberg",
        "state": "Brandenburg",
        "community": "Landkreis Oberspreewald-Lausitz",
        "latitude": 51.8532,
        "longitude": 13.8464
    },
    {

        "zipcode": "03222",
        "city": "Gro\u00df-Klessow",
        "state": "Brandenburg",
        "community": "Landkreis Oberspreewald-Lausitz",
        "latitude": 51.8333,
        "longitude": 13.95
    },
    {

        "zipcode": "03222",
        "city": "Klein Radden",
        "state": "Brandenburg",
        "community": "Landkreis Oberspreewald-Lausitz",
        "latitude": 51.8695,
        "longitude": 13.8796
    },
    {

        "zipcode": "03222",
        "city": "Ragow",
        "state": "Brandenburg",
        "community": "Landkreis Oberspreewald-Lausitz",
        "latitude": 51.8875,
        "longitude": 13.902
    },
    {

        "zipcode": "03226",
        "city": "Suschow",
        "state": "Brandenburg",
        "community": "Landkreis Oberspreewald-Lausitz",
        "latitude": 51.7994,
        "longitude": 14.0923
    },
    {

        "zipcode": "03226",
        "city": "Raddusch",
        "state": "Brandenburg",
        "community": "Landkreis Oberspreewald-Lausitz",
        "latitude": 51.8181,
        "longitude": 14.0403
    },
    {

        "zipcode": "03226",
        "city": "Vetschau",
        "state": "Brandenburg",
        "community": "Landkreis Oberspreewald-Lausitz",
        "latitude": 51.7864,
        "longitude": 14.0794
    },
    {

        "zipcode": "03226",
        "city": "Ko\u00dfwig",
        "state": "Brandenburg",
        "community": "Landkreis Oberspreewald-Lausitz",
        "latitude": 51.7769,
        "longitude": 14.0287
    },
    {

        "zipcode": "03226",
        "city": "Leipe",
        "state": "Brandenburg",
        "community": "Landkreis Oberspreewald-Lausitz",
        "latitude": 51.8554,
        "longitude": 14.0441
    },
    {

        "zipcode": "03229",
        "city": "Altd\u00f6bern",
        "state": "Brandenburg",
        "community": "Landkreis Oberspreewald-Lausitz",
        "latitude": 51.65,
        "longitude": 14.0333
    },
    {

        "zipcode": "03229",
        "city": "Luckaitztal",
        "state": "Brandenburg",
        "community": "Landkreis Oberspreewald-Lausitz",
        "latitude": 51.6833,
        "longitude": 14.0
    },
    {

        "zipcode": "03238",
        "city": "R\u00fcckersdorf",
        "state": "Brandenburg",
        "community": "Landkreis Elbe-Elster",
        "latitude": 51.5695,
        "longitude": 13.5723
    },
    {

        "zipcode": "03238",
        "city": "Staupitz",
        "state": "Brandenburg",
        "community": "Landkreis Elbe-Elster",
        "latitude": 51.5337,
        "longitude": 13.6703
    },
    {

        "zipcode": "03238",
        "city": "Eichholz-Dr\u00f6\u00dfig",
        "state": "Brandenburg",
        "community": "Landkreis Elbe-Elster",
        "latitude": 51.6083,
        "longitude": 13.6583
    },
    {

        "zipcode": "03238",
        "city": "Massen",
        "state": "Brandenburg",
        "community": "Landkreis Elbe-Elster",
        "latitude": 51.6428,
        "longitude": 13.733
    },
    {

        "zipcode": "03238",
        "city": "Ponnsdorf",
        "state": "Brandenburg",
        "community": "Landkreis Elbe-Elster",
        "latitude": 51.6667,
        "longitude": 13.6833
    },
    {

        "zipcode": "03238",
        "city": "G\u00f6llnitz",
        "state": "Brandenburg",
        "community": "Landkreis Elbe-Elster",
        "latitude": 51.64,
        "longitude": 13.8575
    },
    {

        "zipcode": "03238",
        "city": "Lindthal",
        "state": "Brandenburg",
        "community": "Landkreis Elbe-Elster",
        "latitude": 51.6581,
        "longitude": 13.7804
    },
    {

        "zipcode": "03238",
        "city": "Gruhno",
        "state": "Brandenburg",
        "community": "Landkreis Elbe-Elster",
        "latitude": 51.5678,
        "longitude": 13.5185
    },
    {

        "zipcode": "03238",
        "city": "M\u00fcnchhausen",
        "state": "Brandenburg",
        "community": "Landkreis Elbe-Elster",
        "latitude": 51.6673,
        "longitude": 13.6447
    },
    {

        "zipcode": "03238",
        "city": "Dollenchen",
        "state": "Brandenburg",
        "community": "Landkreis Elbe-Elster",
        "latitude": 51.6082,
        "longitude": 13.8595
    },
    {

        "zipcode": "03238",
        "city": "Gr\u00f6bitz",
        "state": "Brandenburg",
        "community": "Landkreis Elbe-Elster",
        "latitude": 51.6582,
        "longitude": 13.7138
    },
    {

        "zipcode": "03238",
        "city": "Lindena",
        "state": "Brandenburg",
        "community": "Landkreis Elbe-Elster",
        "latitude": 51.5928,
        "longitude": 13.5434
    },
    {

        "zipcode": "03238",
        "city": "Oppelhain",
        "state": "Brandenburg",
        "community": "Landkreis Elbe-Elster",
        "latitude": 51.5549,
        "longitude": 13.5944
    },
    {

        "zipcode": "03238",
        "city": "Schacksdorf",
        "state": "Brandenburg",
        "community": "Landkreis Elbe-Elster",
        "latitude": 51.6151,
        "longitude": 13.7618
    },
    {

        "zipcode": "03238",
        "city": "Gorden",
        "state": "Brandenburg",
        "community": "Landkreis Elbe-Elster",
        "latitude": 51.5332,
        "longitude": 13.6269
    },
    {

        "zipcode": "03238",
        "city": "Finsterwalde",
        "state": "Brandenburg",
        "community": "Landkreis Elbe-Elster",
        "latitude": 51.6339,
        "longitude": 13.7066
    },
    {

        "zipcode": "03238",
        "city": "Lichterfeld",
        "state": "Brandenburg",
        "community": "Landkreis Elbe-Elster",
        "latitude": 51.5976,
        "longitude": 13.7781
    },
    {

        "zipcode": "03238",
        "city": "Lieskau",
        "state": "Brandenburg",
        "community": "Landkreis Elbe-Elster",
        "latitude": 51.6173,
        "longitude": 13.8086
    },
    {

        "zipcode": "03238",
        "city": "Fischwasser",
        "state": "Brandenburg",
        "community": "Landkreis Elbe-Elster",
        "latitude": 51.596,
        "longitude": 13.6121
    },
    {

        "zipcode": "03238",
        "city": "Sallgast",
        "state": "Brandenburg",
        "community": "Landkreis Elbe-Elster",
        "latitude": 51.5887,
        "longitude": 13.8486
    },
    {

        "zipcode": "03238",
        "city": "Betten",
        "state": "Brandenburg",
        "community": "Landkreis Elbe-Elster",
        "latitude": 51.6273,
        "longitude": 13.7674
    },
    {

        "zipcode": "03238",
        "city": "Schadewitz",
        "state": "Brandenburg",
        "community": "Landkreis Elbe-Elster",
        "latitude": 51.5607,
        "longitude": 13.4821
    },
    {

        "zipcode": "03238",
        "city": "Lugau",
        "state": "Brandenburg",
        "community": "Landkreis Elbe-Elster",
        "latitude": 51.6109,
        "longitude": 13.5979
    },
    {

        "zipcode": "03246",
        "city": "Crinitz",
        "state": "Brandenburg",
        "community": "Landkreis Elbe-Elster",
        "latitude": 51.7333,
        "longitude": 13.7667
    },
    {

        "zipcode": "03246",
        "city": "Gahro",
        "state": "Brandenburg",
        "community": "Landkreis Elbe-Elster",
        "latitude": 51.738,
        "longitude": 13.7246
    },
    {

        "zipcode": "03246",
        "city": "Babben",
        "state": "Brandenburg",
        "community": "Landkreis Elbe-Elster",
        "latitude": 51.7126,
        "longitude": 13.7856
    },
    {

        "zipcode": "03249",
        "city": "Go\u00dfmar",
        "state": "Brandenburg",
        "community": "Landkreis Elbe-Elster",
        "latitude": 51.6905,
        "longitude": 13.6829
    },
    {

        "zipcode": "03249",
        "city": "Bahren",
        "state": "Brandenburg",
        "community": "Landkreis Elbe-Elster",
        "latitude": 51.7,
        "longitude": 13.7167
    },
    {

        "zipcode": "03249",
        "city": "Breitenau",
        "state": "Brandenburg",
        "community": "Landkreis Elbe-Elster",
        "latitude": 51.6864,
        "longitude": 13.7241
    },
    {

        "zipcode": "03249",
        "city": "Sonnewalde",
        "state": "Brandenburg",
        "community": "Landkreis Elbe-Elster",
        "latitude": 51.6922,
        "longitude": 13.6473
    },
    {

        "zipcode": "03249",
        "city": "Gro\u00dfkrausnik",
        "state": "Brandenburg",
        "community": "Landkreis Elbe-Elster",
        "latitude": 51.7322,
        "longitude": 13.6271
    },
    {

        "zipcode": "03249",
        "city": "Zeckerin",
        "state": "Brandenburg",
        "community": "Landkreis Elbe-Elster",
        "latitude": 51.7112,
        "longitude": 13.6321
    },
    {

        "zipcode": "03249",
        "city": "Pahlsdorf",
        "state": "Brandenburg",
        "community": "Landkreis Elbe-Elster",
        "latitude": 51.7193,
        "longitude": 13.6486
    },
    {

        "zipcode": "03249",
        "city": "Kleinkrausnik",
        "state": "Brandenburg",
        "community": "Landkreis Elbe-Elster",
        "latitude": 51.7354,
        "longitude": 13.5932
    },
    {

        "zipcode": "03253",
        "city": "Frankena",
        "state": "Brandenburg",
        "community": "Landkreis Elbe-Elster",
        "latitude": 51.658,
        "longitude": 13.5932
    },
    {

        "zipcode": "03253",
        "city": "Tr\u00f6bitz",
        "state": "Brandenburg",
        "community": "Landkreis Elbe-Elster",
        "latitude": 51.6,
        "longitude": 13.4333
    },
    {

        "zipcode": "03253",
        "city": "Werenzhain",
        "state": "Brandenburg",
        "community": "Landkreis Elbe-Elster",
        "latitude": 51.6546,
        "longitude": 13.5322
    },
    {

        "zipcode": "03253",
        "city": "Prie\u00dfen",
        "state": "Brandenburg",
        "community": "Landkreis Elbe-Elster",
        "latitude": 51.6613,
        "longitude": 13.4301
    },
    {

        "zipcode": "03253",
        "city": "Schilda",
        "state": "Brandenburg",
        "community": "Landkreis Elbe-Elster",
        "latitude": 51.6,
        "longitude": 13.3833
    },
    {

        "zipcode": "03253",
        "city": "Brenitz",
        "state": "Brandenburg",
        "community": "Landkreis Elbe-Elster",
        "latitude": 51.7023,
        "longitude": 13.6007
    },
    {

        "zipcode": "03253",
        "city": "Sch\u00f6nborn",
        "state": "Brandenburg",
        "community": "Landkreis Elbe-Elster",
        "latitude": 51.6002,
        "longitude": 13.4897
    },
    {

        "zipcode": "03253",
        "city": "Hennersdorf",
        "state": "Brandenburg",
        "community": "Landkreis Elbe-Elster",
        "latitude": 51.6369,
        "longitude": 13.6069
    },
    {

        "zipcode": "03253",
        "city": "Buchhain",
        "state": "Brandenburg",
        "community": "Landkreis Elbe-Elster",
        "latitude": 51.6453,
        "longitude": 13.3898
    },
    {

        "zipcode": "03253",
        "city": "D\u00fcbrichen",
        "state": "Brandenburg",
        "community": "Landkreis Elbe-Elster",
        "latitude": 51.6686,
        "longitude": 13.4724
    },
    {

        "zipcode": "03253",
        "city": "Trebbus",
        "state": "Brandenburg",
        "community": "Landkreis Elbe-Elster",
        "latitude": 51.6924,
        "longitude": 13.5211
    },
    {

        "zipcode": "03253",
        "city": "Sch\u00f6newalde",
        "state": "Brandenburg",
        "community": "Landkreis Elbe-Elster",
        "latitude": 51.679,
        "longitude": 13.6025
    },
    {

        "zipcode": "03253",
        "city": "Friedersdorf",
        "state": "Brandenburg",
        "community": "Landkreis Elbe-Elster",
        "latitude": 51.6985,
        "longitude": 13.5726
    },
    {

        "zipcode": "03253",
        "city": "Nexdorf",
        "state": "Brandenburg",
        "community": "Landkreis Elbe-Elster",
        "latitude": 51.6368,
        "longitude": 13.3715
    },
    {

        "zipcode": "03253",
        "city": "Arenzhain",
        "state": "Brandenburg",
        "community": "Landkreis Elbe-Elster",
        "latitude": 51.6735,
        "longitude": 13.5092
    },
    {

        "zipcode": "03253",
        "city": "Doberlug-Kirchhain",
        "state": "Brandenburg",
        "community": "Landkreis Elbe-Elster",
        "latitude": 51.6258,
        "longitude": 13.5623
    },
    {

        "zipcode": "04895",
        "city": "Falkenberg/Elster",
        "state": "Brandenburg",
        "community": "Landkreis Elbe-Elster",
        "latitude": 51.5875,
        "longitude": 13.2364
    },
    {

        "zipcode": "04910",
        "city": "Elsterwerda",
        "state": "Brandenburg",
        "community": "Landkreis Elbe-Elster",
        "latitude": 51.4604,
        "longitude": 13.52
    },
    {

        "zipcode": "04910",
        "city": "Haida",
        "state": "Brandenburg",
        "community": "Landkreis Elbe-Elster",
        "latitude": 51.4793,
        "longitude": 13.4679
    },
    {

        "zipcode": "04916",
        "city": "Werchau",
        "state": "Brandenburg",
        "community": "Landkreis Elbe-Elster",
        "latitude": 51.7782,
        "longitude": 13.3194
    },
    {

        "zipcode": "04916",
        "city": "Stolzenhain",
        "state": "Brandenburg",
        "community": "Landkreis Elbe-Elster",
        "latitude": 51.8441,
        "longitude": 13.1607
    },
    {

        "zipcode": "04916",
        "city": "Themesgrund",
        "state": "Brandenburg",
        "community": "Landkreis Elbe-Elster",
        "latitude": 51.7667,
        "longitude": 13.25
    },
    {

        "zipcode": "04916",
        "city": "Herzberg (Elster)",
        "state": "Brandenburg",
        "community": "Landkreis Elbe-Elster",
        "latitude": 51.6833,
        "longitude": 13.2333
    },
    {

        "zipcode": "04916",
        "city": "Heideeck",
        "state": "Brandenburg",
        "community": "Landkreis Elbe-Elster",
        "latitude": 51.8333,
        "longitude": 13.2
    },
    {

        "zipcode": "04916",
        "city": "Wildberg",
        "state": "Brandenburg",
        "community": "Landkreis Elbe-Elster",
        "latitude": 51.7833,
        "longitude": 13.3167
    },
    {

        "zipcode": "04924",
        "city": "Bad Liebenwerda",
        "state": "Brandenburg",
        "community": "Landkreis Elbe-Elster",
        "latitude": 51.5183,
        "longitude": 13.3946
    },
    {

        "zipcode": "04924",
        "city": "Uebigau-Wahrenbr\u00fcck",
        "state": "Brandenburg",
        "community": "Landkreis Elbe-Elster",
        "latitude": 51.5167,
        "longitude": 13.3333
    },
    {

        "zipcode": "04928",
        "city": "Kahla",
        "state": "Brandenburg",
        "community": "Landkreis Elbe-Elster",
        "latitude": 51.4678,
        "longitude": 13.5663
    },
    {

        "zipcode": "04928",
        "city": "D\u00f6llingen",
        "state": "Brandenburg",
        "community": "Landkreis Elbe-Elster",
        "latitude": 51.4837,
        "longitude": 13.5883
    },
    {

        "zipcode": "04928",
        "city": "Plessa",
        "state": "Brandenburg",
        "community": "Landkreis Elbe-Elster",
        "latitude": 51.4667,
        "longitude": 13.6167
    },
    {

        "zipcode": "04928",
        "city": "Schraden",
        "state": "Brandenburg",
        "community": "Landkreis Elbe-Elster",
        "latitude": 51.4253,
        "longitude": 13.6949
    },
    {

        "zipcode": "04931",
        "city": "M\u00fchlberg (Elbe)",
        "state": "Brandenburg",
        "community": "Landkreis Elbe-Elster",
        "latitude": 51.4333,
        "longitude": 13.2167
    },
    {

        "zipcode": "04932",
        "city": "Pr\u00f6sen",
        "state": "Brandenburg",
        "community": "Landkreis Elbe-Elster",
        "latitude": 51.4153,
        "longitude": 13.5501
    },
    {

        "zipcode": "04932",
        "city": "Gro\u00dfthiemig",
        "state": "Brandenburg",
        "community": "Landkreis Elbe-Elster",
        "latitude": 51.3833,
        "longitude": 13.6667
    },
    {

        "zipcode": "04932",
        "city": "Wainsdorf",
        "state": "Brandenburg",
        "community": "Landkreis Elbe-Elster",
        "latitude": 51.4094,
        "longitude": 13.5073
    },
    {

        "zipcode": "04932",
        "city": "Merzdorf",
        "state": "Brandenburg",
        "community": "Landkreis Elbe-Elster",
        "latitude": 51.4,
        "longitude": 13.5333
    },
    {

        "zipcode": "04932",
        "city": "Reichenhain",
        "state": "Brandenburg",
        "community": "Landkreis Elbe-Elster",
        "latitude": 51.4598,
        "longitude": 13.4287
    },
    {

        "zipcode": "04932",
        "city": "Hirschfeld",
        "state": "Brandenburg",
        "community": "Landkreis Elbe-Elster",
        "latitude": 51.3833,
        "longitude": 13.6167
    },
    {

        "zipcode": "04932",
        "city": "Gr\u00f6den",
        "state": "Brandenburg",
        "community": "Landkreis Elbe-Elster",
        "latitude": 51.4,
        "longitude": 13.5667
    },
    {

        "zipcode": "04932",
        "city": "Saathain",
        "state": "Brandenburg",
        "community": "Landkreis Elbe-Elster",
        "latitude": 51.4632,
        "longitude": 13.4638
    },
    {

        "zipcode": "04934",
        "city": "Hohenleipisch",
        "state": "Brandenburg",
        "community": "Landkreis Elbe-Elster",
        "latitude": 51.5,
        "longitude": 13.55
    },
    {

        "zipcode": "04934",
        "city": "Dreska",
        "state": "Brandenburg",
        "community": "Landkreis Elbe-Elster",
        "latitude": 51.4853,
        "longitude": 13.538
    },
    {

        "zipcode": "04936",
        "city": "Wehrhain",
        "state": "Brandenburg",
        "community": "Landkreis Elbe-Elster",
        "latitude": 51.7213,
        "longitude": 13.4186
    },
    {

        "zipcode": "04936",
        "city": "Schlieben",
        "state": "Brandenburg",
        "community": "Landkreis Elbe-Elster",
        "latitude": 51.7238,
        "longitude": 13.383
    },
    {

        "zipcode": "04936",
        "city": "Hohenbucko",
        "state": "Brandenburg",
        "community": "Landkreis Elbe-Elster",
        "latitude": 51.7667,
        "longitude": 13.4667
    },
    {

        "zipcode": "04936",
        "city": "Kolochau",
        "state": "Brandenburg",
        "community": "Landkreis Elbe-Elster",
        "latitude": 51.7268,
        "longitude": 13.3177
    },
    {

        "zipcode": "04936",
        "city": "Freileben",
        "state": "Brandenburg",
        "community": "Landkreis Elbe-Elster",
        "latitude": 51.7833,
        "longitude": 13.4
    },
    {

        "zipcode": "04936",
        "city": "Lebusa",
        "state": "Brandenburg",
        "community": "Landkreis Elbe-Elster",
        "latitude": 51.7957,
        "longitude": 13.4207
    },
    {

        "zipcode": "04936",
        "city": "Jagsal",
        "state": "Brandenburg",
        "community": "Landkreis Elbe-Elster",
        "latitude": 51.6866,
        "longitude": 13.354
    },
    {

        "zipcode": "04936",
        "city": "Frankenhain",
        "state": "Brandenburg",
        "community": "Landkreis Elbe-Elster",
        "latitude": 51.7027,
        "longitude": 13.4154
    },
    {

        "zipcode": "04936",
        "city": "Malitschkendorf",
        "state": "Brandenburg",
        "community": "Landkreis Elbe-Elster",
        "latitude": 51.6945,
        "longitude": 13.3296
    },
    {

        "zipcode": "04936",
        "city": "Naundorf",
        "state": "Brandenburg",
        "community": "Landkreis Elbe-Elster",
        "latitude": 51.7374,
        "longitude": 13.4401
    },
    {

        "zipcode": "04936",
        "city": "\u00d6lsig",
        "state": "Brandenburg",
        "community": "Landkreis Elbe-Elster",
        "latitude": 51.6833,
        "longitude": 13.375
    },
    {

        "zipcode": "04936",
        "city": "Stechau",
        "state": "Brandenburg",
        "community": "Landkreis Elbe-Elster",
        "latitude": 51.6974,
        "longitude": 13.4701
    },
    {

        "zipcode": "04936",
        "city": "Sch\u00f6na-Kolpien",
        "state": "Brandenburg",
        "community": "Landkreis Elbe-Elster",
        "latitude": 51.825,
        "longitude": 13.45
    },
    {

        "zipcode": "04936",
        "city": "Hillmersdorf",
        "state": "Brandenburg",
        "community": "Landkreis Elbe-Elster",
        "latitude": 51.7091,
        "longitude": 13.4873
    },
    {

        "zipcode": "04936",
        "city": "Pro\u00dfmarke",
        "state": "Brandenburg",
        "community": "Landkreis Elbe-Elster",
        "latitude": 51.7408,
        "longitude": 13.4913
    },
    {

        "zipcode": "04936",
        "city": "K\u00f6rba",
        "state": "Brandenburg",
        "community": "Landkreis Elbe-Elster",
        "latitude": 51.8047,
        "longitude": 13.3877
    },
    {

        "zipcode": "04938",
        "city": "Uebigau-Wahrenbr\u00fcck",
        "state": "Brandenburg",
        "community": "Landkreis Elbe-Elster",
        "latitude": 51.5167,
        "longitude": 13.3333
    },
    {

        "zipcode": "12529",
        "city": "Sch\u00f6nefeld",
        "state": "Brandenburg",
        "community": "Landkreis Dahme-Spreewald",
        "latitude": 52.389,
        "longitude": 13.5037
    },
    {

        "zipcode": "14461",
        "city": "Potsdam",
        "state": "Brandenburg",
        "community": "Kreisfreie Stadt Potsdam",
        "latitude": 52.4,
        "longitude": 13.0667
    },
    {

        "zipcode": "14467",
        "city": "Potsdam",
        "state": "Brandenburg",
        "community": "Kreisfreie Stadt Potsdam",
        "latitude": 52.403,
        "longitude": 13.0626
    },
    {

        "zipcode": "14469",
        "city": "Potsdam",
        "state": "Brandenburg",
        "community": "Kreisfreie Stadt Potsdam",
        "latitude": 52.4091,
        "longitude": 12.9899
    },
    {

        "zipcode": "14471",
        "city": "Potsdam",
        "state": "Brandenburg",
        "community": "Kreisfreie Stadt Potsdam",
        "latitude": 52.3744,
        "longitude": 13.0102
    },
    {

        "zipcode": "14473",
        "city": "Potsdam",
        "state": "Brandenburg",
        "community": "Kreisfreie Stadt Potsdam",
        "latitude": 52.3908,
        "longitude": 13.0645
    },
    {

        "zipcode": "14476",
        "city": "Golm",
        "state": "Brandenburg",
        "community": "Kreisfreie Stadt Potsdam",
        "latitude": 52.4062,
        "longitude": 12.967
    },
    {

        "zipcode": "14476",
        "city": "Gro\u00df Glienicke",
        "state": "Brandenburg",
        "community": "Kreisfreie Stadt Potsdam",
        "latitude": 52.4675,
        "longitude": 13.1079
    },
    {

        "zipcode": "14476",
        "city": "Neu Fahrland",
        "state": "Brandenburg",
        "community": "Kreisfreie Stadt Potsdam",
        "latitude": 52.4489,
        "longitude": 13.0492
    },
    {

        "zipcode": "14476",
        "city": "Satzkorn",
        "state": "Brandenburg",
        "community": "Kreisfreie Stadt Potsdam",
        "latitude": 52.4744,
        "longitude": 12.9899
    },
    {

        "zipcode": "14476",
        "city": "Uetz-Paaren",
        "state": "Brandenburg",
        "community": "Kreisfreie Stadt Potsdam",
        "latitude": 52.4726,
        "longitude": 12.9376
    },
    {

        "zipcode": "14476",
        "city": "Seeburg",
        "state": "Brandenburg",
        "community": "Landkreis Havelland",
        "latitude": 52.5097,
        "longitude": 13.1198
    },
    {

        "zipcode": "14476",
        "city": "Fahrland",
        "state": "Brandenburg",
        "community": "Kreisfreie Stadt Potsdam",
        "latitude": 52.4689,
        "longitude": 13.0117
    },
    {

        "zipcode": "14476",
        "city": "Marquardt",
        "state": "Brandenburg",
        "community": "Kreisfreie Stadt Potsdam",
        "latitude": 52.459,
        "longitude": 12.9663
    },
    {

        "zipcode": "14476",
        "city": "T\u00f6plitz",
        "state": "Brandenburg",
        "community": "Landkreis Potsdam-Mittelmark",
        "latitude": 52.4167,
        "longitude": 12.7944
    },
    {

        "zipcode": "14478",
        "city": "Potsdam",
        "state": "Brandenburg",
        "community": "Kreisfreie Stadt Potsdam",
        "latitude": 52.3725,
        "longitude": 13.0914
    },
    {

        "zipcode": "14480",
        "city": "Potsdam",
        "state": "Brandenburg",
        "community": "Kreisfreie Stadt Potsdam",
        "latitude": 52.3689,
        "longitude": 13.1273
    },
    {

        "zipcode": "14482",
        "city": "Potsdam",
        "state": "Brandenburg",
        "community": "Kreisfreie Stadt Potsdam",
        "latitude": 52.3871,
        "longitude": 13.0993
    },
    {

        "zipcode": "14513",
        "city": "Teltow",
        "state": "Brandenburg",
        "community": "Landkreis Potsdam-Mittelmark",
        "latitude": 52.4031,
        "longitude": 13.2601
    },
    {

        "zipcode": "14532",
        "city": "Philippsthal",
        "state": "Brandenburg",
        "community": "Landkreis Potsdam-Mittelmark",
        "latitude": 52.3336,
        "longitude": 13.1413
    },
    {

        "zipcode": "14532",
        "city": "Stahnsdorf",
        "state": "Brandenburg",
        "community": "Landkreis Potsdam-Mittelmark",
        "latitude": 52.3833,
        "longitude": 13.2167
    },
    {

        "zipcode": "14532",
        "city": "Fahlhorst",
        "state": "Brandenburg",
        "community": "Landkreis Potsdam-Mittelmark",
        "latitude": 52.3061,
        "longitude": 13.1626
    },
    {

        "zipcode": "14532",
        "city": "Nudow",
        "state": "Brandenburg",
        "community": "Landkreis Potsdam-Mittelmark",
        "latitude": 52.3283,
        "longitude": 13.1647
    },
    {

        "zipcode": "14532",
        "city": "Kleinmachnow",
        "state": "Brandenburg",
        "community": "Landkreis Potsdam-Mittelmark",
        "latitude": 52.4079,
        "longitude": 13.2251
    },
    {

        "zipcode": "14542",
        "city": "Schwielowsee",
        "state": "Brandenburg",
        "community": "Landkreis Potsdam-Mittelmark",
        "latitude": 52.3389,
        "longitude": 12.9722
    },
    {

        "zipcode": "14542",
        "city": "Werder (Havel)",
        "state": "Brandenburg",
        "community": "Landkreis Potsdam-Mittelmark",
        "latitude": 52.3687,
        "longitude": 12.9188
    },
    {

        "zipcode": "14542",
        "city": "Kloster Lehnin",
        "state": "Brandenburg",
        "community": "Landkreis Potsdam-Mittelmark",
        "latitude": 52.3271,
        "longitude": 12.6625
    },
    {

        "zipcode": "14547",
        "city": "St\u00fccken",
        "state": "Brandenburg",
        "community": "Landkreis Potsdam-Mittelmark",
        "latitude": 52.245,
        "longitude": 13.0792
    },
    {

        "zipcode": "14547",
        "city": "Beelitz",
        "state": "Brandenburg",
        "community": "Landkreis Potsdam-Mittelmark",
        "latitude": 52.2381,
        "longitude": 12.9714
    },
    {

        "zipcode": "14548",
        "city": "Schwielowsee",
        "state": "Brandenburg",
        "community": "Landkreis Potsdam-Mittelmark",
        "latitude": 52.3389,
        "longitude": 12.9722
    },
    {

        "zipcode": "14550",
        "city": "Schmergow",
        "state": "Brandenburg",
        "community": "Landkreis Potsdam-Mittelmark",
        "latitude": 52.454,
        "longitude": 12.8116
    },
    {

        "zipcode": "14550",
        "city": "Bochow",
        "state": "Brandenburg",
        "community": "Landkreis Potsdam-Mittelmark",
        "latitude": 52.381,
        "longitude": 12.7934
    },
    {

        "zipcode": "14550",
        "city": "Gro\u00df Kreutz",
        "state": "Brandenburg",
        "community": "Landkreis Potsdam-Mittelmark",
        "latitude": 52.4028,
        "longitude": 12.7794
    },
    {

        "zipcode": "14550",
        "city": "Deetz",
        "state": "Brandenburg",
        "community": "Landkreis Potsdam-Mittelmark",
        "latitude": 52.4466,
        "longitude": 12.7718
    },
    {

        "zipcode": "14550",
        "city": "Derwitz",
        "state": "Brandenburg",
        "community": "Landkreis Potsdam-Mittelmark",
        "latitude": 52.4029,
        "longitude": 12.8245
    },
    {

        "zipcode": "14550",
        "city": "Krielow",
        "state": "Brandenburg",
        "community": "Landkreis Potsdam-Mittelmark",
        "latitude": 52.4166,
        "longitude": 12.8034
    },
    {

        "zipcode": "14552",
        "city": "Fresdorf",
        "state": "Brandenburg",
        "community": "Landkreis Potsdam-Mittelmark",
        "latitude": 52.2703,
        "longitude": 13.0754
    },
    {

        "zipcode": "14552",
        "city": "Tremsdorf",
        "state": "Brandenburg",
        "community": "Landkreis Potsdam-Mittelmark",
        "latitude": 52.27,
        "longitude": 13.1198
    },
    {

        "zipcode": "14552",
        "city": "Saarmund",
        "state": "Brandenburg",
        "community": "Landkreis Potsdam-Mittelmark",
        "latitude": 52.3162,
        "longitude": 13.1251
    },
    {

        "zipcode": "14552",
        "city": "Michendorf",
        "state": "Brandenburg",
        "community": "Landkreis Potsdam-Mittelmark",
        "latitude": 52.3135,
        "longitude": 13.03
    },
    {

        "zipcode": "14552",
        "city": "Wildenbruch",
        "state": "Brandenburg",
        "community": "Landkreis Potsdam-Mittelmark",
        "latitude": 52.283,
        "longitude": 13.0617
    },
    {

        "zipcode": "14554",
        "city": "Seddiner See",
        "state": "Brandenburg",
        "community": "Landkreis Potsdam-Mittelmark",
        "latitude": 52.2722,
        "longitude": 13.0167
    },
    {

        "zipcode": "14557",
        "city": "Wilhelmshorst",
        "state": "Brandenburg",
        "community": "Landkreis Potsdam-Mittelmark",
        "latitude": 52.3318,
        "longitude": 13.0622
    },
    {

        "zipcode": "14557",
        "city": "Langerwisch",
        "state": "Brandenburg",
        "community": "Landkreis Potsdam-Mittelmark",
        "latitude": 52.3167,
        "longitude": 13.0667
    },
    {

        "zipcode": "14558",
        "city": "Bergholz-Rehbr\u00fccke",
        "state": "Brandenburg",
        "community": "Landkreis Potsdam-Mittelmark",
        "latitude": 52.3472,
        "longitude": 13.1053
    },
    {

        "zipcode": "14612",
        "city": "Falkensee",
        "state": "Brandenburg",
        "community": "Landkreis Havelland",
        "latitude": 52.5601,
        "longitude": 13.0927
    },
    {

        "zipcode": "14621",
        "city": "Sch\u00f6nwalde",
        "state": "Brandenburg",
        "community": "Landkreis Havelland",
        "latitude": 52.6192,
        "longitude": 13.1265
    },
    {

        "zipcode": "14624",
        "city": "Dallgow-D\u00f6beritz",
        "state": "Brandenburg",
        "community": "Landkreis Havelland",
        "latitude": 52.5427,
        "longitude": 13.0584
    },
    {

        "zipcode": "14627",
        "city": "Elstal",
        "state": "Brandenburg",
        "community": "Landkreis Havelland",
        "latitude": 52.5425,
        "longitude": 12.9879
    },
    {

        "zipcode": "14641",
        "city": "Bergerdamm",
        "state": "Brandenburg",
        "community": "Landkreis Havelland",
        "latitude": 52.6561,
        "longitude": 12.8039
    },
    {

        "zipcode": "14641",
        "city": "B\u00f6rnicke",
        "state": "Brandenburg",
        "community": "Landkreis Havelland",
        "latitude": 52.686,
        "longitude": 12.9355
    },
    {

        "zipcode": "14641",
        "city": "M\u00fchlenberge",
        "state": "Brandenburg",
        "community": "Landkreis Havelland",
        "latitude": 52.6667,
        "longitude": 12.6111
    },
    {

        "zipcode": "14641",
        "city": "Tietzow",
        "state": "Brandenburg",
        "community": "Landkreis Havelland",
        "latitude": 52.7125,
        "longitude": 12.9337
    },
    {

        "zipcode": "14641",
        "city": "Gr\u00fcnefeld",
        "state": "Brandenburg",
        "community": "Landkreis Havelland",
        "latitude": 52.6763,
        "longitude": 12.9646
    },
    {

        "zipcode": "14641",
        "city": "Wachow",
        "state": "Brandenburg",
        "community": "Landkreis Havelland",
        "latitude": 52.5337,
        "longitude": 12.7574
    },
    {

        "zipcode": "14641",
        "city": "Falkenrehde",
        "state": "Brandenburg",
        "community": "Landkreis Havelland",
        "latitude": 52.4963,
        "longitude": 12.9234
    },
    {

        "zipcode": "14641",
        "city": "Gro\u00df Behnitz",
        "state": "Brandenburg",
        "community": "Landkreis Havelland",
        "latitude": 52.5796,
        "longitude": 12.7329
    },
    {

        "zipcode": "14641",
        "city": "Etzin",
        "state": "Brandenburg",
        "community": "Landkreis Havelland",
        "latitude": 52.5177,
        "longitude": 12.8542
    },
    {

        "zipcode": "14641",
        "city": "Paaren im Glien",
        "state": "Brandenburg",
        "community": "Landkreis Havelland",
        "latitude": 52.6538,
        "longitude": 12.9876
    },
    {

        "zipcode": "14641",
        "city": "Klein Behnitz",
        "state": "Brandenburg",
        "community": "Landkreis Havelland",
        "latitude": 52.567,
        "longitude": 12.7083
    },
    {

        "zipcode": "14641",
        "city": "Perwenitz",
        "state": "Brandenburg",
        "community": "Landkreis Havelland",
        "latitude": 52.6585,
        "longitude": 13.0124
    },
    {

        "zipcode": "14641",
        "city": "Retzow",
        "state": "Brandenburg",
        "community": "Landkreis Havelland",
        "latitude": 52.6248,
        "longitude": 12.6855
    },
    {

        "zipcode": "14641",
        "city": "Paulinenaue",
        "state": "Brandenburg",
        "community": "Landkreis Havelland",
        "latitude": 52.677,
        "longitude": 12.7107
    },
    {

        "zipcode": "14641",
        "city": "Wustermark",
        "state": "Brandenburg",
        "community": "Landkreis Havelland",
        "latitude": 52.55,
        "longitude": 12.95
    },
    {

        "zipcode": "14641",
        "city": "Wansdorf",
        "state": "Brandenburg",
        "community": "Landkreis Havelland",
        "latitude": 52.6399,
        "longitude": 13.0869
    },
    {

        "zipcode": "14641",
        "city": "Kienberg",
        "state": "Brandenburg",
        "community": "Landkreis Havelland",
        "latitude": 52.663,
        "longitude": 12.9058
    },
    {

        "zipcode": "14641",
        "city": "Ribbeck",
        "state": "Brandenburg",
        "community": "Landkreis Havelland",
        "latitude": 52.6246,
        "longitude": 12.7514
    },
    {

        "zipcode": "14641",
        "city": "Berge",
        "state": "Brandenburg",
        "community": "Landkreis Havelland",
        "latitude": 52.6201,
        "longitude": 12.7951
    },
    {

        "zipcode": "14641",
        "city": "Selbelang",
        "state": "Brandenburg",
        "community": "Landkreis Havelland",
        "latitude": 52.6328,
        "longitude": 12.7138
    },
    {

        "zipcode": "14641",
        "city": "Zeestow",
        "state": "Brandenburg",
        "community": "Landkreis Havelland",
        "latitude": 52.573,
        "longitude": 12.9592
    },
    {

        "zipcode": "14641",
        "city": "Lietzow",
        "state": "Brandenburg",
        "community": "Landkreis Havelland",
        "latitude": 52.6153,
        "longitude": 12.8305
    },
    {

        "zipcode": "14641",
        "city": "Markee",
        "state": "Brandenburg",
        "community": "Landkreis Havelland",
        "latitude": 52.5791,
        "longitude": 12.872
    },
    {

        "zipcode": "14641",
        "city": "Nauen",
        "state": "Brandenburg",
        "community": "Landkreis Havelland",
        "latitude": 52.607,
        "longitude": 12.8737
    },
    {

        "zipcode": "14641",
        "city": "Pausin",
        "state": "Brandenburg",
        "community": "Landkreis Havelland",
        "latitude": 52.6389,
        "longitude": 13.0423
    },
    {

        "zipcode": "14641",
        "city": "Br\u00e4dikow",
        "state": "Brandenburg",
        "community": "Landkreis Havelland",
        "latitude": 52.6898,
        "longitude": 12.65
    },
    {

        "zipcode": "14641",
        "city": "Tremmen",
        "state": "Brandenburg",
        "community": "Landkreis Havelland",
        "latitude": 52.5305,
        "longitude": 12.8181
    },
    {

        "zipcode": "14641",
        "city": "Bredow",
        "state": "Brandenburg",
        "community": "Landkreis Havelland",
        "latitude": 52.5887,
        "longitude": 12.9266
    },
    {

        "zipcode": "14641",
        "city": "Pessin",
        "state": "Brandenburg",
        "community": "Landkreis Havelland",
        "latitude": 52.6424,
        "longitude": 12.6668
    },
    {

        "zipcode": "14656",
        "city": "Brieselang",
        "state": "Brandenburg",
        "community": "Landkreis Havelland",
        "latitude": 52.5833,
        "longitude": 13.0
    },
    {

        "zipcode": "14662",
        "city": "Vietznitz",
        "state": "Brandenburg",
        "community": "Landkreis Havelland",
        "latitude": 52.7284,
        "longitude": 12.6256
    },
    {

        "zipcode": "14662",
        "city": "Warsow",
        "state": "Brandenburg",
        "community": "Landkreis Havelland",
        "latitude": 52.7113,
        "longitude": 12.6433
    },
    {

        "zipcode": "14662",
        "city": "M\u00fchlenberge",
        "state": "Brandenburg",
        "community": "Landkreis Havelland",
        "latitude": 52.6667,
        "longitude": 12.6111
    },
    {

        "zipcode": "14662",
        "city": "Friesack",
        "state": "Brandenburg",
        "community": "Landkreis Havelland",
        "latitude": 52.7376,
        "longitude": 12.5797
    },
    {

        "zipcode": "14669",
        "city": "Ketzin",
        "state": "Brandenburg",
        "community": "Landkreis Havelland",
        "latitude": 52.4781,
        "longitude": 12.8453
    },
    {

        "zipcode": "14669",
        "city": "Zachow",
        "state": "Brandenburg",
        "community": "Landkreis Havelland",
        "latitude": 52.4837,
        "longitude": 12.7845
    },
    {

        "zipcode": "14712",
        "city": "Rathenow",
        "state": "Brandenburg",
        "community": "Landkreis Havelland",
        "latitude": 52.6066,
        "longitude": 12.337
    },
    {

        "zipcode": "14715",
        "city": "Stechow-Ferchesar",
        "state": "Brandenburg",
        "community": "Landkreis Havelland",
        "latitude": 52.6478,
        "longitude": 12.45
    },
    {

        "zipcode": "14715",
        "city": "Gr\u00e4ningen",
        "state": "Brandenburg",
        "community": "Landkreis Havelland",
        "latitude": 52.5789,
        "longitude": 12.4722
    },
    {

        "zipcode": "14715",
        "city": "Nennhausen",
        "state": "Brandenburg",
        "community": "Landkreis Havelland",
        "latitude": 52.6,
        "longitude": 12.5
    },
    {

        "zipcode": "14715",
        "city": "Landin",
        "state": "Brandenburg",
        "community": "Landkreis Havelland",
        "latitude": 52.6642,
        "longitude": 12.5353
    },
    {

        "zipcode": "14715",
        "city": "Gro\u00dfwudicke",
        "state": "Brandenburg",
        "community": "Landkreis Havelland",
        "latitude": 52.5929,
        "longitude": 12.2327
    },
    {

        "zipcode": "14715",
        "city": "M\u00e4rkisch Luch M\u00f6thlow",
        "state": "Brandenburg",
        "community": "Landkreis Havelland",
        "latitude": 52.6,
        "longitude": 12.65
    },
    {

        "zipcode": "14715",
        "city": "M\u00e4rkisch Luch Barnewitz",
        "state": "Brandenburg",
        "community": "Landkreis Havelland",
        "latitude": 52.5667,
        "longitude": 12.6167
    },
    {

        "zipcode": "14715",
        "city": "Zollchow",
        "state": "Brandenburg",
        "community": "Landkreis Havelland",
        "latitude": 52.5282,
        "longitude": 12.21
    },
    {

        "zipcode": "14715",
        "city": "Bamme",
        "state": "Brandenburg",
        "community": "Landkreis Havelland",
        "latitude": 52.583,
        "longitude": 12.4336
    },
    {

        "zipcode": "14715",
        "city": "M\u00e4rkisch Luch Garlitz",
        "state": "Brandenburg",
        "community": "Landkreis Havelland",
        "latitude": 52.5667,
        "longitude": 12.5667
    },
    {

        "zipcode": "14715",
        "city": "Nitzahn",
        "state": "Brandenburg",
        "community": "Landkreis Havelland",
        "latitude": 52.4672,
        "longitude": 12.3608
    },
    {

        "zipcode": "14715",
        "city": "Vieritz",
        "state": "Brandenburg",
        "community": "Landkreis Havelland",
        "latitude": 52.5249,
        "longitude": 12.2564
    },
    {

        "zipcode": "14715",
        "city": "M\u00e4rkisch Luch Buschow",
        "state": "Brandenburg",
        "community": "Landkreis Havelland",
        "latitude": 52.5833,
        "longitude": 12.6333
    },
    {

        "zipcode": "14715",
        "city": "Jerchel",
        "state": "Brandenburg",
        "community": "Landkreis Havelland",
        "latitude": 52.4876,
        "longitude": 12.3433
    },
    {

        "zipcode": "14715",
        "city": "M\u00fctzlitz",
        "state": "Brandenburg",
        "community": "Landkreis Havelland",
        "latitude": 52.5585,
        "longitude": 12.5108
    },
    {

        "zipcode": "14715",
        "city": "Kriele",
        "state": "Brandenburg",
        "community": "Landkreis Havelland",
        "latitude": 52.6551,
        "longitude": 12.5557
    },
    {

        "zipcode": "14715",
        "city": "Kotzen",
        "state": "Brandenburg",
        "community": "Landkreis Havelland",
        "latitude": 52.6333,
        "longitude": 12.5167
    },
    {

        "zipcode": "14715",
        "city": "B\u00fctzer",
        "state": "Brandenburg",
        "community": "Landkreis Havelland",
        "latitude": 52.5364,
        "longitude": 12.2995
    },
    {

        "zipcode": "14715",
        "city": "M\u00f6thlitz",
        "state": "Brandenburg",
        "community": "Landkreis Havelland",
        "latitude": 52.4755,
        "longitude": 12.3899
    },
    {

        "zipcode": "14715",
        "city": "M\u00e4rkisch Luch",
        "state": "Brandenburg",
        "community": "Landkreis Havelland",
        "latitude": 52.5875,
        "longitude": 12.6167
    },
    {

        "zipcode": "14715",
        "city": "Liepe",
        "state": "Brandenburg",
        "community": "Landkreis Havelland",
        "latitude": 52.6135,
        "longitude": 12.6014
    },
    {

        "zipcode": "14715",
        "city": "Seeblick",
        "state": "Brandenburg",
        "community": "Landkreis Havelland",
        "latitude": 52.6722,
        "longitude": 12.3778
    },
    {

        "zipcode": "14715",
        "city": "Milow",
        "state": "Brandenburg",
        "community": "Landkreis Havelland",
        "latitude": 52.5195,
        "longitude": 12.3115
    },
    {

        "zipcode": "14715",
        "city": "Havelaue",
        "state": "Brandenburg",
        "community": "Landkreis Havelland",
        "latitude": 52.7167,
        "longitude": 12.2567
    },
    {

        "zipcode": "14727",
        "city": "Premnitz",
        "state": "Brandenburg",
        "community": "Landkreis Havelland",
        "latitude": 52.5318,
        "longitude": 12.3485
    },
    {

        "zipcode": "14727",
        "city": "D\u00f6beritz",
        "state": "Brandenburg",
        "community": "Landkreis Havelland",
        "latitude": 52.5222,
        "longitude": 12.3682
    },
    {

        "zipcode": "14728",
        "city": "Rhinow",
        "state": "Brandenburg",
        "community": "Landkreis Havelland",
        "latitude": 52.7509,
        "longitude": 12.3419
    },
    {

        "zipcode": "14728",
        "city": "Kle\u00dfen-G\u00f6rne",
        "state": "Brandenburg",
        "community": "Landkreis Havelland",
        "latitude": 52.7167,
        "longitude": 12.5
    },
    {

        "zipcode": "14728",
        "city": "Havelaue",
        "state": "Brandenburg",
        "community": "Landkreis Havelland",
        "latitude": 52.7167,
        "longitude": 12.2567
    },
    {

        "zipcode": "14728",
        "city": "Gollenberg",
        "state": "Brandenburg",
        "community": "Landkreis Havelland",
        "latitude": 52.745,
        "longitude": 12.4
    },
    {

        "zipcode": "14770",
        "city": "Brandenburg an der Havel",
        "state": "Brandenburg",
        "community": "Kreisfreie Stadt Brandenburg an der Havel",
        "latitude": 52.4189,
        "longitude": 12.5228
    },
    {

        "zipcode": "14772",
        "city": "Brandenburg an der Havel",
        "state": "Brandenburg",
        "community": "Kreisfreie Stadt Brandenburg an der Havel",
        "latitude": 52.4358,
        "longitude": 12.5297
    },
    {

        "zipcode": "14774",
        "city": "Brandenburg an der Havel",
        "state": "Brandenburg",
        "community": "Kreisfreie Stadt Brandenburg an der Havel",
        "latitude": 52.3864,
        "longitude": 12.4144
    },
    {

        "zipcode": "14776",
        "city": "Brandenburg an der Havel",
        "state": "Brandenburg",
        "community": "Kreisfreie Stadt Brandenburg an der Havel",
        "latitude": 52.4043,
        "longitude": 12.568
    },
    {

        "zipcode": "14778",
        "city": "Wust",
        "state": "Brandenburg",
        "community": "Kreisfreie Stadt Brandenburg an der Havel",
        "latitude": 52.4147,
        "longitude": 12.6106
    },
    {

        "zipcode": "14778",
        "city": "Gollwitz",
        "state": "Brandenburg",
        "community": "Kreisfreie Stadt Brandenburg an der Havel",
        "latitude": 52.4195,
        "longitude": 12.6451
    },
    {

        "zipcode": "14778",
        "city": "Wollin",
        "state": "Brandenburg",
        "community": "Landkreis Potsdam-Mittelmark",
        "latitude": 52.2833,
        "longitude": 12.4667
    },
    {

        "zipcode": "14778",
        "city": "Wenzlow",
        "state": "Brandenburg",
        "community": "Landkreis Potsdam-Mittelmark",
        "latitude": 52.3,
        "longitude": 12.45
    },
    {

        "zipcode": "14778",
        "city": "G\u00f6tz",
        "state": "Brandenburg",
        "community": "Landkreis Potsdam-Mittelmark",
        "latitude": 52.4197,
        "longitude": 12.7193
    },
    {

        "zipcode": "14778",
        "city": "Kloster Lehnin",
        "state": "Brandenburg",
        "community": "Landkreis Potsdam-Mittelmark",
        "latitude": 52.3271,
        "longitude": 12.6625
    },
    {

        "zipcode": "14778",
        "city": "Golzow",
        "state": "Brandenburg",
        "community": "Landkreis Potsdam-Mittelmark",
        "latitude": 52.2762,
        "longitude": 12.6005
    },
    {

        "zipcode": "14778",
        "city": "Schenkenberg",
        "state": "Brandenburg",
        "community": "Landkreis Potsdam-Mittelmark",
        "latitude": 52.3904,
        "longitude": 12.7112
    },
    {

        "zipcode": "14778",
        "city": "Beetzsee",
        "state": "Brandenburg",
        "community": "Landkreis Potsdam-Mittelmark",
        "latitude": 52.4833,
        "longitude": 12.5611
    },
    {

        "zipcode": "14778",
        "city": "Havelsee",
        "state": "Brandenburg",
        "community": "Landkreis Potsdam-Mittelmark",
        "latitude": 52.4929,
        "longitude": 12.4667
    },
    {

        "zipcode": "14778",
        "city": "Jeserig",
        "state": "Brandenburg",
        "community": "Landkreis Potsdam-Mittelmark",
        "latitude": 52.0859,
        "longitude": 12.4511
    },
    {

        "zipcode": "14778",
        "city": "P\u00e4wesin",
        "state": "Brandenburg",
        "community": "Landkreis Potsdam-Mittelmark",
        "latitude": 52.5167,
        "longitude": 12.7167
    },
    {

        "zipcode": "14778",
        "city": "Beetzseeheide",
        "state": "Brandenburg",
        "community": "Landkreis Potsdam-Mittelmark",
        "latitude": 52.4917,
        "longitude": 12.6125
    },
    {

        "zipcode": "14778",
        "city": "Roskow",
        "state": "Brandenburg",
        "community": "Landkreis Potsdam-Mittelmark",
        "latitude": 52.4724,
        "longitude": 12.7189
    },
    {

        "zipcode": "14778",
        "city": "Planetal",
        "state": "Brandenburg",
        "community": "Landkreis Potsdam-Mittelmark",
        "latitude": 52.1167,
        "longitude": 12.6767
    },
    {

        "zipcode": "14778",
        "city": "Planebruch",
        "state": "Brandenburg",
        "community": "Landkreis Potsdam-Mittelmark",
        "latitude": 52.2542,
        "longitude": 12.6875
    },
    {

        "zipcode": "14778",
        "city": "Trechwitz",
        "state": "Brandenburg",
        "community": "Landkreis Potsdam-Mittelmark",
        "latitude": 52.3662,
        "longitude": 12.7192
    },
    {

        "zipcode": "14789",
        "city": "Wusterwitz",
        "state": "Brandenburg",
        "community": "Landkreis Potsdam-Mittelmark",
        "latitude": 52.3667,
        "longitude": 12.3849
    },
    {

        "zipcode": "14789",
        "city": "Rosenau",
        "state": "Brandenburg",
        "community": "Landkreis Potsdam-Mittelmark",
        "latitude": 52.3292,
        "longitude": 12.3583
    },
    {

        "zipcode": "14789",
        "city": "Bensdorf",
        "state": "Brandenburg",
        "community": "Landkreis Potsdam-Mittelmark",
        "latitude": 52.4167,
        "longitude": 12.3333
    },
    {

        "zipcode": "14793",
        "city": "Buckautal",
        "state": "Brandenburg",
        "community": "Landkreis Potsdam-Mittelmark",
        "latitude": 52.2333,
        "longitude": 12.3222
    },
    {

        "zipcode": "14793",
        "city": "Gr\u00e4ben",
        "state": "Brandenburg",
        "community": "Landkreis Potsdam-Mittelmark",
        "latitude": 52.2333,
        "longitude": 12.4333
    },
    {

        "zipcode": "14793",
        "city": "Rottstock",
        "state": "Brandenburg",
        "community": "Landkreis Potsdam-Mittelmark",
        "latitude": 52.1989,
        "longitude": 12.3523
    },
    {

        "zipcode": "14793",
        "city": "Ziesar",
        "state": "Brandenburg",
        "community": "Landkreis Potsdam-Mittelmark",
        "latitude": 52.2405,
        "longitude": 12.3471
    },
    {

        "zipcode": "14797",
        "city": "Kloster Lehnin",
        "state": "Brandenburg",
        "community": "Landkreis Potsdam-Mittelmark",
        "latitude": 52.3271,
        "longitude": 12.6625
    },
    {

        "zipcode": "14798",
        "city": "Havelsee",
        "state": "Brandenburg",
        "community": "Landkreis Potsdam-Mittelmark",
        "latitude": 52.4929,
        "longitude": 12.4667
    },
    {

        "zipcode": "14806",
        "city": "Schwanebeck",
        "state": "Brandenburg",
        "community": "Landkreis Potsdam-Mittelmark",
        "latitude": 52.1765,
        "longitude": 12.6272
    },
    {

        "zipcode": "14806",
        "city": "Hagelberg",
        "state": "Brandenburg",
        "community": "Landkreis Potsdam-Mittelmark",
        "latitude": 52.1386,
        "longitude": 12.5196
    },
    {

        "zipcode": "14806",
        "city": "Belzig",
        "state": "Brandenburg",
        "community": "Landkreis Potsdam-Mittelmark",
        "latitude": 52.1333,
        "longitude": 12.6
    },
    {

        "zipcode": "14806",
        "city": "Planetal",
        "state": "Brandenburg",
        "community": "Landkreis Potsdam-Mittelmark",
        "latitude": 52.1167,
        "longitude": 12.6767
    },
    {

        "zipcode": "14822",
        "city": "Borkwalde",
        "state": "Brandenburg",
        "community": "Landkreis Potsdam-Mittelmark",
        "latitude": 52.25,
        "longitude": 12.8333
    },
    {

        "zipcode": "14822",
        "city": "Borkheide",
        "state": "Brandenburg",
        "community": "Landkreis Potsdam-Mittelmark",
        "latitude": 52.2167,
        "longitude": 12.85
    },
    {

        "zipcode": "14822",
        "city": "Planebruch",
        "state": "Brandenburg",
        "community": "Landkreis Potsdam-Mittelmark",
        "latitude": 52.2542,
        "longitude": 12.6875
    },
    {

        "zipcode": "14822",
        "city": "Linthe",
        "state": "Brandenburg",
        "community": "Landkreis Potsdam-Mittelmark",
        "latitude": 52.1975,
        "longitude": 12.7851
    },
    {

        "zipcode": "14822",
        "city": "Br\u00fcck",
        "state": "Brandenburg",
        "community": "Landkreis Potsdam-Mittelmark",
        "latitude": 52.1977,
        "longitude": 12.7687
    },
    {

        "zipcode": "14822",
        "city": "M\u00fchlenflie\u00df",
        "state": "Brandenburg",
        "community": "Landkreis Potsdam-Mittelmark",
        "latitude": 52.1194,
        "longitude": 12.7917
    },
    {

        "zipcode": "14823",
        "city": "Niemegk",
        "state": "Brandenburg",
        "community": "Landkreis Potsdam-Mittelmark",
        "latitude": 52.0531,
        "longitude": 12.6185
    },
    {

        "zipcode": "14823",
        "city": "M\u00fchlenflie\u00df",
        "state": "Brandenburg",
        "community": "Landkreis Potsdam-Mittelmark",
        "latitude": 52.1194,
        "longitude": 12.7917
    },
    {

        "zipcode": "14823",
        "city": "Rabenstein/Fl\u00e4ming",
        "state": "Brandenburg",
        "community": "Landkreis Potsdam-Mittelmark",
        "latitude": 52.0333,
        "longitude": 12.6313
    },
    {

        "zipcode": "14827",
        "city": "Wiesenburg",
        "state": "Brandenburg",
        "community": "Landkreis Potsdam-Mittelmark",
        "latitude": 52.1146,
        "longitude": 12.4553
    },
    {

        "zipcode": "14828",
        "city": "G\u00f6rzke",
        "state": "Brandenburg",
        "community": "Landkreis Potsdam-Mittelmark",
        "latitude": 52.1718,
        "longitude": 12.3751
    },
    {

        "zipcode": "14913",
        "city": "Niederg\u00f6rsdorf",
        "state": "Brandenburg",
        "community": "Landkreis Teltow-Fl\u00e4ming",
        "latitude": 51.9794,
        "longitude": 12.9854
    },
    {

        "zipcode": "14913",
        "city": "J\u00fcterbog",
        "state": "Brandenburg",
        "community": "Landkreis Teltow-Fl\u00e4ming",
        "latitude": 51.9961,
        "longitude": 13.0798
    },
    {

        "zipcode": "14913",
        "city": "Niebendorf-Heinsdorf",
        "state": "Brandenburg",
        "community": "Landkreis Teltow-Fl\u00e4ming",
        "latitude": 51.9333,
        "longitude": 13.3333
    },
    {

        "zipcode": "14913",
        "city": "Wahlsdorf",
        "state": "Brandenburg",
        "community": "Landkreis Teltow-Fl\u00e4ming",
        "latitude": 51.9562,
        "longitude": 13.3278
    },
    {

        "zipcode": "14913",
        "city": "Herbersdorf",
        "state": "Brandenburg",
        "community": "Landkreis Teltow-Fl\u00e4ming",
        "latitude": 51.8618,
        "longitude": 13.295
    },
    {

        "zipcode": "14913",
        "city": "Ihlow",
        "state": "Brandenburg",
        "community": "Landkreis Teltow-Fl\u00e4ming",
        "latitude": 51.8672,
        "longitude": 13.3377
    },
    {

        "zipcode": "14913",
        "city": "Hohenseefeld",
        "state": "Brandenburg",
        "community": "Landkreis Teltow-Fl\u00e4ming",
        "latitude": 51.8895,
        "longitude": 13.305
    },
    {

        "zipcode": "14913",
        "city": "Nuthe-Urstromtal",
        "state": "Brandenburg",
        "community": "Landkreis Teltow-Fl\u00e4ming",
        "latitude": 52.1116,
        "longitude": 13.2152
    },
    {

        "zipcode": "14913",
        "city": "Niederer Fl\u00e4ming",
        "state": "Brandenburg",
        "community": "Landkreis Teltow-Fl\u00e4ming",
        "latitude": 51.9025,
        "longitude": 13.2092
    },
    {

        "zipcode": "14929",
        "city": "Treuenbrietzen",
        "state": "Brandenburg",
        "community": "Landkreis Potsdam-Mittelmark",
        "latitude": 52.0975,
        "longitude": 12.8726
    },
    {

        "zipcode": "14943",
        "city": "L\u00fchsdorf",
        "state": "Brandenburg",
        "community": "Landkreis Potsdam-Mittelmark",
        "latitude": 52.1564,
        "longitude": 12.9703
    },
    {

        "zipcode": "14943",
        "city": "Luckenwalde",
        "state": "Brandenburg",
        "community": "Landkreis Teltow-Fl\u00e4ming",
        "latitude": 52.0903,
        "longitude": 13.1677
    },
    {

        "zipcode": "14943",
        "city": "L\u00fcdersdorf",
        "state": "Brandenburg",
        "community": "Landkreis Teltow-Fl\u00e4ming",
        "latitude": 52.1858,
        "longitude": 13.2899
    },
    {

        "zipcode": "14947",
        "city": "Nuthe-Urstromtal",
        "state": "Brandenburg",
        "community": "Landkreis Teltow-Fl\u00e4ming",
        "latitude": 52.1116,
        "longitude": 13.2152
    },
    {

        "zipcode": "14959",
        "city": "Sch\u00f6nhagen",
        "state": "Brandenburg",
        "community": "Landkreis Teltow-Fl\u00e4ming",
        "latitude": 52.213,
        "longitude": 13.1464
    },
    {

        "zipcode": "14959",
        "city": "Trebbin",
        "state": "Brandenburg",
        "community": "Landkreis Teltow-Fl\u00e4ming",
        "latitude": 52.2168,
        "longitude": 13.225
    },
    {

        "zipcode": "14974",
        "city": "Thyrow",
        "state": "Brandenburg",
        "community": "Landkreis Teltow-Fl\u00e4ming",
        "latitude": 52.2526,
        "longitude": 13.2396
    },
    {

        "zipcode": "14974",
        "city": "Ludwigsfelde",
        "state": "Brandenburg",
        "community": "Landkreis Teltow-Fl\u00e4ming",
        "latitude": 52.3032,
        "longitude": 13.254
    },
    {

        "zipcode": "14979",
        "city": "Gro\u00dfbeeren",
        "state": "Brandenburg",
        "community": "Landkreis Teltow-Fl\u00e4ming",
        "latitude": 52.3586,
        "longitude": 13.3099
    },
    {

        "zipcode": "15230",
        "city": "Frankfurt (Oder)",
        "state": "Brandenburg",
        "community": "Frankfurt (Oder)",
        "latitude": 52.3475,
        "longitude": 14.5539
    },
    {

        "zipcode": "15232",
        "city": "Frankfurt (Oder)",
        "state": "Brandenburg",
        "community": "Frankfurt (Oder)",
        "latitude": 52.3241,
        "longitude": 14.5325
    },
    {

        "zipcode": "15234",
        "city": "Frankfurt (Oder)",
        "state": "Brandenburg",
        "community": "Frankfurt (Oder)",
        "latitude": 52.3646,
        "longitude": 14.5244
    },
    {

        "zipcode": "15236",
        "city": "Jacobsdorf Jacobsdorf",
        "state": "Brandenburg",
        "community": "Landkreis Oder-Spree",
        "latitude": 52.3345,
        "longitude": 14.4179
    },
    {

        "zipcode": "15236",
        "city": "Jacobsdorf Pillgram",
        "state": "Brandenburg",
        "community": "Landkreis Oder-Spree",
        "latitude": 52.3333,
        "longitude": 14.4
    },
    {

        "zipcode": "15236",
        "city": "Treplin",
        "state": "Brandenburg",
        "community": "Landkreis M\u00e4rkisch-Oderland",
        "latitude": 52.4,
        "longitude": 14.4
    },
    {

        "zipcode": "15236",
        "city": "Jacobsdorf",
        "state": "Brandenburg",
        "community": "Landkreis Oder-Spree",
        "latitude": 52.3333,
        "longitude": 14.35
    },
    {

        "zipcode": "15236",
        "city": "Jacobsdorf Sieversdorf",
        "state": "Brandenburg",
        "community": "Landkreis Oder-Spree",
        "latitude": 52.3833,
        "longitude": 14.3667
    },
    {

        "zipcode": "15236",
        "city": "Frankfurt (Oder)",
        "state": "Brandenburg",
        "community": "Frankfurt (Oder)",
        "latitude": 52.35,
        "longitude": 14.55
    },
    {

        "zipcode": "15236",
        "city": "Jacobsdorf Petersdorf bei Briesen",
        "state": "Brandenburg",
        "community": "Landkreis Oder-Spree",
        "latitude": 52.3667,
        "longitude": 14.35
    },
    {

        "zipcode": "15295",
        "city": "Brieskow-Finkenheerd",
        "state": "Brandenburg",
        "community": "Landkreis Oder-Spree",
        "latitude": 52.2539,
        "longitude": 14.5728
    },
    {

        "zipcode": "15295",
        "city": "Gro\u00df Lindow",
        "state": "Brandenburg",
        "community": "Landkreis Oder-Spree",
        "latitude": 52.2333,
        "longitude": 14.5333
    },
    {

        "zipcode": "15295",
        "city": "Wiesenau",
        "state": "Brandenburg",
        "community": "Landkreis Oder-Spree",
        "latitude": 52.2307,
        "longitude": 14.5911
    },
    {

        "zipcode": "15295",
        "city": "Ziltendorf Aurith",
        "state": "Brandenburg",
        "community": "Landkreis Oder-Spree",
        "latitude": 52.25,
        "longitude": 14.6833
    },
    {

        "zipcode": "15295",
        "city": "Gro\u00df Lindow Schlaubehammer",
        "state": "Brandenburg",
        "community": "Landkreis Oder-Spree",
        "latitude": 52.25,
        "longitude": 14.4833
    },
    {

        "zipcode": "15295",
        "city": "Ziltendorf",
        "state": "Brandenburg",
        "community": "Landkreis Oder-Spree",
        "latitude": 52.2061,
        "longitude": 14.6241
    },
    {

        "zipcode": "15295",
        "city": "Ziltendorf Ernst-Th\u00e4lmann-Siedlung",
        "state": "Brandenburg",
        "community": "Landkreis Oder-Spree",
        "latitude": 52.2333,
        "longitude": 14.6333
    },
    {

        "zipcode": "15295",
        "city": "Gro\u00df Lindow Wei\u00dfenspring",
        "state": "Brandenburg",
        "community": "Landkreis Oder-Spree",
        "latitude": 52.2333,
        "longitude": 14.5167
    },
    {

        "zipcode": "15299",
        "city": "Dammendorf",
        "state": "Brandenburg",
        "community": "Landkreis Oder-Spree",
        "latitude": 52.1408,
        "longitude": 14.416
    },
    {

        "zipcode": "15299",
        "city": "M\u00fcllrose",
        "state": "Brandenburg",
        "community": "Landkreis Oder-Spree",
        "latitude": 52.2474,
        "longitude": 14.4179
    },
    {

        "zipcode": "15299",
        "city": "Mixdorf",
        "state": "Brandenburg",
        "community": "Landkreis Oder-Spree",
        "latitude": 52.2,
        "longitude": 14.4
    },
    {

        "zipcode": "15299",
        "city": "Grunow-Dammendorf",
        "state": "Brandenburg",
        "community": "Landkreis Oder-Spree",
        "latitude": 52.15,
        "longitude": 14.4083
    },
    {

        "zipcode": "15299",
        "city": "Grunow-Dammendorf Grunow",
        "state": "Brandenburg",
        "community": "Landkreis Oder-Spree",
        "latitude": 52.15,
        "longitude": 14.4
    },
    {

        "zipcode": "15306",
        "city": "Vierlinden Diedersdorf",
        "state": "Brandenburg",
        "community": "Landkreis M\u00e4rkisch-Oderland",
        "latitude": 52.5121,
        "longitude": 14.3311
    },
    {

        "zipcode": "15306",
        "city": "Werbig",
        "state": "Brandenburg",
        "community": "Landkreis M\u00e4rkisch-Oderland",
        "latitude": 52.5617,
        "longitude": 14.3848
    },
    {

        "zipcode": "15306",
        "city": "Vierlinden G\u00f6rlsdorf",
        "state": "Brandenburg",
        "community": "Landkreis M\u00e4rkisch-Oderland",
        "latitude": 52.5299,
        "longitude": 14.3107
    },
    {

        "zipcode": "15306",
        "city": "Vierlinden Marxdorf",
        "state": "Brandenburg",
        "community": "Landkreis M\u00e4rkisch-Oderland",
        "latitude": 52.483,
        "longitude": 14.28
    },
    {

        "zipcode": "15306",
        "city": "Falkenhagen",
        "state": "Brandenburg",
        "community": "Landkreis M\u00e4rkisch-Oderland",
        "latitude": 52.4333,
        "longitude": 14.3167
    },
    {

        "zipcode": "15306",
        "city": "Vierlinden Neuentempel",
        "state": "Brandenburg",
        "community": "Landkreis M\u00e4rkisch-Oderland",
        "latitude": 52.502,
        "longitude": 14.3265
    },
    {

        "zipcode": "15306",
        "city": "Seelow",
        "state": "Brandenburg",
        "community": "Landkreis M\u00e4rkisch-Oderland",
        "latitude": 52.5339,
        "longitude": 14.3813
    },
    {

        "zipcode": "15306",
        "city": "Lietzen",
        "state": "Brandenburg",
        "community": "Landkreis M\u00e4rkisch-Oderland",
        "latitude": 52.4699,
        "longitude": 14.3401
    },
    {

        "zipcode": "15306",
        "city": "Vierlinden Worin",
        "state": "Brandenburg",
        "community": "Landkreis M\u00e4rkisch-Oderland",
        "latitude": 52.5206,
        "longitude": 14.2749
    },
    {

        "zipcode": "15306",
        "city": "Lindendorf",
        "state": "Brandenburg",
        "community": "Landkreis M\u00e4rkisch-Oderland",
        "latitude": 52.4899,
        "longitude": 14.4285
    },
    {

        "zipcode": "15306",
        "city": "Vierlinden Friedersdorf",
        "state": "Brandenburg",
        "community": "Landkreis M\u00e4rkisch-Oderland",
        "latitude": 52.5102,
        "longitude": 14.3987
    },
    {

        "zipcode": "15306",
        "city": "Gusow-Platkow Gusow",
        "state": "Brandenburg",
        "community": "Landkreis M\u00e4rkisch-Oderland",
        "latitude": 52.5719,
        "longitude": 14.3556
    },
    {

        "zipcode": "15306",
        "city": "Vierlinden",
        "state": "Brandenburg",
        "community": "Landkreis M\u00e4rkisch-Oderland",
        "latitude": 52.515,
        "longitude": 14.3141
    },
    {

        "zipcode": "15306",
        "city": "Lindendorf Neu Mahlisch",
        "state": "Brandenburg",
        "community": "Landkreis M\u00e4rkisch-Oderland",
        "latitude": 52.4802,
        "longitude": 14.3898
    },
    {

        "zipcode": "15306",
        "city": "Lindendorf Libbenichen",
        "state": "Brandenburg",
        "community": "Landkreis M\u00e4rkisch-Oderland",
        "latitude": 52.4775,
        "longitude": 14.4367
    },
    {

        "zipcode": "15306",
        "city": "Fichtenh\u00f6he Alt Mahlisch",
        "state": "Brandenburg",
        "community": "Landkreis M\u00e4rkisch-Oderland",
        "latitude": 52.4641,
        "longitude": 14.4209
    },
    {

        "zipcode": "15306",
        "city": "Lindendorf Dolgelin",
        "state": "Brandenburg",
        "community": "Landkreis M\u00e4rkisch-Oderland",
        "latitude": 52.4955,
        "longitude": 14.4071
    },
    {

        "zipcode": "15306",
        "city": "Vierlinden Alt Rosenthal",
        "state": "Brandenburg",
        "community": "Landkreis M\u00e4rkisch-Oderland",
        "latitude": 52.5471,
        "longitude": 14.277
    },
    {

        "zipcode": "15306",
        "city": "Gusow-Platkow",
        "state": "Brandenburg",
        "community": "Landkreis M\u00e4rkisch-Oderland",
        "latitude": 52.5777,
        "longitude": 14.34
    },
    {

        "zipcode": "15306",
        "city": "Lindendorf Sachsendorf",
        "state": "Brandenburg",
        "community": "Landkreis M\u00e4rkisch-Oderland",
        "latitude": 52.5063,
        "longitude": 14.4804
    },
    {

        "zipcode": "15306",
        "city": "Gusow-Platkow Platkow",
        "state": "Brandenburg",
        "community": "Landkreis M\u00e4rkisch-Oderland",
        "latitude": 52.5835,
        "longitude": 14.3244
    },
    {

        "zipcode": "15306",
        "city": "Fichtenh\u00f6he",
        "state": "Brandenburg",
        "community": "Landkreis M\u00e4rkisch-Oderland",
        "latitude": 52.4556,
        "longitude": 14.4469
    },
    {

        "zipcode": "15306",
        "city": "Fichtenh\u00f6he Niederjesar",
        "state": "Brandenburg",
        "community": "Landkreis M\u00e4rkisch-Oderland",
        "latitude": 52.4449,
        "longitude": 14.4324
    },
    {

        "zipcode": "15320",
        "city": "Sietzing",
        "state": "Brandenburg",
        "community": "Landkreis M\u00e4rkisch-Oderland",
        "latitude": 52.6594,
        "longitude": 14.286
    },
    {

        "zipcode": "15320",
        "city": "Neutrebbin Alttrebbin",
        "state": "Brandenburg",
        "community": "Landkreis M\u00e4rkisch-Oderland",
        "latitude": 52.6908,
        "longitude": 14.2481
    },
    {

        "zipcode": "15320",
        "city": "Neuhardenberg Quappendorf",
        "state": "Brandenburg",
        "community": "Landkreis M\u00e4rkisch-Oderland",
        "latitude": 52.6186,
        "longitude": 14.2669
    },
    {

        "zipcode": "15320",
        "city": "Neuhardenberg",
        "state": "Brandenburg",
        "community": "Landkreis M\u00e4rkisch-Oderland",
        "latitude": 52.596,
        "longitude": 14.2377
    },
    {

        "zipcode": "15320",
        "city": "Neuhardenberg Neuhardenberg",
        "state": "Brandenburg",
        "community": "Landkreis M\u00e4rkisch-Oderland",
        "latitude": 52.5955,
        "longitude": 14.2402
    },
    {

        "zipcode": "15320",
        "city": "Neutrebbin Neutrebbin",
        "state": "Brandenburg",
        "community": "Landkreis M\u00e4rkisch-Oderland",
        "latitude": 52.6667,
        "longitude": 14.2333
    },
    {

        "zipcode": "15320",
        "city": "Neuhardenberg Wulkow bei Trebnitz",
        "state": "Brandenburg",
        "community": "Landkreis M\u00e4rkisch-Oderland",
        "latitude": 52.5697,
        "longitude": 14.2351
    },
    {

        "zipcode": "15320",
        "city": "Neutrebbin",
        "state": "Brandenburg",
        "community": "Landkreis M\u00e4rkisch-Oderland",
        "latitude": 52.6648,
        "longitude": 14.228
    },